%time,field.header.seq,field.header.stamp,field.header.frame_id,field.orientation.x,field.orientation.y,field.orientation.z,field.orientation.w,field.orientation_covariance0,field.orientation_covariance1,field.orientation_covariance2,field.orientation_covariance3,field.orientation_covariance4,field.orientation_covariance5,field.orientation_covariance6,field.orientation_covariance7,field.orientation_covariance8,field.angular_velocity.x,field.angular_velocity.y,field.angular_velocity.z,field.angular_velocity_covariance0,field.angular_velocity_covariance1,field.angular_velocity_covariance2,field.angular_velocity_covariance3,field.angular_velocity_covariance4,field.angular_velocity_covariance5,field.angular_velocity_covariance6,field.angular_velocity_covariance7,field.angular_velocity_covariance8,field.linear_acceleration.x,field.linear_acceleration.y,field.linear_acceleration.z,field.linear_acceleration_covariance0,field.linear_acceleration_covariance1,field.linear_acceleration_covariance2,field.linear_acceleration_covariance3,field.linear_acceleration_covariance4,field.linear_acceleration_covariance5,field.linear_acceleration_covariance6,field.linear_acceleration_covariance7,field.linear_acceleration_covariance8
1405448445401079618,21,1405448445401079618,ardrone_base_link,-0.0395359621711,0.00844579210106,-0.00508872510399,0.999169495715,1.0,0.0,0.0,0.0,1.0,0.0,0.0,0.0,100000.0,-0.000233027152717,-0.00353613332845,6.02152758802e-05,1.0,0.0,0.0,0.0,1.0,0.0,0.0,0.0,1.0,0.0352700304706,-0.299188287556,9.7423216939,0.1,0.0,0.0,0.0,0.1,0.0,0.0,0.0,0.1
1405448445402411888,22,1405448445402411888,ardrone_base_link,-0.0395360122675,0.00843707283581,-0.00508907089463,0.999169565636,1.0,0.0,0.0,0.0,1.0,0.0,0.0,0.0,100000.0,-0.00134162697941,-0.00617531687021,4.79196969536e-05,1.0,0.0,0.0,0.0,1.0,0.0,0.0,0.0,1.0,0.0350031672511,-0.29831299372,9.72479851246,0.1,0.0,0.0,0.0,0.1,0.0,0.0,0.0,0.1
1405448445403676462,23,1405448445403676462,ardrone_base_link,-0.0395360122675,0.00843707283581,-0.00508907089463,0.999169565636,1.0,0.0,0.0,0.0,1.0,0.0,0.0,0.0,100000.0,-0.00170158781111,-0.00458016805351,-5.93723962083e-06,1.0,0.0,0.0,0.0,1.0,0.0,0.0,0.0,1.0,0.0345405991655,-0.297983802482,9.70493298769,0.1,0.0,0.0,0.0,0.1,0.0,0.0,0.0,0.1
1405448445405055098,24,1405448445405055098,ardrone_base_link,-0.0395360122675,0.00843707283581,-0.00508907089463,0.999169565636,1.0,0.0,0.0,0.0,1.0,0.0,0.0,0.0,100000.0,-0.000702749472111,-0.00576987955719,2.96710641123e-05,1.0,0.0,0.0,0.0,1.0,0.0,0.0,0.0,1.0,0.0356172155123,-0.299359126016,9.73240441084,0.1,0.0,0.0,0.0,0.1,0.0,0.0,0.0,0.1
1405448445406258796,25,1405448445406258796,ardrone_base_link,-0.0395360623639,0.0084283530502,-0.00508941670548,0.999169635485,1.0,0.0,0.0,0.0,1.0,0.0,0.0,0.0,100000.0,-0.000850212294608,-0.00447551021352,4.32377855759e-05,1.0,0.0,0.0,0.0,1.0,0.0,0.0,0.0,1.0,0.0354312719312,-0.3001739081,9.7353472352,0.1,0.0,0.0,0.0,0.1,0.0,0.0,0.0,0.1
1405448445409308658,26,1405448445409308658,ardrone_base_link,-0.0395360623639,0.0084283530502,-0.00508941670548,0.999169635485,1.0,0.0,0.0,0.0,1.0,0.0,0.0,0.0,100000.0,-0.00121047580615,-0.00427924701944,2.5401932362e-05,1.0,0.0,0.0,0.0,1.0,0.0,0.0,0.0,1.0,0.0337245050818,-0.299970267341,9.70492539406,0.1,0.0,0.0,0.0,0.1,0.0,0.0,0.0,0.1
1405448445410667775,27,1405448445410667775,ardrone_base_link,-0.0395360623639,0.0084283530502,-0.00508941670548,0.999169635485,1.0,0.0,0.0,0.0,1.0,0.0,0.0,0.0,100000.0,-0.00100505515002,-0.00513780070469,3.10877949232e-05,1.0,0.0,0.0,0.0,1.0,0.0,0.0,0.0,1.0,0.0331571092829,-0.300496838242,9.70829638243,0.1,0.0,0.0,0.0,0.1,0.0,0.0,0.0,0.1
1405448445413667643,28,1405448445413667643,ardrone_base_link,-0.0395360623639,0.0084283530502,-0.00508941670548,0.999169635485,1.0,0.0,0.0,0.0,1.0,0.0,0.0,0.0,100000.0,-0.00108634727076,-0.00502323638648,2.99088933389e-05,1.0,0.0,0.0,0.0,1.0,0.0,0.0,0.0,1.0,0.0336032876279,-0.301475211978,9.73614398241,0.1,0.0,0.0,0.0,0.1,0.0,0.0,0.0,0.1
1405448445446686458,29,1405448445446686458,ardrone_base_link,-0.0395360389785,0.00841997879694,-0.00509848179275,0.9991696608,1.0,0.0,0.0,0.0,1.0,0.0,0.0,0.0,100000.0,-0.00365140940994,-0.00476298108697,2.56697458099e-05,1.0,0.0,0.0,0.0,1.0,0.0,0.0,0.0,1.0,0.0340516952332,-0.302055796236,9.7571339488,0.1,0.0,0.0,0.0,0.1,0.0,0.0,0.0,0.1
1405448445447858875,30,1405448445447858875,ardrone_base_link,-0.0395360389785,0.00841997879694,-0.00509848179275,0.9991696608,1.0,0.0,0.0,0.0,1.0,0.0,0.0,0.0,100000.0,-0.00265278271399,-0.00489143561572,3.16195946652e-05,1.0,0.0,0.0,0.0,1.0,0.0,0.0,0.0,1.0,0.0337962270249,-0.301730620861,9.75178627968,0.1,0.0,0.0,0.0,0.1,0.0,0.0,0.0,0.1
1405448445449359439,31,1405448445449359439,ardrone_base_link,-0.0395359654953,0.00842032383013,-0.00510720160948,0.999169616267,1.0,0.0,0.0,0.0,1.0,0.0,0.0,0.0,100000.0,-0.00640272954479,-0.00479659345001,3.11925759888e-05,1.0,0.0,0.0,0.0,1.0,0.0,0.0,0.0,1.0,0.0338110081386,-0.3012873061,9.74849414825,0.1,0.0,0.0,0.0,0.1,0.0,0.0,0.0,0.1
1405448445450799894,32,1405448445450799894,ardrone_base_link,-0.0395358920135,0.00842066884213,-0.00511592090611,0.999169571661,1.0,0.0,0.0,0.0,1.0,0.0,0.0,0.0,100000.0,-0.00409280648455,-0.00481913983822,2.82513938146e-05,1.0,0.0,0.0,0.0,1.0,0.0,0.0,0.0,1.0,0.0332940091379,-0.300160418451,9.72711457014,0.1,0.0,0.0,0.0,0.1,0.0,0.0,0.0,0.1
1405448445451845139,33,1405448445451845139,ardrone_base_link,-0.0395359423291,0.00841194957626,-0.00511626669741,0.999169641344,1.0,0.0,0.0,0.0,1.0,0.0,0.0,0.0,100000.0,-0.00250327703543,-0.00491638854146,2.97470560326e-05,1.0,0.0,0.0,0.0,1.0,0.0,0.0,0.0,1.0,0.0332946160808,-0.276282498986,9.70464326143,0.1,0.0,0.0,0.0,0.1,0.0,0.0,0.0,0.1
1405448445453105935,34,1405448445453105935,ardrone_base_link,-0.0395359423291,0.00841194957626,-0.00511626669741,0.999169641344,1.0,0.0,0.0,0.0,1.0,0.0,0.0,0.0,100000.0,-0.00267415097915,-0.00485054496676,2.97531296383e-05,1.0,0.0,0.0,0.0,1.0,0.0,0.0,0.0,1.0,0.0351979776751,-0.254298369214,9.73494769335,0.1,0.0,0.0,0.0,0.1,0.0,0.0,0.0,0.1
1405448445454420846,35,1405448445454420846,ardrone_base_link,-0.039536089142,0.0084112595302,-0.00509882758283,0.999169730489,1.0,0.0,0.0,0.0,1.0,0.0,0.0,0.0,100000.0,0.00120391277596,-0.00482532382011,2.92888944387e-05,1.0,0.0,0.0,0.0,1.0,0.0,0.0,0.0,1.0,0.0354039070196,-0.259316372499,9.73707449436,0.1,0.0,0.0,0.0,0.1,0.0,0.0,0.0,0.1
1405448445455886201,36,1405448445455886201,ardrone_base_link,-0.0395273662046,0.00841121501617,-0.00509890101448,0.999170075608,1.0,0.0,0.0,0.0,1.0,0.0,0.0,0.0,100000.0,-0.00170908193104,-0.0048571638763,0.00141414231621,1.0,0.0,0.0,0.0,1.0,0.0,0.0,0.0,1.0,0.0352498256601,-0.261870443076,9.7301123023,0.1,0.0,0.0,0.0,0.1,0.0,0.0,0.0,0.1
1405448445457005385,37,1405448445457005385,ardrone_base_link,-0.0395274896877,0.00840215080775,-0.00509052742642,0.999170189683,1.0,0.0,0.0,0.0,1.0,0.0,0.0,0.0,100000.0,-0.000711326953024,-0.00484616309404,0.000935660325922,1.0,0.0,0.0,0.0,1.0,0.0,0.0,0.0,1.0,0.0354564600624,-0.260792238638,9.73284717798,0.1,0.0,0.0,0.0,0.1,0.0,0.0,0.0,0.1
1405448445458502643,38,1405448445458502643,ardrone_base_link,-0.0395188442239,0.00840176152479,-0.00508188143855,0.999170578948,1.0,0.0,0.0,0.0,1.0,0.0,0.0,0.0,100000.0,-0.00114679988474,-0.0048477165401,0.001543776365,1.0,0.0,0.0,0.0,1.0,0.0,0.0,0.0,1.0,0.0345643999986,-0.261512940004,9.70870585442,0.1,0.0,0.0,0.0,0.1,0.0,0.0,0.0,0.1
1405448445459671721,39,1405448445459671721,ardrone_base_link,-0.0395188442239,0.00840176152479,-0.00508188143855,0.999170578948,1.0,0.0,0.0,0.0,1.0,0.0,0.0,0.0,100000.0,-0.00401331298053,-0.00485472101718,0.000753664178774,1.0,0.0,0.0,0.0,1.0,0.0,0.0,0.0,1.0,0.0345435540192,-0.262636103854,9.70959606171,0.1,0.0,0.0,0.0,0.1,0.0,0.0,0.0,0.1
1405448445461093618,40,1405448445461093618,ardrone_base_link,-0.0395188442239,0.00840176152479,-0.00508188143855,0.999170578948,1.0,0.0,0.0,0.0,1.0,0.0,0.0,0.0,100000.0,-0.00252633518539,-0.00484319962561,-0.000691087916493,1.0,0.0,0.0,0.0,1.0,0.0,0.0,0.0,1.0,0.034642234724,-0.263993082196,9.71463239193,0.1,0.0,0.0,0.0,0.1,0.0,0.0,0.0,0.1
1405448445462422140,41,1405448445462422140,ardrone_base_link,-0.039518894228,0.00839304224986,-0.00508222707444,0.999170648492,1.0,0.0,0.0,0.0,1.0,0.0,0.0,0.0,100000.0,-0.00363252405077,-0.00484336493537,0.00018534832634,1.0,0.0,0.0,0.0,1.0,0.0,0.0,0.0,1.0,0.0353283129632,-0.265034377202,9.73571056128,0.1,0.0,0.0,0.0,0.1,0.0,0.0,0.0,0.1
1405448445463680504,42,1405448445463680504,ardrone_base_link,-0.039518894228,0.00839304224986,-0.00508222707444,0.999170648492,1.0,0.0,0.0,0.0,1.0,0.0,0.0,0.0,100000.0,-0.00252963742241,-0.00484808022156,-0.000471145205665,1.0,0.0,0.0,0.0,1.0,0.0,0.0,0.0,1.0,0.0361220345832,-0.265710721537,9.75947862864,0.1,0.0,0.0,0.0,0.1,0.0,0.0,0.0,0.1
1405448445464916942,43,1405448445464916942,ardrone_base_link,-0.0395189674687,0.0083926973862,-0.00507350776841,0.999170692805,1.0,0.0,0.0,0.0,1.0,0.0,0.0,0.0,100000.0,0.000291528878734,-0.0048447092995,0.000236185645917,1.0,0.0,0.0,0.0,1.0,0.0,0.0,0.0,1.0,0.0358446776401,-0.2650448367,9.7532173872,0.1,0.0,0.0,0.0,0.1,0.0,0.0,0.0,0.1
1405448445466468838,44,1405448445466468838,ardrone_base_link,-0.0395189674687,0.0083926973862,-0.00507350776841,0.999170692805,1.0,0.0,0.0,0.0,1.0,0.0,0.0,0.0,100000.0,-0.00132223544642,-0.00484405457973,0.000346464687027,1.0,0.0,0.0,0.0,1.0,0.0,0.0,0.0,1.0,0.0351865028031,-0.28666341342,9.74948716164,0.1,0.0,0.0,0.0,0.1,0.0,0.0,0.0,0.1
1405448445470518288,45,1405448445470518288,ardrone_base_link,-0.0395190173967,0.00838397759048,-0.0050738534239,0.99917076228,1.0,0.0,0.0,0.0,1.0,0.0,0.0,0.0,100000.0,-0.00270793261006,-0.00484424782917,-0.000124702695757,1.0,0.0,0.0,0.0,1.0,0.0,0.0,0.0,1.0,0.0355705060065,-0.308668571711,9.77344390154,0.1,0.0,0.0,0.0,0.1,0.0,0.0,0.0,0.1
1405448445471464895,46,1405448445471464895,ardrone_base_link,-0.039518944232,0.00838432245457,-0.00508257273053,0.999170717965,1.0,0.0,0.0,0.0,1.0,0.0,0.0,0.0,100000.0,-0.00305721769109,-0.00484236795455,-6.27847839496e-05,1.0,0.0,0.0,0.0,1.0,0.0,0.0,0.0,1.0,0.0365339822602,-0.303363726288,9.79608986378,0.1,0.0,0.0,0.0,0.1,0.0,0.0,0.0,0.1
1405448445472960287,47,1405448445472960287,ardrone_base_link,-0.0395188710644,0.00838466731803,-0.00509129203678,0.999170673573,1.0,0.0,0.0,0.0,1.0,0.0,0.0,0.0,100000.0,-0.00441692769527,-0.00484229438007,7.9743549577e-05,1.0,0.0,0.0,0.0,1.0,0.0,0.0,0.0,1.0,0.0364216430578,-0.30027266182,9.79063471556,0.1,0.0,0.0,0.0,0.1,0.0,0.0,0.0,0.1
1405448445474178395,48,1405448445474178395,ardrone_base_link,-0.0395189211385,0.00837594804226,-0.00509163767249,0.999170742963,1.0,0.0,0.0,0.0,1.0,0.0,0.0,0.0,100000.0,-0.00212232512422,-0.00484219193459,8.52770608617e-06,1.0,0.0,0.0,0.0,1.0,0.0,0.0,0.0,1.0,0.0362899866421,-0.301865225285,9.78733090162,0.1,0.0,0.0,0.0,0.1,0.0,0.0,0.0,0.1
1405448445475429316,49,1405448445475429316,ardrone_base_link,-0.03951899423,0.00837560317837,-0.00508291836564,0.999170787357,1.0,0.0,0.0,0.0,1.0,0.0,0.0,0.0,100000.0,0.00046618282795,-0.00484096957371,6.02539112151e-05,1.0,0.0,0.0,0.0,1.0,0.0,0.0,0.0,1.0,0.0363867461216,-0.301514165848,9.78915629387,0.1,0.0,0.0,0.0,0.1,0.0,0.0,0.0,0.1
1405448445476733384,50,1405448445476733384,ardrone_base_link,-0.03951899423,0.00837560317837,-0.00508291836564,0.999170787357,1.0,0.0,0.0,0.0,1.0,0.0,0.0,0.0,100000.0,-0.00141793466173,-0.00484041403979,4.79072477901e-05,1.0,0.0,0.0,0.0,1.0,0.0,0.0,0.0,1.0,0.0363827507943,-0.301529736444,9.78869425058,0.1,0.0,0.0,0.0,0.1,0.0,0.0,0.0,0.1
1405448445478011878,51,1405448445478011878,ardrone_base_link,-0.0395190442251,0.00836688390152,-0.00508326400037,0.999170856673,1.0,0.0,0.0,0.0,1.0,0.0,0.0,0.0,100000.0,-8.25384631753e-05,-0.00483992788941,-5.96073368797e-06,1.0,0.0,0.0,0.0,1.0,0.0,0.0,0.0,1.0,0.0363964184187,-0.301380127296,9.78876142502,0.1,0.0,0.0,0.0,0.1,0.0,0.0,0.0,0.1
1405448445479336029,52,1405448445479336029,ardrone_base_link,-0.0395190442251,0.00836688390152,-0.00508326400037,0.999170856673,1.0,0.0,0.0,0.0,1.0,0.0,0.0,0.0,100000.0,-0.00147553975694,-0.00483913626522,2.96915968647e-05,1.0,0.0,0.0,0.0,1.0,0.0,0.0,0.0,1.0,0.0363893199246,-0.301764956489,9.78861539364,0.1,0.0,0.0,0.0,0.1,0.0,0.0,0.0,0.1
1405448445480653252,53,1405448445480653252,ardrone_base_link,-0.03951899423,0.00837560317837,-0.00508291836564,0.999170787357,1.0,0.0,0.0,0.0,1.0,0.0,0.0,0.0,100000.0,-0.00166150275618,-0.00230831233785,4.32385786553e-05,1.0,0.0,0.0,0.0,1.0,0.0,0.0,0.0,1.0,0.0369286617264,-0.279682054743,9.78978773355,0.1,0.0,0.0,0.0,0.1,0.0,0.0,0.0,0.1
1405448445481927521,54,1405448445481927521,ardrone_base_link,-0.0395190673186,0.00837525831384,-0.00507419905841,0.999170831675,1.0,0.0,0.0,0.0,1.0,0.0,0.0,0.0,100000.0,-0.00069341971539,-0.00318181933835,2.53945181612e-05,1.0,0.0,0.0,0.0,1.0,0.0,0.0,0.0,1.0,0.0360739218071,-0.280010935664,9.76632866859,0.1,0.0,0.0,0.0,0.1,0.0,0.0,0.0,0.1
1405448445483271629,55,1405448445483271629,ardrone_base_link,-0.0395102754412,0.00837555882439,-0.00508299145116,0.999171132162,1.0,0.0,0.0,0.0,1.0,0.0,0.0,0.0,100000.0,-0.00342400348745,-0.00206888536923,3.10927716782e-05,1.0,0.0,0.0,0.0,1.0,0.0,0.0,0.0,1.0,0.0346698665991,-0.307342241704,9.74213010073,0.1,0.0,0.0,0.0,0.1,0.0,0.0,0.0,0.1
1405448445484245540,56,1405448445484245540,ardrone_base_link,-0.0395102254438,0.00838427810361,-0.00508264589213,0.99917106277,1.0,0.0,0.0,0.0,1.0,0.0,0.0,0.0,100000.0,-0.00283096171916,-0.00351298600435,2.9906805139e-05,1.0,0.0,0.0,0.0,1.0,0.0,0.0,0.0,1.0,0.0126382332761,-0.305233420804,9.74858527184,0.1,0.0,0.0,0.0,0.1,0.0,0.0,0.0,0.1
1405448445485633833,57,1405448445485633833,ardrone_base_link,-0.0395101522765,0.00838462289098,-0.00509136520139,0.999171018378,1.0,0.0,0.0,0.0,1.0,0.0,0.0,0.0,100000.0,-0.00379098439589,-0.00615310808644,2.56679850281e-05,1.0,0.0,0.0,0.0,1.0,0.0,0.0,0.0,1.0,0.0137287271675,-0.300641810894,9.75177459717,0.1,0.0,0.0,0.0,0.1,0.0,0.0,0.0,0.1
1405448445486964648,58,1405448445486964648,ardrone_base_link,-0.0395101292558,0.00837624839936,-0.00510043007049,0.999171043296,1.0,0.0,0.0,0.0,1.0,0.0,0.0,0.0,100000.0,-0.00499176047742,-0.00455019623041,3.16227669828e-05,1.0,0.0,0.0,0.0,1.0,0.0,0.0,0.0,1.0,0.041570191551,-0.30179916434,9.74938435555,0.1,0.0,0.0,0.0,0.1,0.0,0.0,0.0,0.1
1405448445488231481,59,1405448445488231481,ardrone_base_link,-0.0395100561543,0.00837659320644,-0.00510914989929,0.999170998747,1.0,0.0,0.0,0.0,1.0,0.0,0.0,0.0,100000.0,-0.00141679903027,-0.00574961770326,3.11917174258e-05,1.0,0.0,0.0,0.0,1.0,0.0,0.0,0.0,1.0,0.0159877846949,-0.323472575843,9.74937734604,0.1,0.0,0.0,0.0,0.1,0.0,0.0,0.0,0.1
1405448445489449828,60,1405448445489449828,ardrone_base_link,-0.0395099830541,0.00837693799234,-0.00511786920798,0.999170954123,1.0,0.0,0.0,0.0,1.0,0.0,0.0,0.0,100000.0,-0.00660739606246,-0.00445562880486,2.82503460767e-05,1.0,0.0,0.0,0.0,1.0,0.0,0.0,0.0,1.0,0.0117745352443,-0.322514208406,9.74937968254,0.1,0.0,0.0,0.0,0.1,0.0,0.0,0.0,0.1
1405448445490767211,61,1405448445490767211,ardrone_base_link,-0.0395099099509,0.00837728277759,-0.00512658851628,0.999170909424,1.0,0.0,0.0,0.0,1.0,0.0,0.0,0.0,100000.0,-0.00312837073579,-0.00425338884816,2.97479709843e-05,1.0,0.0,0.0,0.0,1.0,0.0,0.0,0.0,1.0,0.0406589922495,-0.292952984944,9.72676000595,0.1,0.0,0.0,0.0,0.1,0.0,0.0,0.0,0.1
1405448445523010909,62,1405448445523010909,ardrone_base_link,-0.0395099099509,0.00837728277759,-0.00512658851628,0.999170909424,1.0,0.0,0.0,0.0,1.0,0.0,0.0,0.0,100000.0,-0.00291492184624,-0.00511415163055,2.97528386e-05,1.0,0.0,0.0,0.0,1.0,0.0,0.0,0.0,1.0,0.0362329522613,-0.317910459638,9.72604970932,0.1,0.0,0.0,0.0,0.1,0.0,0.0,0.0,0.1
1405448445524382676,63,1405448445524382676,ardrone_base_link,-0.0395098368446,0.00837762756221,-0.00513530782419,0.999170864649,1.0,0.0,0.0,0.0,1.0,0.0,0.0,0.0,100000.0,-0.00323920836672,-0.00246995943598,2.92887489195e-05,1.0,0.0,0.0,0.0,1.0,0.0,0.0,0.0,1.0,0.0323926258832,-0.322576855868,9.75463856459,0.1,0.0,0.0,0.0,0.1,0.0,0.0,0.0,0.1
1405448445525853231,64,1405448445525853231,ardrone_base_link,-0.0395099099509,0.00837728277759,-0.00512658851628,0.999170909424,1.0,0.0,0.0,0.0,1.0,0.0,0.0,0.0,100000.0,0.00149828405119,-0.00308285001665,2.9977709346e-05,1.0,0.0,0.0,0.0,1.0,0.0,0.0,0.0,1.0,0.0344064373989,-0.292957329378,9.75325301886,0.1,0.0,0.0,0.0,0.1,0.0,0.0,0.0,0.1
1405448445526934423,65,1405448445526934423,ardrone_base_link,-0.039509859573,0.00838600205462,-0.00512624295423,0.999170840047,1.0,0.0,0.0,0.0,1.0,0.0,0.0,0.0,100000.0,-0.00153848365881,-0.00210019783117,-0.00135449308436,1.0,0.0,0.0,0.0,1.0,0.0,0.0,0.0,1.0,0.0329787981231,-0.295872371271,9.72499185801,0.1,0.0,0.0,0.0,0.1,0.0,0.0,0.0,0.1
1405448445528350739,66,1405448445528350739,ardrone_base_link,-0.0395185783593,0.00838604678602,-0.00512616977759,0.999170495245,1.0,0.0,0.0,0.0,1.0,0.0,0.0,0.0,100000.0,-0.00078403390944,-0.00344988028519,-0.000876609934494,1.0,0.0,0.0,0.0,1.0,0.0,0.0,0.0,1.0,0.0327516029589,-0.30032059662,9.70401649475,0.1,0.0,0.0,0.0,0.1,0.0,0.0,0.0,0.1
1405448445531630323,67,1405448445531630323,ardrone_base_link,-0.0395185783593,0.00838604678602,-0.00512616977759,0.999170495245,1.0,0.0,0.0,0.0,1.0,0.0,0.0,0.0,100000.0,-0.00110056181438,-0.00611273478717,-0.00148469756823,1.0,0.0,0.0,0.0,1.0,0.0,0.0,0.0,1.0,0.0332185017876,-0.299812900275,9.70935189724,0.1,0.0,0.0,0.0,0.1,0.0,0.0,0.0,0.1
1405448445532449131,68,1405448445532449131,ardrone_base_link,-0.0395186287378,0.008377327512,-0.00512651541572,0.999170564622,1.0,0.0,0.0,0.0,1.0,0.0,0.0,0.0,100000.0,-0.00151261361316,-0.00460826745257,-0.000694305635989,1.0,0.0,0.0,0.0,1.0,0.0,0.0,0.0,1.0,0.035053513851,-0.301971098036,9.73602423668,0.1,0.0,0.0,0.0,0.1,0.0,0.0,0.0,0.1
1405448445534035421,69,1405448445534035421,ardrone_base_link,-0.0395185556311,0.0083776723727,-0.00513523472063,0.999170519847,1.0,0.0,0.0,0.0,1.0,0.0,0.0,0.0,100000.0,-0.00343283847906,-0.00574268400669,0.000750322593376,1.0,0.0,0.0,0.0,1.0,0.0,0.0,0.0,1.0,0.0357207106892,-0.325598719716,9.75588742495,0.1,0.0,0.0,0.0,0.1,0.0,0.0,0.0,0.1
1405448445668079252,70,1405448445668079252,ardrone_base_link,-0.0395184825215,0.00837801723277,-0.00514395402514,0.999170474996,1.0,0.0,0.0,0.0,1.0,0.0,0.0,0.0,100000.0,-0.00243656360544,-0.00442415522411,-0.000126109924167,1.0,0.0,0.0,0.0,1.0,0.0,0.0,0.0,1.0,0.0354764070362,-0.325675751269,9.75072200298,0.1,0.0,0.0,0.0,0.1,0.0,0.0,0.0,0.1
1405448445669335005,71,1405448445669335005,ardrone_base_link,-0.0395096906188,0.00837831715008,-0.00515274695856,0.999170774867,1.0,0.0,0.0,0.0,1.0,0.0,0.0,0.0,100000.0,-0.00398427713662,-0.00425450736657,0.00191458198242,1.0,0.0,0.0,0.0,1.0,0.0,0.0,0.0,1.0,0.0356966679916,-0.297633838281,9.74891763926,0.1,0.0,0.0,0.0,0.1,0.0,0.0,0.0,0.1
1405448445670823298,72,1405448445670823298,ardrone_base_link,-0.039509741222,0.00836959787373,-0.00515309252204,0.999170844159,1.0,0.0,0.0,0.0,1.0,0.0,0.0,0.0,100000.0,-0.00239435816184,-0.00510482583195,0.000729006715119,1.0,0.0,0.0,0.0,1.0,0.0,0.0,0.0,1.0,0.0345618102234,-0.32219684571,9.74951111078,0.1,0.0,0.0,0.0,0.1,0.0,0.0,0.0,0.1
1405448445672044930,73,1405448445672044930,ardrone_base_link,-0.0395096681828,0.00836994265688,-0.00516181182938,0.999170799152,1.0,0.0,0.0,0.0,1.0,0.0,0.0,0.0,100000.0,-0.00224729301408,-0.00499309739098,0.00122717011254,1.0,0.0,0.0,0.0,1.0,0.0,0.0,0.0,1.0,0.0333455445245,-0.34778194502,9.74775055647,0.1,0.0,0.0,0.0,0.1,0.0,0.0,0.0,0.1
1405448445675700639,74,1405448445675700639,ardrone_base_link,-0.0395008763521,0.00837024232089,-0.00517060417546,0.999171098793,1.0,0.0,0.0,0.0,1.0,0.0,0.0,0.0,100000.0,-0.00303567270748,-0.00473961420357,0.000907930603717,1.0,0.0,0.0,0.0,1.0,0.0,0.0,0.0,1.0,0.0337005992886,-0.316613481939,9.74926694632,0.1,0.0,0.0,0.0,0.1,0.0,0.0,0.0,0.1
1405448445676661046,75,1405448445676661046,ardrone_base_link,-0.0395095951406,0.00837028743938,-0.00517053113633,0.999170754069,1.0,0.0,0.0,0.0,1.0,0.0,0.0,0.0,100000.0,-0.00286917155609,-0.00485828425735,-0.000598726095632,1.0,0.0,0.0,0.0,1.0,0.0,0.0,0.0,1.0,0.0349743077997,-0.292053358629,9.77366645336,0.1,0.0,0.0,0.0,0.1,0.0,0.0,0.0,0.1
1405448445677866446,76,1405448445677866446,ardrone_base_link,-0.0395008541351,0.008361867748,-0.00517966897383,0.999171122841,1.0,0.0,0.0,0.0,1.0,0.0,0.0,0.0,100000.0,-0.00529720354825,-0.00476406607777,0.00013526645489,1.0,0.0,0.0,0.0,1.0,0.0,0.0,0.0,1.0,0.05737054497,-0.298192371801,9.77240591049,0.1,0.0,0.0,0.0,0.1,0.0,0.0,0.0,0.1
1405448445679332391,77,1405448445679332391,ardrone_base_link,-0.0395095508489,0.00835353847197,-0.00518866139937,0.999170802005,1.0,0.0,0.0,0.0,1.0,0.0,0.0,0.0,100000.0,-0.0045522772707,-0.0047915535979,-0.000450089253718,1.0,0.0,0.0,0.0,1.0,0.0,0.0,0.0,1.0,0.0559216307476,-0.300085832924,9.74361845255,0.1,0.0,0.0,0.0,0.1,0.0,0.0,0.0,0.1
1405448445680427428,78,1405448445680427428,ardrone_base_link,-0.0395007591613,0.00835383790067,-0.00519745360232,0.999171101411,1.0,0.0,0.0,0.0,1.0,0.0,0.0,0.0,100000.0,-0.00550479069352,-0.00488679483533,0.000205558622838,1.0,0.0,0.0,0.0,1.0,0.0,0.0,0.0,1.0,0.051265506912,-0.298664071411,9.74654433727,0.1,0.0,0.0,0.0,0.1,0.0,0.0,0.0,0.1
1405448445681669221,79,1405448445681669221,ardrone_base_link,-0.0395007373128,0.00834546280711,-0.00520651842233,0.999171125067,1.0,0.0,0.0,0.0,1.0,0.0,0.0,0.0,100000.0,-0.00406782887876,-0.00482112821192,0.000328206340782,1.0,0.0,0.0,0.0,1.0,0.0,0.0,0.0,1.0,0.0538645505905,-0.299133306742,9.75118579865,0.1,0.0,0.0,0.0,0.1,0.0,0.0,0.0,0.1
1405448445684121414,80,1405448445684121414,ardrone_base_link,-0.0395007373128,0.00834546280711,-0.00520651842233,0.999171125067,1.0,0.0,0.0,0.0,1.0,0.0,0.0,0.0,100000.0,-0.00152116874233,-0.00479652546346,-8.91398885869e-05,1.0,0.0,0.0,0.0,1.0,0.0,0.0,0.0,1.0,0.0317860389128,-0.300203661993,9.77301340103,0.1,0.0,0.0,0.0,0.1,0.0,0.0,0.0,0.1
1405448445832346056,81,1405448445832346056,ardrone_base_link,-0.0395007373128,0.00834546280711,-0.00520651842233,0.999171125067,1.0,0.0,0.0,0.0,1.0,0.0,0.0,0.0,100000.0,-0.00053521594964,-0.00482720695436,-6.28596098977e-05,1.0,0.0,0.0,0.0,1.0,0.0,0.0,0.0,1.0,0.0326102377381,-0.300350587815,9.77300171852,0.1,0.0,0.0,0.0,0.1,0.0,0.0,0.0,0.1
1405448445833584547,82,1405448445833584547,ardrone_base_link,-0.0395008101383,0.0083451181019,-0.00519779911214,0.999171170464,1.0,0.0,0.0,0.0,1.0,0.0,0.0,0.0,100000.0,-0.000171083956957,-0.00228642113507,6.61339145154e-05,1.0,0.0,0.0,0.0,1.0,0.0,0.0,0.0,1.0,0.0371998785064,-0.277025360614,9.74500867128,0.1,0.0,0.0,0.0,0.1,0.0,0.0,0.0,0.1
1405448445834738631,83,1405448445834738631,ardrone_base_link,-0.0395008829608,0.00834477339605,-0.00518907980156,0.999171215785,1.0,0.0,0.0,0.0,1.0,0.0,0.0,0.0,100000.0,-0.000359206460416,-0.00316258636303,1.27494204207e-05,1.0,0.0,0.0,0.0,1.0,0.0,0.0,0.0,1.0,0.0350616847631,-0.278258540854,9.74811154604,0.1,0.0,0.0,0.0,0.1,0.0,0.0,0.0,0.1
1405448445836046521,84,1405448445836046521,ardrone_base_link,-0.0395008320599,0.00835349319527,-0.00518873429234,0.999171146728,1.0,0.0,0.0,0.0,1.0,0.0,0.0,0.0,100000.0,-0.00202661077492,-0.00205689994618,5.8783320128e-05,1.0,0.0,0.0,0.0,1.0,0.0,0.0,0.0,1.0,0.0354511572979,-0.30683580488,9.75131021738,0.1,0.0,0.0,0.0,0.1,0.0,0.0,0.0,0.1
1405448445837269828,85,1405448445837269828,ardrone_base_link,-0.0395008320599,0.00835349319527,-0.00518873429234,0.999171146728,1.0,0.0,0.0,0.0,1.0,0.0,0.0,0.0,100000.0,-0.00129566341639,-0.00349036953412,4.76236127724e-05,1.0,0.0,0.0,0.0,1.0,0.0,0.0,0.0,1.0,0.0351930719335,-0.305110571906,9.74935106039,0.1,0.0,0.0,0.0,0.1,0.0,0.0,0.0,0.1
1405448445838516700,86,1405448445838516700,ardrone_base_link,-0.0395008320599,0.00835349319527,-0.00518873429234,0.999171146728,1.0,0.0,0.0,0.0,1.0,0.0,0.0,0.0,100000.0,-0.000662081874907,-0.00613161735237,-2.01114744414e-06,1.0,0.0,0.0,0.0,1.0,0.0,0.0,0.0,1.0,0.0359127944335,-0.301509365067,9.7501501441,0.1,0.0,0.0,0.0,0.1,0.0,0.0,0.0,0.1
1405448445839852407,87,1405448445839852407,ardrone_base_link,-0.0395008829608,0.00834477339605,-0.00518907980156,0.999171215785,1.0,0.0,0.0,0.0,1.0,0.0,0.0,0.0,100000.0,-0.000982193509117,-0.0045339083299,2.76900100289e-05,1.0,0.0,0.0,0.0,1.0,0.0,0.0,0.0,1.0,0.0369055613875,-0.304605066031,9.7731500864,0.1,0.0,0.0,0.0,0.1,0.0,0.0,0.0,0.1
1405448445841501122,88,1405448445841501122,ardrone_base_link,-0.0395008829608,0.00834477339605,-0.00518907980156,0.999171215785,1.0,0.0,0.0,0.0,1.0,0.0,0.0,0.0,100000.0,-0.0010250734631,-0.00573087064549,4.16689290432e-05,1.0,0.0,0.0,0.0,1.0,0.0,0.0,0.0,1.0,0.0374744973611,-0.281540523097,9.77401576042,0.1,0.0,0.0,0.0,0.1,0.0,0.0,0.0,0.1
1405448445842572730,89,1405448445842572730,ardrone_base_link,-0.0395008829608,0.00834477339605,-0.00518907980156,0.999171215785,1.0,0.0,0.0,0.0,1.0,0.0,0.0,0.0,100000.0,-0.00360817229375,-0.00443713646382,2.67640716629e-05,1.0,0.0,0.0,0.0,1.0,0.0,0.0,0.0,1.0,0.0367632355541,-0.258611880615,9.74621196985,0.1,0.0,0.0,0.0,0.1,0.0,0.0,0.0,0.1
1405448445851748724,90,1405448445851748724,ardrone_base_link,-0.0395008829608,0.00834477339605,-0.00518907980156,0.999171215785,1.0,0.0,0.0,0.0,1.0,0.0,0.0,0.0,100000.0,-0.00281401257962,-0.00423562061042,3.09657552862e-05,1.0,0.0,0.0,0.0,1.0,0.0,0.0,0.0,1.0,0.0356037213001,-0.285841128975,9.74767169952,0.1,0.0,0.0,0.0,0.1,0.0,0.0,0.0,0.1
1405448445884675619,91,1405448445884675619,ardrone_base_link,-0.0395008101383,0.0083451181019,-0.00519779911214,0.999171170464,1.0,0.0,0.0,0.0,1.0,0.0,0.0,0.0,100000.0,-0.00634942296892,-0.00256461952813,2.97749575111e-05,1.0,0.0,0.0,0.0,1.0,0.0,0.0,0.0,1.0,0.0119823652785,-0.310564570129,9.75176583529,0.1,0.0,0.0,0.0,0.1,0.0,0.0,0.0,0.1
1405448445887700327,92,1405448445887700327,ardrone_base_link,-0.0395006862597,0.00835418260544,-0.00520617291191,0.999171056017,1.0,0.0,0.0,0.0,1.0,0.0,0.0,0.0,100000.0,-0.0039829025045,-0.00332499598153,2.59996013483e-05,1.0,0.0,0.0,0.0,1.0,0.0,0.0,0.0,1.0,-0.0104765376076,-0.302766111121,9.75046323538,0.1,0.0,0.0,0.0,0.1,0.0,0.0,0.0,0.1
1405448445889046233,93,1405448445889046233,ardrone_base_link,-0.0395006352066,0.00836290188341,-0.00520582742168,0.999170986894,1.0,0.0,0.0,0.0,1.0,0.0,0.0,0.0,100000.0,-0.00252133933827,-0.00195170985535,3.1266012229e-05,1.0,0.0,0.0,0.0,1.0,0.0,0.0,0.0,1.0,-0.00504427296109,-0.299201868474,9.7509947896,0.1,0.0,0.0,0.0,0.1,0.0,0.0,0.0,0.1
1405448445890442072,94,1405448445890442072,ardrone_base_link,-0.0395005110937,0.00837196586399,-0.00521420123904,0.999170872232,1.0,0.0,0.0,0.0,1.0,0.0,0.0,0.0,100000.0,-0.00266714184545,-0.00352526619099,3.11407202389e-05,1.0,0.0,0.0,0.0,1.0,0.0,0.0,0.0,1.0,-0.00200889179832,-0.299793149531,9.75058531761,0.1,0.0,0.0,0.0,0.1,0.0,0.0,0.0,0.1
1405448445891796495,95,1405448445891796495,ardrone_base_link,-0.0395005841505,0.00837162116075,-0.00520548193106,0.999170917696,1.0,0.0,0.0,0.0,1.0,0.0,0.0,0.0,100000.0,0.00122464029118,-0.00607071677223,2.84928755718e-05,1.0,0.0,0.0,0.0,1.0,0.0,0.0,0.0,1.0,-0.00309237703914,-0.29892988503,9.75094455481,0.1,0.0,0.0,0.0,0.1,0.0,0.0,0.0,0.1
1405448445893048621,96,1405448445893048621,ardrone_base_link,-0.0394918143021,0.008380295017,-0.00520520956689,0.999171193065,1.0,0.0,0.0,0.0,1.0,0.0,0.0,0.0,100000.0,-0.00170642882586,-0.00449011474848,2.96678263112e-05,1.0,0.0,0.0,0.0,1.0,0.0,0.0,0.0,1.0,-0.00207121297135,-0.298764157668,9.75077691078,0.1,0.0,0.0,0.0,0.1,0.0,0.0,0.0,0.1
1405448445901839134,97,1405448445901839134,ardrone_base_link,-0.0394918143021,0.008380295017,-0.00520520956689,0.999171193065,1.0,0.0,0.0,0.0,1.0,0.0,0.0,0.0,100000.0,-0.00068332767114,-0.00578768365085,2.97158912872e-05,1.0,0.0,0.0,0.0,1.0,0.0,0.0,0.0,1.0,-0.00171869279293,-0.299160377309,9.75076990128,0.1,0.0,0.0,0.0,0.1,0.0,0.0,0.0,0.1
1405448445903011207,98,1405448445903011207,ardrone_base_link,-0.0394918143021,0.008380295017,-0.00520520956689,0.999171193065,1.0,0.0,0.0,0.0,1.0,0.0,0.0,0.0,100000.0,-0.00112453685142,-0.00442848494276,2.93325065286e-05,1.0,0.0,0.0,0.0,1.0,0.0,0.0,0.0,1.0,-0.00147818538535,-0.30039514564,9.75083415508,0.1,0.0,0.0,0.0,0.1,0.0,0.0,0.0,0.1
1405448446060825158,99,1405448446060825158,ardrone_base_link,-0.0394916834689,0.00841482802363,-0.00519510857424,0.999170960573,1.0,0.0,0.0,0.0,1.0,0.0,0.0,0.0,100000.0,-0.00102136051282,0.00215604738332,2.95960726362e-05,1.0,0.0,0.0,0.0,1.0,0.0,0.0,0.0,1.0,0.0281814665068,-0.29986406602,9.70955049992,0.1,0.0,0.0,0.0,0.1,0.0,0.0,0.0,0.1
1405448446063040900,100,1405448446063040900,ardrone_base_link,-0.0394916324715,0.00842354730059,-0.00519476315793,0.999170890915,1.0,0.0,0.0,0.0,1.0,0.0,0.0,0.0,100000.0,-0.00105705182068,0.000974645838141,2.96386497212e-05,1.0,0.0,0.0,0.0,1.0,0.0,0.0,0.0,1.0,0.031123232143,-0.299561415985,9.71250500679,0.1,0.0,0.0,0.0,0.1,0.0,0.0,0.0,0.1
1405448446064106166,101,1405448446064106166,ardrone_base_link,-0.0394916550541,0.0084319219516,-0.00518569843369,0.999170866471,1.0,0.0,0.0,0.0,1.0,0.0,0.0,0.0,100000.0,-0.0010214173235,-0.00203210767359,2.96235375572e-05,1.0,0.0,0.0,0.0,1.0,0.0,0.0,0.0,1.0,0.0590662248433,-0.298979444429,9.71022049189,0.1,0.0,0.0,0.0,0.1,0.0,0.0,0.0,0.1
1405448446065415340,102,1405448446065415340,ardrone_base_link,-0.0394829871883,0.00842315742098,-0.00518611735065,0.999171280777,1.0,0.0,0.0,0.0,1.0,0.0,0.0,0.0,100000.0,-0.00102371815592,-0.00197353470139,0.00141377863474,1.0,0.0,0.0,0.0,1.0,0.0,0.0,0.0,1.0,0.0805237472057,-0.276184803993,9.71124680042,0.1,0.0,0.0,0.0,0.1,0.0,0.0,0.0,0.1
1405448446067591123,103,1405448446067591123,ardrone_base_link,-0.0394831115409,0.00841409356926,-0.00517774285839,0.999171395663,1.0,0.0,0.0,0.0,1.0,0.0,0.0,0.0,100000.0,-0.0010318660643,-0.00508904131129,0.000935613410547,1.0,0.0,0.0,0.0,1.0,0.0,0.0,0.0,1.0,0.0770317079499,-0.254319178686,9.71228595972,0.1,0.0,0.0,0.0,0.1,0.0,0.0,0.0,0.1
1405448446068759967,104,1405448446068759967,ardrone_base_link,-0.0394831849653,0.00841374901786,-0.00516902354584,0.999171440809,1.0,0.0,0.0,0.0,1.0,0.0,0.0,0.0,100000.0,-0.0010224787984,-0.0022896961309,0.00154401781037,1.0,0.0,0.0,0.0,1.0,0.0,0.0,0.0,1.0,0.0740518874489,-0.260066608712,9.71227602959,0.1,0.0,0.0,0.0,0.1,0.0,0.0,0.0,0.1
1405448446070025097,105,1405448446070025097,ardrone_base_link,-0.0394745395919,0.00841335943657,-0.00516037764827,0.999171830372,1.0,0.0,0.0,0.0,1.0,0.0,0.0,0.0,100000.0,-0.00102752400562,-0.00342840771191,0.000753581756726,1.0,0.0,0.0,0.0,1.0,0.0,0.0,0.0,1.0,0.0762449502014,-0.263737052679,9.73536943197,0.1,0.0,0.0,0.0,0.1,0.0,0.0,0.0,0.1
1405448446072055012,106,1405448446072055012,ardrone_base_link,-0.0394832357309,0.00840502973591,-0.00516936888385,0.999171510401,1.0,0.0,0.0,0.0,1.0,0.0,0.0,0.0,100000.0,-0.00358506431803,-0.00543663278222,-0.000691122142598,1.0,0.0,0.0,0.0,1.0,0.0,0.0,0.0,1.0,0.074899846036,-0.285438922048,9.75731853247,0.1,0.0,0.0,0.0,0.1,0.0,0.0,0.0,0.1
1405448446073289364,107,1405448446073289364,ardrone_base_link,-0.0394745676977,0.00839626534195,-0.00516978748767,0.999171924411,1.0,0.0,0.0,0.0,1.0,0.0,0.0,0.0,100000.0,-0.00269644381478,-0.0043861255981,0.000185391749255,1.0,0.0,0.0,0.0,1.0,0.0,0.0,0.0,1.0,0.0727528424934,-0.307792748511,9.75053800344,0.1,0.0,0.0,0.0,0.1,0.0,0.0,0.0,0.1
1405448446074627898,108,1405448446074627898,ardrone_base_link,-0.0394832640598,0.0083879352031,-0.00517877889363,0.999171604206,1.0,0.0,0.0,0.0,1.0,0.0,0.0,0.0,100000.0,-0.00382158765569,-0.00354048027657,-0.000471186765935,1.0,0.0,0.0,0.0,1.0,0.0,0.0,0.0,1.0,0.0703616242856,-0.301376622543,9.72434406281,0.1,0.0,0.0,0.0,0.1,0.0,0.0,0.0,0.1
1405448446075804020,109,1405448446075804020,ardrone_base_link,-0.0394745452638,0.00838789001264,-0.00517885208675,0.9991719487,1.0,0.0,0.0,0.0,1.0,0.0,0.0,0.0,100000.0,-0.00236303918064,-0.00287765427493,0.000236196705373,1.0,0.0,0.0,0.0,1.0,0.0,0.0,0.0,1.0,0.0685434103943,-0.297838081419,9.70326355696,0.1,0.0,0.0,0.0,0.1,0.0,0.0,0.0,0.1
1405448446077284518,110,1405448446077284518,ardrone_base_link,-0.0394745452638,0.00838789001264,-0.00517885208675,0.9991719487,1.0,0.0,0.0,0.0,1.0,0.0,0.0,0.0,100000.0,-0.00224955752492,-0.00133946642745,0.000346491346136,1.0,0.0,0.0,0.0,1.0,0.0,0.0,0.0,1.0,0.0687955792062,-0.299699488655,9.73195288181,0.1,0.0,0.0,0.0,0.1,0.0,0.0,0.0,0.1
1405448446078411894,111,1405448446078411894,ardrone_base_link,-0.0394745452638,0.00838789001264,-0.00517885208675,0.9991719487,1.0,0.0,0.0,0.0,1.0,0.0,0.0,0.0,100000.0,-0.000429677544162,-0.00370233994909,-0.000124724203488,1.0,0.0,0.0,0.0,1.0,0.0,0.0,0.0,1.0,0.0695864988491,-0.299605773017,9.75795289278,0.1,0.0,0.0,0.0,0.1,0.0,0.0,0.0,0.1
1405448446079790768,112,1405448446079790768,ardrone_base_link,-0.0394745960958,0.0083791707262,-0.0051791973481,0.999172018061,1.0,0.0,0.0,0.0,1.0,0.0,0.0,0.0,100000.0,-0.00122349103913,-0.00625663110986,-6.2786428316e-05,1.0,0.0,0.0,0.0,1.0,0.0,0.0,0.0,1.0,0.0481321754865,-0.300201051682,9.77425992489,0.1,0.0,0.0,0.0,0.1,0.0,0.0,0.0,0.1
1405448446080959927,113,1405448446080959927,ardrone_base_link,-0.0394745452638,0.00838789001264,-0.00517885208675,0.9991719487,1.0,0.0,0.0,0.0,1.0,0.0,0.0,0.0,100000.0,5.42011111975e-05,-0.00191919680219,7.97517932369e-05,1.0,0.0,0.0,0.0,1.0,0.0,0.0,0.0,1.0,0.0277425463777,-0.300890009478,9.79522360563,0.1,0.0,0.0,0.0,0.1,0.0,0.0,0.0,0.1
1405448446084324801,114,1405448446084324801,ardrone_base_link,-0.0394746692155,0.00837882624911,-0.00517047803012,0.999172063219,1.0,0.0,0.0,0.0,1.0,0.0,0.0,0.0,100000.0,0.00105846999213,-0.00413102842867,8.52233733895e-06,1.0,0.0,0.0,0.0,1.0,0.0,0.0,0.0,1.0,0.0340941607021,-0.301239736378,9.79085025787,0.1,0.0,0.0,0.0,0.1,0.0,0.0,0.0,0.1
1405448446085245857,115,1405448446085245857,ardrone_base_link,-0.0394746184596,0.00838754553599,-0.00517013276938,0.999171993855,1.0,0.0,0.0,0.0,1.0,0.0,0.0,0.0,100000.0,-0.00235748873092,-0.00157329486683,6.02559521212e-05,1.0,0.0,0.0,0.0,1.0,0.0,0.0,0.0,1.0,0.0367332375143,-0.301105551794,9.76407219172,0.1,0.0,0.0,0.0,0.1,0.0,0.0,0.0,0.1
1405448446086417700,116,1405448446086417700,ardrone_base_link,-0.0394746916524,0.00838720105871,-0.00516141345161,0.999172038935,1.0,0.0,0.0,0.0,1.0,0.0,0.0,0.0,100000.0,0.000359755242243,-0.00283612613566,4.79093723698e-05,1.0,0.0,0.0,0.0,1.0,0.0,0.0,0.0,1.0,0.0361885016784,-0.279412024468,9.76734329462,0.1,0.0,0.0,0.0,0.1,0.0,0.0,0.0,0.1
1405448446087752109,117,1405448446087752109,ardrone_base_link,-0.0394746916524,0.00838720105871,-0.00516141345161,0.999172038935,1.0,0.0,0.0,0.0,1.0,0.0,0.0,0.0,100000.0,-0.00242153438739,-0.00646033138037,0.00137820083182,1.0,0.0,0.0,0.0,1.0,0.0,0.0,0.0,1.0,0.0150121364975,-0.258553760126,9.77352100611,0.1,0.0,0.0,0.0,0.1,0.0,0.0,0.0,0.1
1405448446088916414,118,1405448446088916414,ardrone_base_link,-0.0394659180096,0.00839587580772,-0.00516114146824,0.99917231407,1.0,0.0,0.0,0.0,1.0,0.0,0.0,0.0,100000.0,-0.00118708261289,-0.00467816041782,0.000935680582188,1.0,0.0,0.0,0.0,1.0,0.0,0.0,0.0,1.0,-0.00858276217477,-0.286615022272,9.74735043049,0.1,0.0,0.0,0.0,0.1,0.0,0.0,0.0,0.1
1405448446091681382,119,1405448446091681382,ardrone_base_link,-0.0394659180096,0.00839587580772,-0.00516114146824,0.99917231407,1.0,0.0,0.0,0.0,1.0,0.0,0.0,0.0,100000.0,-0.00276453839615,-0.0055911000818,0.00155763793737,1.0,0.0,0.0,0.0,1.0,0.0,0.0,0.0,1.0,-0.00433433627477,-0.310839291662,9.72351869345,0.1,0.0,0.0,0.0,0.1,0.0,0.0,0.0,0.1
1405448446092838225,120,1405448446092838225,ardrone_base_link,-0.0394659180096,0.00839587580772,-0.00516114146824,0.99917231407,1.0,0.0,0.0,0.0,1.0,0.0,0.0,0.0,100000.0,-0.00284311687574,-0.00445737503469,0.000749357044697,1.0,0.0,0.0,0.0,1.0,0.0,0.0,0.0,1.0,-0.00154834604764,-0.303455653042,9.72953401804,0.1,0.0,0.0,0.0,0.1,0.0,0.0,0.0,0.1
1405448446094082441,121,1405448446094082441,ardrone_base_link,-0.0394657939799,0.00840493949705,-0.005169515603,0.999172199476,1.0,0.0,0.0,0.0,1.0,0.0,0.0,0.0,100000.0,-0.00401567202061,-0.00414505600929,-0.000689652515575,1.0,0.0,0.0,0.0,1.0,0.0,0.0,0.0,1.0,-0.00353930636193,-0.300444741547,9.73275196552,0.1,0.0,0.0,0.0,0.1,0.0,0.0,0.0,0.1
1405448446098703501,122,1405448446098703501,ardrone_base_link,-0.0394657939799,0.00840493949705,-0.005169515603,0.999172199476,1.0,0.0,0.0,0.0,1.0,0.0,0.0,0.0,100000.0,-0.0022269373294,-0.00503381201997,0.000185678130947,1.0,0.0,0.0,0.0,1.0,0.0,0.0,0.0,1.0,0.0178862679284,-0.300170458108,9.70715383291,0.1,0.0,0.0,0.0,0.1,0.0,0.0,0.0,0.1
1405448446100003483,123,1405448446100003483,ardrone_base_link,-0.0394658447412,0.00839622020844,-0.00516986078841,0.999172268993,1.0,0.0,0.0,0.0,1.0,0.0,0.0,0.0,100000.0,0.000188932754099,-0.00502881314605,-0.000475138862384,1.0,0.0,0.0,0.0,1.0,0.0,0.0,0.0,1.0,0.0393722686917,-0.298844566196,9.70739449263,0.1,0.0,0.0,0.0,0.1,0.0,0.0,0.0,0.1
1405448446101102253,124,1405448446101102253,ardrone_base_link,-0.0394658447412,0.00839622020844,-0.00516986078841,0.999172268993,1.0,0.0,0.0,0.0,1.0,0.0,0.0,0.0,100000.0,-0.00127805443481,-0.00468942336738,0.000238198175794,1.0,0.0,0.0,0.0,1.0,0.0,0.0,0.0,1.0,0.0123266228475,-0.29930087775,9.73688056469,0.1,0.0,0.0,0.0,0.1,0.0,0.0,0.0,0.1
1405448446102511820,125,1405448446102511820,ardrone_base_link,-0.0394571485229,0.00840455006323,-0.00516086962194,0.999172588892,1.0,0.0,0.0,0.0,1.0,0.0,0.0,0.0,100000.0,7.59493559599e-07,-0.0047941384837,0.000348062545527,1.0,0.0,0.0,0.0,1.0,0.0,0.0,0.0,1.0,-0.0119093758287,-0.299769821018,9.75801948309,0.1,0.0,0.0,0.0,0.1,0.0,0.0,0.0,0.1
1405448446103800815,126,1405448446103800815,ardrone_base_link,-0.0394571485229,0.00840455006323,-0.00516086962194,0.999172588892,1.0,0.0,0.0,0.0,1.0,0.0,0.0,0.0,100000.0,-0.00146833923645,-0.00473689194769,-0.000126094586449,1.0,0.0,0.0,0.0,1.0,0.0,0.0,0.0,1.0,0.0178691548761,-0.299642153084,9.75222203732,0.1,0.0,0.0,0.0,0.1,0.0,0.0,0.0,0.1
1405448446105045328,127,1405448446105045328,ardrone_base_link,-0.039457024415,0.00841361367841,-0.00516924383479,0.999172474224,1.0,0.0,0.0,0.0,1.0,0.0,0.0,0.0,100000.0,-0.00417902041227,-0.00221507251263,-6.26594919595e-05,1.0,0.0,0.0,0.0,1.0,0.0,0.0,0.0,1.0,0.0200860846322,-0.300114163011,9.74883878231,0.1,0.0,0.0,0.0,0.1,0.0,0.0,0.0,0.1
1405448446106253592,128,1405448446106253592,ardrone_base_link,-0.0394569001489,0.00842267729143,-0.00517761804564,0.99917235941,1.0,0.0,0.0,0.0,1.0,0.0,0.0,0.0,100000.0,-0.00237872055732,-0.00318928156048,7.98839973868e-05,1.0,0.0,0.0,0.0,1.0,0.0,0.0,0.0,1.0,-0.00775711159222,-0.301978454366,9.77487968206,0.1,0.0,0.0,0.0,0.1,0.0,0.0,0.0,0.1
1405448446107671550,129,1405448446107671550,ardrone_base_link,-0.0394568493031,0.00843139658069,-0.00517727293453,0.999172289668,1.0,0.0,0.0,0.0,1.0,0.0,0.0,0.0,100000.0,-0.00365900434554,-0.00201951083727,8.19039996713e-06,1.0,0.0,0.0,0.0,1.0,0.0,0.0,0.0,1.0,-0.00446693818667,-0.302585050464,9.77372428179,0.1,0.0,0.0,0.0,0.1,0.0,0.0,0.0,0.1
1405448446108928539,130,1405448446108928539,ardrone_base_link,-0.0394567984513,0.00844011638903,-0.00517692780245,0.999172219845,1.0,0.0,0.0,0.0,1.0,0.0,0.0,0.0,100000.0,-0.00244425865822,-0.0034261867404,6.06127905485e-05,1.0,0.0,0.0,0.0,1.0,0.0,0.0,0.0,1.0,-0.000499782842235,-0.301950087771,9.7450273633,0.1,0.0,0.0,0.0,0.1,0.0,0.0,0.0,0.1
1405448446110446067,131,1405448446110446067,ardrone_base_link,-0.0394567984513,0.00844011638903,-0.00517692780245,0.999172219845,1.0,0.0,0.0,0.0,1.0,0.0,0.0,0.0,100000.0,0.00035808631219,-0.00610019220039,4.79605296277e-05,1.0,0.0,0.0,0.0,1.0,0.0,0.0,0.0,1.0,-0.00178132884612,-0.301855404675,9.74774062634,0.1,0.0,0.0,0.0,0.1,0.0,0.0,0.0,0.1
1405448446111685389,132,1405448446111685389,ardrone_base_link,-0.0394567984513,0.00844011638903,-0.00517692780245,0.999172219845,1.0,0.0,0.0,0.0,1.0,0.0,0.0,0.0,100000.0,-0.00137434853241,-0.00449249474332,-6.20683567831e-06,1.0,0.0,0.0,0.0,1.0,0.0,0.0,0.0,1.0,-0.000335678688862,-0.279042747617,9.75354274511,0.1,0.0,0.0,0.0,0.1,0.0,0.0,0.0,0.1
1405448446113019291,133,1405448446113019291,ardrone_base_link,-0.0394569457513,0.00843942774483,-0.00515948916257,0.999172310046,1.0,0.0,0.0,0.0,1.0,0.0,0.0,0.0,100000.0,-0.000125834951177,-0.00569056952372,2.97725564451e-05,1.0,0.0,0.0,0.0,1.0,0.0,0.0,0.0,1.0,1.17039774523e-05,-0.256602853909,9.75245627165,0.1,0.0,0.0,0.0,0.1,0.0,0.0,0.0,0.1
1405448446232882503,134,1405448446232882503,ardrone_base_link,-0.0394395507061,0.0084815579885,-0.00512303381405,0.999172827662,1.0,0.0,0.0,0.0,1.0,0.0,0.0,0.0,100000.0,-0.00234992080368,-0.00223132013343,0.000235951913055,1.0,0.0,0.0,0.0,1.0,0.0,0.0,0.0,1.0,-0.00202820615959,-0.301254138723,9.75204504728,0.1,0.0,0.0,0.0,0.1,0.0,0.0,0.0,0.1
1405448446234868558,135,1405448446234868558,ardrone_base_link,-0.039439500297,0.00849027728193,-0.00512268885602,0.999172757368,1.0,0.0,0.0,0.0,1.0,0.0,0.0,0.0,100000.0,0.000326541485265,-0.00311226863414,0.000346572778653,1.0,0.0,0.0,0.0,1.0,0.0,0.0,0.0,1.0,-0.00126324017183,-0.301090437546,9.77377685308,0.1,0.0,0.0,0.0,0.1,0.0,0.0,0.0,0.1
1405448446238562284,136,1405448446238562284,ardrone_base_link,-0.0394393994698,0.00850771586684,-0.00512199893881,0.999172616552,1.0,0.0,0.0,0.0,1.0,0.0,0.0,0.0,100000.0,-0.00130222993903,0.000542024383321,-0.000124687358038,1.0,0.0,0.0,0.0,1.0,0.0,0.0,0.0,1.0,-0.00125384097046,-0.3008715,9.77370734215,0.1,0.0,0.0,0.0,0.1,0.0,0.0,0.0,0.1
1405448446289429917,137,1405448446289429917,ardrone_base_link,-0.0394394233663,0.00851609150854,-0.00511293463647,0.999172590682,1.0,0.0,0.0,0.0,1.0,0.0,0.0,0.0,100000.0,-8.94297845662e-05,-0.00177674624138,-6.28308262094e-05,1.0,0.0,0.0,0.0,1.0,0.0,0.0,0.0,1.0,-0.00212804056937,-0.299831774831,9.74496077299,0.1,0.0,0.0,0.0,0.1,0.0,0.0,0.0,0.1
1405448446605113716,138,1405448446605113716,ardrone_base_link,-0.0394307512206,0.00858373715426,-0.00505793288196,0.999172634048,1.0,0.0,0.0,0.0,1.0,0.0,0.0,0.0,100000.0,0.000504463445395,-0.00236658356152,-0.00148477777839,1.0,0.0,0.0,0.0,1.0,0.0,0.0,0.0,1.0,0.0354189071804,-0.277651324123,9.74969803095,0.1,0.0,0.0,0.0,0.1,0.0,0.0,0.0,0.1
1405448446606501058,139,1405448446606501058,ardrone_base_link,-0.0394307512206,0.00858373715426,-0.00505793288196,0.999172634048,1.0,0.0,0.0,0.0,1.0,0.0,0.0,0.0,100000.0,-0.00137500581332,-0.0064706155099,-0.00069434242323,1.0,0.0,0.0,0.0,1.0,0.0,0.0,0.0,1.0,0.0339311280753,-0.28437011838,9.75112621784,0.1,0.0,0.0,0.0,0.1,0.0,0.0,0.0,0.1
1405448446607430399,140,1405448446607430399,ardrone_base_link,-0.0394308759583,0.00857467376699,-0.00504955843986,0.999172749303,1.0,0.0,0.0,0.0,1.0,0.0,0.0,0.0,100000.0,-2.50721368502e-05,-0.00495347147807,0.000750366132706,1.0,0.0,0.0,0.0,1.0,0.0,0.0,0.0,1.0,0.0368955011945,-0.25987877585,9.77530083656,0.1,0.0,0.0,0.0,0.1,0.0,0.0,0.0,0.1
1405448446608760151,141,1405448446608760151,ardrone_base_link,-0.039430950784,0.00857432967142,-0.00504083911551,0.999172793331,1.0,0.0,0.0,0.0,1.0,0.0,0.0,0.0,100000.0,-0.0014294909779,-0.00531725771725,-0.000126150320284,1.0,0.0,0.0,0.0,1.0,0.0,0.0,0.0,1.0,0.0375521769281,-0.261156988516,9.77477921247,0.1,0.0,0.0,0.0,0.1,0.0,0.0,0.0,0.1
1405448446609986891,142,1405448446609986891,ardrone_base_link,-0.0394222319777,0.00857428568462,-0.00504091393512,0.999173137368,1.0,0.0,0.0,0.0,1.0,0.0,0.0,0.0,100000.0,-0.00160959060304,-0.00424838624895,0.000530427263584,1.0,0.0,0.0,0.0,1.0,0.0,0.0,0.0,1.0,0.0372055737302,-0.265403179452,9.74573590755,0.1,0.0,0.0,0.0,0.1,0.0,0.0,0.0,0.1
1405448446614846762,143,1405448446614846762,ardrone_base_link,-0.039422356477,0.00856522236716,-0.00503253941092,0.999173252406,1.0,0.0,0.0,0.0,1.0,0.0,0.0,0.0,100000.0,-0.000638562720269,-0.00422792043537,-0.000176954432391,1.0,0.0,0.0,0.0,1.0,0.0,0.0,0.0,1.0,0.0371505837888,-0.263865998387,9.74873597622,0.1,0.0,0.0,0.0,0.1,0.0,0.0,0.0,0.1
1405448446616073297,144,1405448446616073297,ardrone_base_link,-0.0394224312203,0.00856487834594,-0.00502382008218,0.999173296284,1.0,0.0,0.0,0.0,1.0,0.0,0.0,0.0,100000.0,-0.000819545937702,-0.00493452558294,-0.00028725003358,1.0,0.0,0.0,0.0,1.0,0.0,0.0,0.0,1.0,0.0368510232307,-0.264892854542,9.75334180593,0.1,0.0,0.0,0.0,0.1,0.0,0.0,0.0,0.1
1405448446618239753,145,1405448446618239753,ardrone_base_link,-0.039422505965,0.00856453430356,-0.00501510023333,0.999173340089,1.0,0.0,0.0,0.0,1.0,0.0,0.0,0.0,100000.0,-0.00110652204603,-0.00495412200689,0.000183965545148,1.0,0.0,0.0,0.0,1.0,0.0,0.0,0.0,1.0,0.0371259295847,-0.265103869885,9.77464544773,0.1,0.0,0.0,0.0,0.1,0.0,0.0,0.0,0.1
1405448446619516879,146,1405448446619516879,ardrone_base_link,-0.0394224808182,0.00855615904753,-0.00502416488472,0.999173367297,1.0,0.0,0.0,0.0,1.0,0.0,0.0,0.0,100000.0,-0.00349713186733,-0.00465596839786,0.000122028330225,1.0,0.0,0.0,0.0,1.0,0.0,0.0,0.0,1.0,0.0360070394352,-0.287891829386,9.77361855507,0.1,0.0,0.0,0.0,0.1,0.0,0.0,0.0,0.1
1405448446620802676,147,1405448446620802676,ardrone_base_link,-0.0394224808182,0.00855615904753,-0.00502416488472,0.999173367297,1.0,0.0,0.0,0.0,1.0,0.0,0.0,0.0,100000.0,-0.00272071966901,-0.00469000358135,-2.05103933695e-05,1.0,0.0,0.0,0.0,1.0,0.0,0.0,0.0,1.0,0.0565986413509,-0.308455073833,9.74314005375,0.1,0.0,0.0,0.0,0.1,0.0,0.0,0.0,0.1
1405448446622073121,148,1405448446622073121,ardrone_base_link,-0.0394224558249,0.00854778325084,-0.00503322903743,0.999173394353,1.0,0.0,0.0,0.0,1.0,0.0,0.0,0.0,100000.0,-0.00381885422394,-0.00466954801232,5.07190852659e-05,1.0,0.0,0.0,0.0,1.0,0.0,0.0,0.0,1.0,0.0786668304354,-0.302300800383,9.7459794879,0.1,0.0,0.0,0.0,0.1,0.0,0.0,0.0,0.1
1405448446629425187,149,1405448446629425187,ardrone_base_link,-0.0394224309749,0.00853940797344,-0.00504229317004,0.999173421247,1.0,0.0,0.0,0.0,1.0,0.0,0.0,0.0,100000.0,-0.00480751646683,-0.00470388773829,-1.01427576737e-06,1.0,0.0,0.0,0.0,1.0,0.0,0.0,0.0,1.0,0.0732816084288,-0.299188579619,9.7507383585,0.1,0.0,0.0,0.0,0.1,0.0,0.0,0.0,0.1
1405448446630613517,150,1405448446630613517,ardrone_base_link,-0.0394224807159,0.00853068867395,-0.00504263797268,0.999173492026,1.0,0.0,0.0,0.0,1.0,0.0,0.0,0.0,100000.0,-0.00133361341432,-0.00477089546621,1.13321148092e-05,1.0,0.0,0.0,0.0,1.0,0.0,0.0,0.0,1.0,0.0703673103824,-0.300103009865,9.74863083363,0.1,0.0,0.0,0.0,0.1,0.0,0.0,0.0,0.1
1405448446631850714,151,1405448446631850714,ardrone_base_link,-0.039422530454,0.00852196937381,-0.00504298277493,0.999173562728,1.0,0.0,0.0,0.0,1.0,0.0,0.0,0.0,100000.0,-0.00409925542772,-0.00472171232104,6.52056623949e-05,1.0,0.0,0.0,0.0,1.0,0.0,0.0,0.0,1.0,0.050180940982,-0.276838330925,9.75078158379,0.1,0.0,0.0,0.0,0.1,0.0,0.0,0.0,0.1
1405448446633276018,152,1405448446633276018,ardrone_base_link,-0.0394224560851,0.0085223133959,-0.005051702106,0.999173518683,1.0,0.0,0.0,0.0,1.0,0.0,0.0,0.0,100000.0,-0.0039443532005,-0.00469060568139,2.95491918223e-05,1.0,0.0,0.0,0.0,1.0,0.0,0.0,0.0,1.0,0.0279245813377,-0.277260452881,9.75093929768,0.1,0.0,0.0,0.0,0.1,0.0,0.0,0.0,0.1
1405448446634633731,153,1405448446634633731,ardrone_base_link,-0.0394224560851,0.0085223133959,-0.005051702106,0.999173518683,1.0,0.0,0.0,0.0,1.0,0.0,0.0,0.0,100000.0,-0.00171285890974,-0.00471500307322,1.60017298185e-05,1.0,0.0,0.0,0.0,1.0,0.0,0.0,0.0,1.0,0.0336770517286,-0.281883952394,9.75091593266,0.1,0.0,0.0,0.0,0.1,0.0,0.0,0.0,0.1
1405448446636092379,154,1405448446636092379,ardrone_base_link,-0.0394224560851,0.0085223133959,-0.005051702106,0.999173518683,1.0,0.0,0.0,0.0,1.0,0.0,0.0,0.0,100000.0,-0.00465564150363,-0.00471589202061,3.38480022037e-05,1.0,0.0,0.0,0.0,1.0,0.0,0.0,0.0,1.0,0.0371349082328,-0.257423385978,9.75182950497,0.1,0.0,0.0,0.0,0.1,0.0,0.0,0.0,0.1
1405448446637115557,155,1405448446637115557,ardrone_base_link,-0.039422530454,0.00852196937381,-0.00504298277493,0.999173562728,1.0,0.0,0.0,0.0,1.0,0.0,0.0,0.0,100000.0,-0.00110422563739,-0.00218508346006,2.8148489946e-05,1.0,0.0,0.0,0.0,1.0,0.0,0.0,0.0,1.0,0.0582790837623,-0.258529555425,9.75127692223,0.1,0.0,0.0,0.0,0.1,0.0,0.0,0.0,0.1
1405448446638349383,156,1405448446638349383,ardrone_base_link,-0.0394226048198,0.00852162535107,-0.00503426344348,0.999173606698,1.0,0.0,0.0,0.0,1.0,0.0,0.0,0.0,100000.0,0.000131181441247,-0.00306185614318,2.93345365208e-05,1.0,0.0,0.0,0.0,1.0,0.0,0.0,0.0,1.0,0.0580953534693,-0.263894748315,9.75113322735,0.1,0.0,0.0,0.0,0.1,0.0,0.0,0.0,0.1
1405448446639590987,157,1405448446639590987,ardrone_base_link,-0.0394226048198,0.00852162535107,-0.00503426344348,0.999173606698,1.0,0.0,0.0,0.0,1.0,0.0,0.0,0.0,100000.0,-0.00195246771909,-0.00194142735563,3.35739750881e-05,1.0,0.0,0.0,0.0,1.0,0.0,0.0,0.0,1.0,0.029963551322,-0.28527930975,9.75077457428,0.1,0.0,0.0,0.0,0.1,0.0,0.0,0.0,0.1
1405448446640982676,158,1405448446640982676,ardrone_base_link,-0.0394225551579,0.00853034465164,-0.00503391864184,0.999173535993,1.0,0.0,0.0,0.0,1.0,0.0,0.0,0.0,100000.0,0.000267690746114,-0.000855521764606,2.76185455732e-05,1.0,0.0,0.0,0.0,1.0,0.0,0.0,0.0,1.0,0.0324896386359,-0.308578981459,9.74965947866,0.1,0.0,0.0,0.0,0.1,0.0,0.0,0.0,0.1
1405448446642227921,159,1405448446642227921,ardrone_base_link,-0.0394225551579,0.00853034465164,-0.00503391864184,0.999173535993,1.0,0.0,0.0,0.0,1.0,0.0,0.0,0.0,100000.0,-0.00125159858726,-0.00437465542927,2.80497188214e-05,1.0,0.0,0.0,0.0,1.0,0.0,0.0,0.0,1.0,0.0373088840861,-0.30327661857,9.74984873533,0.1,0.0,0.0,0.0,0.1,0.0,0.0,0.0,0.1
1405448446643543263,160,1405448446643543263,ardrone_base_link,-0.0394225551579,0.00853034465164,-0.00503391864184,0.999173535993,1.0,0.0,0.0,0.0,1.0,0.0,0.0,0.0,100000.0,-0.00169537914917,-0.00165824277792,3.0991359381e-05,1.0,0.0,0.0,0.0,1.0,0.0,0.0,0.0,1.0,0.0357772430871,-0.301386789978,9.75000177622,0.1,0.0,0.0,0.0,0.1,0.0,0.0,0.0,0.1
1405448446644775530,161,1405448446644775530,ardrone_base_link,-0.0394225551579,0.00853034465164,-0.00503391864184,0.999173535993,1.0,0.0,0.0,0.0,1.0,0.0,0.0,0.0,100000.0,-0.000593051547185,-0.00430203974247,2.94935016427e-05,1.0,0.0,0.0,0.0,1.0,0.0,0.0,0.0,1.0,0.0357715273276,-0.302642605081,9.72651116848,0.1,0.0,0.0,0.0,0.1,0.0,0.0,0.0,0.1
1405448446646170574,162,1405448446646170574,ardrone_base_link,-0.0394138321873,0.00853030070428,-0.00503399311313,0.999173880121,1.0,0.0,0.0,0.0,1.0,0.0,0.0,0.0,100000.0,-0.000870021060109,-0.00564968260005,2.94886722259e-05,1.0,0.0,0.0,0.0,1.0,0.0,0.0,0.0,1.0,0.0347585053649,-0.301687669381,9.70366777182,0.1,0.0,0.0,0.0,0.1,0.0,0.0,0.0,0.1
1405448446647443784,163,1405448446647443784,ardrone_base_link,-0.0394138321873,0.00853030070428,-0.00503399311313,0.999173880121,1.0,0.0,0.0,0.0,1.0,0.0,0.0,0.0,100000.0,-0.00369049911387,-0.0038444949314,2.99528419418e-05,1.0,0.0,0.0,0.0,1.0,0.0,0.0,0.0,1.0,0.0350823413581,-0.301830980927,9.7094196558,0.1,0.0,0.0,0.0,0.1,0.0,0.0,0.0,0.1
1405448446650345779,164,1405448446650345779,ardrone_base_link,-0.0394138074832,0.00852192534731,-0.0050430571731,0.999173906856,1.0,0.0,0.0,0.0,1.0,0.0,0.0,0.0,100000.0,-0.0025427818764,-0.00590587221086,2.92637923849e-05,1.0,0.0,0.0,0.0,1.0,0.0,0.0,0.0,1.0,0.0345111396164,-0.301267591864,9.71244367361,0.1,0.0,0.0,0.0,0.1,0.0,0.0,0.0,0.1
1405448446651623090,165,1405448446651623090,ardrone_base_link,-0.0394138074832,0.00852192534731,-0.0050430571731,0.999173906856,1.0,0.0,0.0,0.0,1.0,0.0,0.0,0.0,100000.0,-0.00383860757574,-0.0044993404299,2.95696609101e-05,1.0,0.0,0.0,0.0,1.0,0.0,0.0,0.0,1.0,0.0345090700779,-0.301395095512,9.73418949842,0.1,0.0,0.0,0.0,0.1,0.0,0.0,0.0,0.1
1405448446660541536,166,1405448446660541536,ardrone_base_link,-0.0394137331147,0.00852226929328,-0.00505177650717,0.99917386281,1.0,0.0,0.0,0.0,1.0,0.0,0.0,0.0,100000.0,-0.00493465084583,-0.00403610616922,2.98634768114e-05,1.0,0.0,0.0,0.0,1.0,0.0,0.0,0.0,1.0,0.0345790533349,-0.301262845844,9.75749844313,0.1,0.0,0.0,0.0,0.1,0.0,0.0,0.0,0.1
1405448446661914136,167,1405448446661914136,ardrone_base_link,-0.0394137829253,0.00851354998992,-0.00505212123353,0.999173933434,1.0,0.0,0.0,0.0,1.0,0.0,0.0,0.0,100000.0,-0.00124331028201,-0.00502702500671,2.95405479847e-05,1.0,0.0,0.0,0.0,1.0,0.0,0.0,0.0,1.0,0.0335942040198,-0.300241940469,9.75162914991,0.1,0.0,0.0,0.0,0.1,0.0,0.0,0.0,0.1
1405448446663318690,168,1405448446663318690,ardrone_base_link,-0.0394137086299,0.00851389393567,-0.00506084056784,0.999173889308,1.0,0.0,0.0,0.0,1.0,0.0,0.0,0.0,100000.0,-0.00407259911299,-0.00481872260571,2.95838181046e-05,1.0,0.0,0.0,0.0,1.0,0.0,0.0,0.0,1.0,0.0330680712126,-0.299435993284,9.74879906178,0.1,0.0,0.0,0.0,0.1,0.0,0.0,0.0,0.1
1405448446664525700,169,1405448446664525700,ardrone_base_link,-0.0394137086299,0.00851389393567,-0.00506084056784,0.999173889308,1.0,0.0,0.0,0.0,1.0,0.0,0.0,0.0,100000.0,-0.001422311645,-0.00458022812381,2.96645521303e-05,1.0,0.0,0.0,0.0,1.0,0.0,0.0,0.0,1.0,0.0556017672643,-0.298623949289,9.74980083704,0.1,0.0,0.0,0.0,0.1,0.0,0.0,0.0,0.1
1405448446667539613,170,1405448446667539613,ardrone_base_link,-0.0394137585165,0.00850517411238,-0.00506118531498,0.999173959857,1.0,0.0,0.0,0.0,1.0,0.0,0.0,0.0,100000.0,-1.43158249557e-05,-0.00480875186622,2.95802528854e-05,1.0,0.0,0.0,0.0,1.0,0.0,0.0,0.0,1.0,0.0778466451913,-0.298142921925,9.74889135361,0.1,0.0,0.0,0.0,0.1,0.0,0.0,0.0,0.1
1405448446668912986,171,1405448446668912986,ardrone_base_link,-0.0394137342465,0.00849679877463,-0.00507024989606,0.999173986115,1.0,0.0,0.0,0.0,1.0,0.0,0.0,0.0,100000.0,-0.00441656727344,-0.00464852619916,2.96310390695e-05,1.0,0.0,0.0,0.0,1.0,0.0,0.0,0.0,1.0,0.049311990384,-0.298119173571,9.726257658,0.1,0.0,0.0,0.0,0.1,0.0,0.0,0.0,0.1
1405448446670080747,172,1405448446670080747,ardrone_base_link,-0.0394137342465,0.00849679877463,-0.00507024989606,0.999173986115,1.0,0.0,0.0,0.0,1.0,0.0,0.0,0.0,100000.0,-0.00144782080315,-0.00464553479105,-0.00135451729875,1.0,0.0,0.0,0.0,1.0,0.0,0.0,0.0,1.0,0.0248824852984,-0.299077541009,9.7271525383,0.1,0.0,0.0,0.0,0.1,0.0,0.0,0.0,0.1
1405448446671707537,173,1405448446671707537,ardrone_base_link,-0.039422457218,0.00849684303852,-0.00507017571724,0.999173641988,1.0,0.0,0.0,0.0,1.0,0.0,0.0,0.0,100000.0,-0.00397749105468,-0.00477601308376,-0.000876388628967,1.0,0.0,0.0,0.0,1.0,0.0,0.0,0.0,1.0,0.0335579540115,-0.300601487979,9.75579396486,0.1,0.0,0.0,0.0,0.1,0.0,0.0,0.0,0.1
1405448446672800247,174,1405448446672800247,ardrone_base_link,-0.0394223830684,0.00849718705997,-0.005078895049,0.999173597705,1.0,0.0,0.0,0.0,1.0,0.0,0.0,0.0,100000.0,-0.00299963727593,-0.00469981599599,-0.00148477964103,1.0,0.0,0.0,0.0,1.0,0.0,0.0,0.0,1.0,0.0363103876822,-0.301241287962,9.75294226408,0.1,0.0,0.0,0.0,0.1,0.0,0.0,0.0,0.1
1405448446674100294,175,1405448446674100294,ardrone_base_link,-0.0394225071723,0.00848812373709,-0.0050705205198,0.999173712377,1.0,0.0,0.0,0.0,1.0,0.0,0.0,0.0,100000.0,0.000671306392178,-0.00467657204717,-0.000694334099535,1.0,0.0,0.0,0.0,1.0,0.0,0.0,0.0,1.0,0.0348796726204,-0.301593880728,9.74826458693,0.1,0.0,0.0,0.0,0.1,0.0,0.0,0.0,0.1
1405448446675452320,176,1405448446675452320,ardrone_base_link,-0.0394225071723,0.00848812373709,-0.0050705205198,0.999173712377,1.0,0.0,0.0,0.0,1.0,0.0,0.0,0.0,100000.0,-0.00115006847773,-0.00471631903201,0.000750360777602,1.0,0.0,0.0,0.0,1.0,0.0,0.0,0.0,1.0,0.0353157976177,-0.301787609607,9.75039430857,0.1,0.0,0.0,0.0,0.1,0.0,0.0,0.0,0.1
1405448446678685725,177,1405448446678685725,ardrone_base_link,-0.0394225071723,0.00848812373709,-0.0050705205198,0.999173712377,1.0,0.0,0.0,0.0,1.0,0.0,0.0,0.0,100000.0,-0.000182509887964,-0.00216409866698,-0.000126148341224,1.0,0.0,0.0,0.0,1.0,0.0,0.0,0.0,1.0,0.0353351627477,-0.301731807366,9.74984873533,0.1,0.0,0.0,0.0,0.1,0.0,0.0,0.0,0.1
1405448446679768277,178,1405448446679768277,ardrone_base_link,-0.039422457218,0.00849684303852,-0.00507017571724,0.999173641988,1.0,0.0,0.0,0.0,1.0,0.0,0.0,0.0,100000.0,-0.00125685636885,-0.00304032326676,0.000530429475475,1.0,0.0,0.0,0.0,1.0,0.0,0.0,0.0,1.0,0.0128829305293,-0.302020438388,9.75063788891,0.1,0.0,0.0,0.0,0.1,0.0,0.0,0.0,0.1
1405448446682807240,179,1405448446682807240,ardrone_base_link,-0.0394224072607,0.0085055623393,-0.0050698309143,0.999173571523,1.0,0.0,0.0,0.0,1.0,0.0,0.0,0.0,100000.0,-0.00162013154477,-0.00194042688236,-0.00017695792485,1.0,0.0,0.0,0.0,1.0,0.0,0.0,0.0,1.0,0.0131893693935,-0.302107783407,9.7503148675,0.1,0.0,0.0,0.0,0.1,0.0,0.0,0.0,0.1
1405448446685407630,180,1405448446685407630,ardrone_base_link,-0.0394224072607,0.0085055623393,-0.0050698309143,0.999173571523,1.0,0.0,0.0,0.0,1.0,0.0,0.0,0.0,100000.0,-0.000754048116505,-0.00337116327137,-0.000287249189569,1.0,0.0,0.0,0.0,1.0,0.0,0.0,0.0,1.0,0.0409707509913,-0.301890178397,9.74985107183,0.1,0.0,0.0,0.0,0.1,0.0,0.0,0.0,0.1
1405448446691594414,181,1405448446691594414,ardrone_base_link,-0.039422457218,0.00849684303852,-0.00507017571724,0.999173641988,1.0,0.0,0.0,0.0,1.0,0.0,0.0,0.0,100000.0,-0.000735036330298,-0.00601231958717,0.000183966738405,1.0,0.0,0.0,0.0,1.0,0.0,0.0,0.0,1.0,0.0394475706853,-0.30262584798,9.77332473993,0.1,0.0,0.0,0.0,0.1,0.0,0.0,0.0,0.1
1405448446693079001,182,1405448446693079001,ardrone_base_link,-0.039422457218,0.00849684303852,-0.00507017571724,0.999173641988,1.0,0.0,0.0,0.0,1.0,0.0,0.0,0.0,100000.0,-0.00107368291356,-0.00441542034969,0.000122027326142,1.0,0.0,0.0,0.0,1.0,0.0,0.0,0.0,1.0,0.0134885192383,-0.303523137793,9.79675518274,0.1,0.0,0.0,0.0,0.1,0.0,0.0,0.0,0.1
1405448446694340980,183,1405448446694340980,ardrone_base_link,-0.0394224072607,0.0085055623393,-0.0050698309143,0.999173571523,1.0,0.0,0.0,0.0,1.0,0.0,0.0,0.0,100000.0,-0.000965623185039,-0.0056106406264,-2.05101023312e-05,1.0,0.0,0.0,0.0,1.0,0.0,0.0,0.0,1.0,-0.00662250538589,-0.303435555473,9.79148929119,0.1,0.0,0.0,0.0,0.1,0.0,0.0,0.0,0.1
1405448446696084180,184,1405448446696084180,ardrone_base_link,-0.0394136842898,0.00850551807842,-0.00506990516923,0.99917391565,1.0,0.0,0.0,0.0,1.0,0.0,0.0,0.0,100000.0,-0.00101994746365,-0.00431730598211,5.07192598889e-05,1.0,0.0,0.0,0.0,1.0,0.0,0.0,0.0,1.0,0.0197755032685,-0.302112127841,9.76442734003,0.1,0.0,0.0,0.0,0.1,0.0,0.0,0.0,0.1
1405448446697143823,185,1405448446697143823,ardrone_base_link,-0.0394136343271,0.00851423790128,-0.00506956042148,0.999173845104,1.0,0.0,0.0,0.0,1.0,0.0,0.0,0.0,100000.0,-0.00101825525053,-0.00158601719886,-1.01469777292e-06,1.0,0.0,0.0,0.0,1.0,0.0,0.0,0.0,1.0,0.0211222365964,-0.301251966506,9.74314063787,0.1,0.0,0.0,0.0,0.1,0.0,0.0,0.0,0.1
1405448446709279277,186,1405448446709279277,ardrone_base_link,-0.0394137086299,0.00851389393567,-0.00506084056784,0.999173889308,1.0,0.0,0.0,0.0,1.0,0.0,0.0,0.0,100000.0,-0.000915840035304,-0.00331883644685,1.13323476398e-05,1.0,0.0,0.0,0.0,1.0,0.0,0.0,0.0,1.0,0.0128973910585,-0.300627189502,9.7252389431,0.1,0.0,0.0,0.0,0.1,0.0,0.0,0.0,0.1
1405448446710245374,187,1405448446710245374,ardrone_base_link,-0.0394137086299,0.00851389393567,-0.00506084056784,0.999173889308,1.0,0.0,0.0,0.0,1.0,0.0,0.0,0.0,100000.0,-0.000968050211668,-0.00209344411269,6.52057715342e-05,1.0,0.0,0.0,0.0,1.0,0.0,0.0,0.0,1.0,0.037027705228,-0.299580582604,9.70488041639,0.1,0.0,0.0,0.0,0.1,0.0,0.0,0.0,0.1
1405448446711602001,188,1405448446711602001,ardrone_base_link,-0.0394136587433,0.0085226132386,-0.00506049584086,0.999173818687,1.0,0.0,0.0,0.0,1.0,0.0,0.0,0.0,100000.0,-0.00100655015558,-0.00327787362039,2.95490099234e-05,1.0,0.0,0.0,0.0,1.0,0.0,0.0,0.0,1.0,0.0359705795068,-0.299588888139,9.70884721279,0.1,0.0,0.0,0.0,0.1,0.0,0.0,0.0,0.1
1405448446712997195,189,1405448446712997195,ardrone_base_link,-0.0394137086299,0.00851389393567,-0.00506084056784,0.999173889308,1.0,0.0,0.0,0.0,1.0,0.0,0.0,0.0,100000.0,-0.000972705951426,-0.00604763953015,1.60018025781e-05,1.0,0.0,0.0,0.0,1.0,0.0,0.0,0.0,1.0,0.0316008802503,-0.299698667228,9.71253654957,0.1,0.0,0.0,0.0,0.1,0.0,0.0,0.0,0.1
1405448446714062274,190,1405448446714062274,ardrone_base_link,-0.0394137086299,0.00851389393567,-0.00506084056784,0.999173889308,1.0,0.0,0.0,0.0,1.0,0.0,0.0,0.0,100000.0,-0.000976657262072,-0.00435030087829,3.38480167557e-05,1.0,0.0,0.0,0.0,1.0,0.0,0.0,0.0,1.0,0.0340418814681,-0.29962519519,9.71070356369,0.1,0.0,0.0,0.0,0.1,0.0,0.0,0.0,0.1
1405448446715466390,191,1405448446715466390,ardrone_base_link,-0.0394137086299,0.00851389393567,-0.00506084056784,0.999173889308,1.0,0.0,0.0,0.0,1.0,0.0,0.0,0.0,100000.0,-0.000978258671239,-0.00304235750809,2.81484317384e-05,1.0,0.0,0.0,0.0,1.0,0.0,0.0,0.0,1.0,0.0337787443306,-0.299686053768,9.71128710508,0.1,0.0,0.0,0.0,0.1,0.0,0.0,0.0,0.1
1405448446716804436,192,1405448446716804436,ardrone_base_link,-0.0394137086299,0.00851389393567,-0.00506084056784,0.999173889308,1.0,0.0,0.0,0.0,1.0,0.0,0.0,0.0,100000.0,-0.000969687709585,-0.00272096367553,2.93345874525e-05,1.0,0.0,0.0,0.0,1.0,0.0,0.0,0.0,1.0,0.0342882044613,-0.299728129059,9.7110791564,0.1,0.0,0.0,0.0,0.1,0.0,0.0,0.0,0.1
