%time,field.header.seq,field.header.stamp,field.header.frame_id,field.batteryPercent,field.state,field.magX,field.magY,field.magZ,field.pressure,field.temp,field.wind_speed,field.wind_angle,field.wind_comp_angle,field.rotX,field.rotY,field.rotZ,field.altd,field.vx,field.vy,field.vz,field.ax,field.ay,field.az,field.motor1,field.motor2,field.motor3,field.motor4,field.tags_count,field.tm
1405689220705959706,0,1405689220705959706,ardrone_base_link,42.0,2,0,0,0,0,0,0.0,0.0,0.0,-0.423000007868,1.18299996853,8.21800041199,0,0.0,-0.0,-0.0,-0.0154622960836,-0.0266559142619,0.991736531258,0,0,0,0,0,781909376.0
1405689220710131698,1,1405689220710131698,ardrone_base_link,42.0,2,0,0,0,0,0,0.0,0.0,0.0,-0.423000007868,1.18200004101,8.21599960327,0,0.0,-0.0,-0.0,-0.015441512689,-0.0270191188902,0.991421341896,0,0,0,0,0,781914752.0
1405689220711472035,2,1405689220711472035,ardrone_base_link,42.0,2,0,0,0,0,0,0.0,0.0,0.0,-0.42199999094,1.18099999428,8.21599960327,0,0.0,-0.0,-0.0,-0.0177075695246,-0.0269714314491,0.991647660732,0,0,0,0,0,781919424.0
1405689220712720257,3,1405689220712720257,ardrone_base_link,42.0,2,0,0,0,0,0,0.0,0.0,0.0,-0.421000003815,1.18099999428,8.21599960327,0,0.0,-0.0,-0.0,-0.0199770051986,-0.0271179359406,0.991653978825,0,0,0,0,0,781924352.0
1405689220714024396,4,1405689220714024396,ardrone_base_link,42.0,2,0,0,0,0,0,0.0,0.0,0.0,-0.419999986887,1.18099999428,8.21500015259,0,0.0,-0.0,-0.0,-0.0194583591074,-0.0271561145782,0.991651773453,0,0,0,0,0,781929344.0
1405689220715735797,5,1405689220715735797,ardrone_base_link,42.0,2,0,0,0,0,0,0.0,0.0,0.0,-0.418999999762,1.18099999428,8.21500015259,0,0.0,-0.0,-0.0,-0.0192734915763,-0.0295142233372,0.991518497467,0,0,0,0,0,781934336.0
1405689220717049271,6,1405689220717049271,ardrone_base_link,42.0,2,0,0,0,0,0,0.0,0.0,0.0,-0.418999999762,1.18200004101,8.21500015259,0,0.0,-0.0,-0.0,-0.0195194650441,-0.0317913852632,0.991433262825,0,0,0,0,0,781939328.0
1405689220718310383,7,1405689220718310383,ardrone_base_link,42.0,2,0,0,0,0,0,0.0,0.0,0.0,-0.418999999762,1.18200004101,8.21500015259,0,0.0,-0.0,-0.0,-0.0194497071207,-0.0312585793436,0.991455733776,0,0,0,0,0,781944384.0
1405689220719667168,8,1405689220719667168,ardrone_base_link,42.0,2,0,0,0,0,0,0.0,0.0,0.0,-0.418000012636,1.18299996853,8.21500015259,0,0.0,-0.0,-0.0,-0.0193118602037,-0.0310475472361,0.993854701519,0,0,0,0,0,781949376.0
1405689220720312319,9,1405689220720312319,ardrone_base_link,42.0,2,0,0,0,0,0,0.0,0.0,0.0,-0.418000012636,1.18299996853,8.21399974823,0,0.0,-0.0,-0.0,-0.0191401857883,-0.0312629193068,0.996185481548,0,0,0,0,0,781954304.0
1405689220749649301,10,1405689220749649301,ardrone_base_link,42.0,2,0,0,0,0,0,0.0,0.0,0.0,-0.418000012636,1.18400001526,8.21399974823,0,0.0,-0.0,-0.0,-0.0191037449986,-0.031174601987,0.9955971241,0,0,0,0,0,781959360.0
1405689220750269639,11,1405689220750269639,ardrone_base_link,42.0,2,0,0,0,0,0,0.0,0.0,0.0,-0.418000012636,1.18400001526,8.21300029755,0,0.0,-0.0,-0.0,-0.0167600624263,-0.0311006009579,0.995235860348,0,0,0,0,0,781964352.0
1405689220750780335,12,1405689220750780335,ardrone_base_link,42.0,2,0,0,0,0,0,0.0,0.0,0.0,-0.418000012636,1.18299996853,8.21300029755,0,0.0,-0.0,-0.0,-0.0144784748554,-0.0310075730085,0.995355963707,0,0,0,0,0,781969280.0
1405689220751357384,13,1405689220751357384,ardrone_base_link,42.0,2,0,0,0,0,0,0.0,0.0,0.0,-0.418999999762,1.18200004101,8.21300029755,0,0.0,-0.0,-0.0,-0.0150642432272,-0.0309733282775,0.995323717594,0,0,0,0,0,781974400.0
1405689220752225053,14,1405689220752225053,ardrone_base_link,42.0,2,0,0,0,0,0,0.0,0.0,0.0,-0.419999986887,1.18099999428,8.21300029755,0,0.0,-0.0,-0.0,-0.0154120987281,-0.0309131108224,0.995340585709,0,0,0,0,0,781980800.0
1405689220752702419,15,1405689220752702419,ardrone_base_link,42.0,2,0,0,0,0,0,0.0,0.0,0.0,-0.421000003815,1.18099999428,8.21300029755,0,0.0,-0.0,-0.0,-0.0153387309983,-0.0308340936899,0.995318830013,0,0,0,0,0,781984320.0
1405689220753338599,16,1405689220753338599,ardrone_base_link,42.0,2,0,0,0,0,0,0.0,0.0,0.0,-0.42199999094,1.17900002003,8.21199989319,0,0.0,-0.0,-0.0,-0.0154867162928,-0.0307559743524,0.995333969593,0,0,0,0,0,781989312.0
1405689220754873517,17,1405689220754873517,ardrone_base_link,42.0,2,0,0,0,0,0,0.0,0.0,0.0,-0.42199999094,1.1779999733,8.21199989319,0,0.0,-0.0,-0.0,-0.0155754638836,-0.0306772682816,0.995331048965,0,0,0,0,0,781994368.0
1405689220755252295,18,1405689220755252295,ardrone_base_link,42.0,2,0,0,0,0,0,0.0,0.0,0.0,-0.42199999094,1.17700004578,8.21199989319,0,0.0,-0.0,-0.0,-0.0156669374555,-0.0306309778243,0.995327651501,0,0,0,0,0,781999296.0
1405689220755751793,19,1405689220755751793,ardrone_base_link,42.0,2,0,0,0,0,0,0.0,0.0,0.0,-0.423999994993,1.17499995232,8.2110004425,0,0.0,-0.0,-0.0,-0.0180007573217,-0.030665224418,0.995383560658,0,0,0,0,0,782004352.0
1405689220771607586,20,1405689220771607586,ardrone_base_link,42.0,2,0,0,0,0,0,0.0,0.0,0.0,-0.425999999046,1.17499995232,8.21000003815,0,0.0,-0.0,-0.0,-0.0202793180943,-0.0307465828955,0.995434045792,0,0,0,0,0,782009344.0
1405689220772175628,21,1405689220772175628,ardrone_base_link,42.0,2,0,0,0,0,0,0.0,0.0,0.0,-0.426999986172,1.17499995232,8.21000003815,0,0.0,-0.0,-0.0,-0.0197250600904,-0.0308112800121,0.995421350002,0,0,0,0,0,782014272.0
1405689220773047074,22,1405689220773047074,ardrone_base_link,42.0,2,0,0,0,0,0,0.0,0.0,0.0,-0.428000003099,1.1740000248,8.21000003815,0,0.0,-0.0,-0.0,-0.0194150973111,-0.0308618564159,0.995414495468,0,0,0,0,0,782019328.0
1405689220775308606,23,1405689220775308606,ardrone_base_link,42.0,2,0,0,0,0,0,0.0,0.0,0.0,-0.428000003099,1.17299997807,8.21000003815,0,0.0,-0.0,-0.0,-0.0194916464388,-0.0285877808928,0.995524764061,0,0,0,0,0,782024384.0
1405689220776917813,24,1405689220776917813,ardrone_base_link,42.0,2,0,0,0,0,0,0.0,0.0,0.0,-0.428000003099,1.17299997807,8.20899963379,0,0.0,-0.0,-0.0,-0.0193438157439,-0.0263438411057,0.99562805891,0,0,0,0,0,782029312.0
1405689220777556755,25,1405689220777556755,ardrone_base_link,42.0,2,0,0,0,0,0,0.0,0.0,0.0,-0.428999990225,1.1740000248,8.20899963379,0,0.0,-0.0,-0.0,-0.019391791895,-0.026853909716,0.993213474751,0,0,0,0,0,782034432.0
1405689220778739147,26,1405689220778739147,ardrone_base_link,42.0,2,0,0,0,0,0,0.0,0.0,0.0,-0.428000003099,1.1740000248,8.20800018311,0,0.0,-0.0,-0.0,-0.0193987302482,-0.0271163564175,0.990864157677,0,0,0,0,0,782039296.0
1405689220779381899,27,1405689220779381899,ardrone_base_link,42.0,2,0,0,0,0,0,0.0,0.0,0.0,-0.428000003099,1.17499995232,8.20600032806,0,0.0,-0.0,-0.0,-0.0193620268255,-0.0293176081032,0.991354584694,0,0,0,0,0,782044352.0
1405689220779960617,28,1405689220779960617,ardrone_base_link,42.0,2,0,0,0,0,0,0.0,0.0,0.0,-0.428999990225,1.1740000248,8.20499992371,0,0.0,-0.0,-0.0,-0.0170088391751,-0.0316395685077,0.991502821445,0,0,0,0,0,782049280.0
1405689220780626626,29,1405689220780626626,ardrone_base_link,42.0,2,0,0,0,0,0,0.0,0.0,0.0,-0.428999990225,1.17200005054,8.20400047302,0,0.0,-0.0,-0.0,-0.0146034732461,-0.0287870224565,0.991414666176,0,0,0,0,0,782054528.0
1405689220781196895,30,1405689220781196895,ardrone_base_link,42.0,2,0,0,0,0,0,0.0,0.0,0.0,-0.430000007153,1.17100000381,8.20300006866,0,0.0,-0.0,-0.0,-0.0151129346341,-0.0286224130541,0.991482377052,0,0,0,0,0,782059328.0
1405689220785225797,31,1405689220785225797,ardrone_base_link,42.0,2,0,0,0,0,0,0.0,0.0,0.0,-0.430999994278,1.16900002956,8.20199966431,0,0.0,-0.0,-0.0,-0.015493273735,-0.0316236056387,0.991341471672,0,0,0,0,0,782064640.0
1405689220786139570,32,1405689220786139570,ardrone_base_link,42.0,2,0,0,0,0,0,0.0,0.0,0.0,-0.432000011206,1.16799998283,8.20100021362,0,0.0,-0.0,-0.0,-0.0154118398204,-0.0313078425825,0.991370797157,0,0,0,0,0,782069312.0
1405689220787363690,33,1405689220787363690,ardrone_base_link,42.0,2,0,0,0,0,0,0.0,0.0,0.0,-0.432000011206,1.16700005531,8.19999980927,0,0.0,-0.0,-0.0,-0.0155807165429,-0.0308115947992,0.991377651691,0,0,0,0,0,782074496.0
1405689220826860390,34,1405689220826860390,ardrone_base_link,42.0,2,0,0,0,0,0,0.0,0.0,0.0,-0.430999994278,1.16600000858,8.19900035858,0,0.0,-0.0,-0.0,-0.0157115831971,-0.0309179779142,0.991372227669,0,0,0,0,0,782079680.0
1405689220828100877,35,1405689220828100877,ardrone_base_link,42.0,2,0,0,0,0,0,0.0,0.0,0.0,-0.430999994278,1.16600000858,8.19900035858,0,0.0,-0.0,-0.0,-0.0158246681094,-0.0308220647275,0.991378128529,0,0,0,0,0,782084736.0
1405689220829389569,36,1405689220829389569,ardrone_base_link,42.0,2,0,0,0,0,0,0.0,0.0,0.0,-0.432000011206,1.16600000858,8.19900035858,0,0.0,-0.0,-0.0,-0.0158473700285,-0.0308388751,0.991372764111,0,0,0,0,0,782089280.0
1405689220830733725,37,1405689220830733725,ardrone_base_link,42.0,2,0,0,0,0,0,0.0,0.0,0.0,-0.432000011206,1.16499996185,8.19799995422,0,0.0,-0.0,-0.0,-0.0158202890307,-0.0308464933187,0.991375923157,0,0,0,0,0,782094848.0
1405689220832156480,38,1405689220832156480,ardrone_base_link,42.0,2,0,0,0,0,0,0.0,0.0,0.0,-0.430999994278,1.16600000858,8.19799995422,0,0.0,-0.0,-0.0,-0.0180392935872,-0.0309594348073,0.991427898407,0,0,0,0,0,782099392.0
1405689220833373661,39,1405689220833373661,ardrone_base_link,42.0,2,0,0,0,0,0,0.0,0.0,0.0,-0.430999994278,1.16700005531,8.19699954987,0,0.0,-0.0,-0.0,-0.0178617723286,-0.0310101881623,0.991425991058,0,0,0,0,0,782105536.0
1405689220834885088,40,1405689220834885088,ardrone_base_link,42.0,2,0,0,0,0,0,0.0,0.0,0.0,-0.430000007153,1.16600000858,8.19699954987,0,0.0,-0.0,-0.0,-0.014918435365,-0.0309988074005,0.991362214088,0,0,0,0,0,782109632.0
1405689220837448029,41,1405689220837448029,ardrone_base_link,42.0,2,0,0,0,0,0,0.0,0.0,0.0,-0.430000007153,1.16600000858,8.19699954987,0,0.0,-0.0,-0.0,-0.0150833483785,-0.0310298018157,0.991368114948,0,0,0,0,0,782114368.0
1405689220838537225,42,1405689220838537225,ardrone_base_link,42.0,2,0,0,0,0,0,0.0,0.0,0.0,-0.428999990225,1.16499996185,8.19699954987,0,0.0,-0.0,-0.0,-0.0154765117913,-0.0310510527343,0.991378605366,0,0,0,0,0,782119488.0
1405689220839891139,43,1405689220839891139,ardrone_base_link,42.0,2,0,0,0,0,0,0.0,0.0,0.0,-0.428999990225,1.16400003433,8.19699954987,0,0.0,-0.0,-0.0,-0.0152600789443,-0.031052781269,0.991374254227,0,0,0,0,0,782124672.0
1405689220876490277,44,1405689220876490277,ardrone_base_link,42.0,2,0,0,0,0,0,0.0,0.0,0.0,-0.428000003099,1.16400003433,8.19600009918,0,0.0,-0.0,-0.0,-0.0153562473133,-0.0310390032828,0.991375267506,0,0,0,0,0,782129920.0
1405689220877545243,45,1405689220877545243,ardrone_base_link,42.0,2,0,0,0,0,0,0.0,0.0,0.0,-0.428000003099,1.16400003433,8.19499969482,0,0.0,-0.0,-0.0,-0.0154183004051,-0.0310024209321,0.991375029087,0,0,0,0,0,782134336.0
1405689220878259592,46,1405689220878259592,ardrone_base_link,42.0,2,0,0,0,0,0,0.0,0.0,0.0,-0.428000003099,1.16400003433,8.19400024414,0,0.0,-0.0,-0.0,-0.0155597431585,-0.0309550855309,0.991375029087,0,0,0,0,0,782139328.0
1405689220878816077,47,1405689220878816077,ardrone_base_link,42.0,2,0,0,0,0,0,0.0,0.0,0.0,-0.426999986172,1.16400003433,8.19400024414,0,0.0,-0.0,-0.0,-0.0179423242807,-0.0309368539602,0.99142819643,0,0,0,0,0,782144320.0
1405689220879456600,48,1405689220879456600,ardrone_base_link,42.0,2,0,0,0,0,0,0.0,0.0,0.0,-0.428000003099,1.16400003433,8.19299983978,0,0.0,-0.0,-0.0,-0.0202527362853,-0.030924892053,0.991479277611,0,0,0,0,0,782149312.0
1405689220880173764,49,1405689220880173764,ardrone_base_link,42.0,2,0,0,0,0,0,0.0,0.0,0.0,-0.428000003099,1.16499996185,8.19299983978,0,0.0,-0.0,-0.0,-0.0197132285684,-0.0308848246932,0.991466581821,0,0,0,0,0,782154368.0
1405689220881510830,50,1405689220881510830,ardrone_base_link,42.0,2,0,0,0,0,0,0.0,0.0,0.0,-0.430000007153,1.16499996185,8.19299983978,0,0.0,-0.0,-0.0,-0.0194004252553,-0.0308496113867,0.991459488869,0,0,0,0,0,782159680.0
1405689220882841905,51,1405689220882841905,ardrone_base_link,42.0,2,0,0,0,0,0,0.0,0.0,0.0,-0.430999994278,1.16600000858,8.19299983978,0,0.0,-0.0,-0.0,-0.0194807518274,-0.0285087749362,0.991570293903,0,0,0,0,0,782164288.0
1405689220884151386,52,1405689220884151386,ardrone_base_link,42.0,2,0,0,0,0,0,0.0,0.0,0.0,-0.430000007153,1.16700005531,8.1920003891,0,0.0,-0.0,-0.0,-0.0193497240543,-0.0261904876679,0.991673350334,0,0,0,0,0,782169280.0
1405689220906705016,53,1405689220906705016,ardrone_base_link,42.0,2,0,0,0,0,0,0.0,0.0,0.0,-0.428999990225,1.16799998283,8.1920003891,0,0.0,-0.0,-0.0,-0.0193306338042,-0.0266652647406,0.991647481918,0,0,0,0,0,782174400.0
1405689220907816873,54,1405689220907816873,ardrone_base_link,42.0,2,0,0,0,0,0,0.0,0.0,0.0,-0.428000003099,1.16900002956,8.1920003891,0,0.0,-0.0,-0.0,-0.0192712321877,-0.0268819145858,0.991633534431,0,0,0,0,0,782179328.0
1405689220909225771,55,1405689220909225771,ardrone_base_link,42.0,2,0,0,0,0,0,0.0,0.0,0.0,-0.426999986172,1.16999995708,8.19099998474,0,0.0,-0.0,-0.0,-0.0191421527416,-0.026767898351,0.994029760361,0,0,0,0,0,782184320.0
1405689220910601769,56,1405689220910601769,ardrone_base_link,42.0,2,0,0,0,0,0,0.0,0.0,0.0,-0.425999999046,1.16999995708,8.18999958038,0,0.0,-0.0,-0.0,-0.0190131217241,-0.0269488468766,0.996362566948,0,0,0,0,0,782189312.0
1405689220911151653,57,1405689220911151653,ardrone_base_link,42.0,2,0,0,0,0,0,0.0,0.0,0.0,-0.425000011921,1.17100000381,8.18999958038,0,0.0,-0.0,-0.0,-0.0190134178847,-0.0270768739283,0.995774149895,0,0,0,0,0,782194624.0
1405689220911685583,58,1405689220911685583,ardrone_base_link,42.0,2,0,0,0,0,0,0.0,0.0,0.0,-0.423999994993,1.16999995708,8.1890001297,0,0.0,-0.0,-0.0,-0.0190451908857,-0.0272706709802,0.995465815067,0,0,0,0,0,782199552.0
1405689220912424429,59,1405689220912424429,ardrone_base_link,42.0,2,0,0,0,0,0,0.0,0.0,0.0,-0.423000007868,1.16999995708,8.18799972534,0,0.0,-0.0,-0.0,-0.0190833825618,-0.0274208616465,0.995635986328,0,0,0,0,0,782204352.0
1405689220912969620,60,1405689220912969620,ardrone_base_link,42.0,2,0,0,0,0,0,0.0,0.0,0.0,-0.42199999094,1.16999995708,8.18700027466,0,0.0,-0.0,-0.0,-0.0191171187907,-0.029883088544,0.997874736786,0,0,0,0,0,782209280.0
1405689220914109967,61,1405689220914109967,ardrone_base_link,42.0,2,0,0,0,0,0,0.0,0.0,0.0,-0.42199999094,1.16900002956,8.18700027466,0,0.0,-0.0,-0.0,-0.0191625375301,-0.0322238467634,1.00011456013,0,0,0,0,0,782214272.0
1405689220915524948,62,1405689220915524948,ardrone_base_link,42.0,2,0,0,0,0,0,0.0,0.0,0.0,-0.42199999094,1.16999995708,8.1859998703,0,0.0,-0.0,-0.0,-0.0192552059889,-0.0316048897803,0.999533474445,0,0,0,0,0,782219712.0
1405689220916839362,63,1405689220916839362,ardrone_base_link,42.0,2,0,0,0,0,0,0.0,0.0,0.0,-0.42199999094,1.17100000381,8.18500041962,0,0.0,-0.0,-0.0,-0.0194253176451,-0.0311645735055,0.996865451336,0,0,0,0,0,782224768.0
1405689220939279224,64,1405689220939279224,ardrone_base_link,42.0,2,0,0,0,0,0,0.0,0.0,0.0,-0.42199999094,1.17100000381,8.18500041962,0,0.0,-0.0,-0.0,-0.0195031166077,-0.0288709010929,0.994796395302,0,0,0,0,0,782232768.0
1405689220940570779,65,1405689220940570779,ardrone_base_link,42.0,2,0,0,0,0,0,0.0,0.0,0.0,-0.42199999094,1.17100000381,8.18500041962,0,0.0,-0.0,-0.0,-0.0194237865508,-0.0264829322696,0.995444357395,0,0,0,0,0,782234624.0
1405689220941871204,66,1405689220941871204,ardrone_base_link,42.0,2,0,0,0,0,0,0.0,0.0,0.0,-0.419999986887,1.17200005054,8.18400001526,0,0.0,-0.0,-0.0,-0.0193648207933,-0.0269564911723,0.99573802948,0,0,0,0,0,782239744.0
1405689220943046928,67,1405689220943046928,ardrone_base_link,42.0,2,0,0,0,0,0,0.0,0.0,0.0,-0.419999986887,1.17200005054,8.18400001526,0,0.0,-0.0,-0.0,-0.019341127947,-0.0294401850551,0.995429694653,0,0,0,0,0,782244288.0
1405689220943793061,68,1405689220943793061,ardrone_base_link,42.0,2,0,0,0,0,0,0.0,0.0,0.0,-0.418999999762,1.17200005054,8.18400001526,0,0.0,-0.0,-0.0,-0.0192981846631,-0.0315001830459,0.995391130447,0,0,0,0,0,782249280.0
1405689220944512932,69,1405689220944512932,ardrone_base_link,42.0,2,0,0,0,0,0,0.0,0.0,0.0,-0.418999999762,1.17299997807,8.18400001526,0,0.0,-0.0,-0.0,-0.0192182157189,-0.030994201079,0.995402574539,0,0,0,0,0,782254336.0
1405689220945150550,70,1405689220945150550,ardrone_base_link,42.0,2,0,0,0,0,0,0.0,0.0,0.0,-0.418999999762,1.17200005054,8.18400001526,0,0.0,-0.0,-0.0,-0.0192590411752,-0.030690331012,0.993042230606,0,0,0,0,0,782259584.0
1405689220946685197,71,1405689220946685197,ardrone_base_link,42.0,2,0,0,0,0,0,0.0,0.0,0.0,-0.418000012636,1.17200005054,8.1829996109,0,0.0,-0.0,-0.0,-0.0192524455488,-0.0309659149498,0.993077158928,0,0,0,0,0,782264320.0
1405689220949471834,72,1405689220949471834,ardrone_base_link,42.0,2,0,0,0,0,0,0.0,0.0,0.0,-0.418000012636,1.17200005054,8.18200016022,0,0.0,-0.0,-0.0,-0.0191651079804,-0.0310704521835,0.99600559473,0,0,0,0,0,782269248.0
1405689220961953140,73,1405689220961953140,ardrone_base_link,42.0,2,0,0,0,0,0,0.0,0.0,0.0,-0.416999995708,1.17200005054,8.18200016022,0,0.0,-0.0,-0.0,-0.0169238429517,-0.0310990493745,0.995673120022,0,0,0,0,0,782274880.0
1405689220962504913,74,1405689220962504913,ardrone_base_link,42.0,2,0,0,0,0,0,0.0,0.0,0.0,-0.416999995708,1.17200005054,8.18099975586,0,0.0,-0.0,-0.0,-0.0147550124675,-0.0310660321265,0.995142817497,0,0,0,0,0,782279424.0
1405689220964607146,75,1405689220964607146,ardrone_base_link,42.0,2,0,0,0,0,0,0.0,0.0,0.0,-0.416000008583,1.17100000381,8.18099975586,0,0.0,-0.0,-0.0,-0.0153138674796,-0.0287872161716,0.995476543903,0,0,0,0,0,782284352.0
1405689220969797447,76,1405689220969797447,ardrone_base_link,42.0,2,0,0,0,0,0,0.0,0.0,0.0,-0.414999991655,1.16999995708,8.18099975586,0,0.0,-0.0,-0.0,-0.0132836550474,-0.0264883767813,0.995481669903,0,0,0,0,0,782289280.0
1405689220974860317,77,1405689220974860317,ardrone_base_link,42.0,2,0,0,0,0,0,0.0,0.0,0.0,-0.41400000453,1.16900002956,8.18000030518,0,0.0,-0.0,-0.0,-0.013178370893,-0.0270163267851,0.995480000973,0,0,0,0,0,782294336.0
1405689221017754658,78,1405689221017754658,ardrone_base_link,42.0,2,0,0,0,0,0,0.0,0.0,0.0,-0.41400000453,1.16700005531,8.18099975586,0,0.0,-0.0,-0.0,-0.0161074679345,-0.0272481907159,0.993111073971,0,0,0,0,0,782299328.0
1405689221017974130,79,1405689221017974130,ardrone_base_link,42.0,2,0,0,0,0,0,0.0,0.0,0.0,-0.412999987602,1.16700005531,8.18000030518,0,0.0,-0.0,-0.0,-0.0158870443702,-0.0269823651761,0.990794181824,0,0,0,0,0,782304320.0
1405689221018117499,80,1405689221018117499,ardrone_base_link,42.0,2,0,0,0,0,0,0.0,0.0,0.0,-0.41400000453,1.16600000858,8.18000030518,0,0.0,-0.0,-0.0,-0.0154818091542,-0.0292998868972,0.991265654564,0,0,0,0,0,782309312.0
1405689221019587472,81,1405689221019587472,ardrone_base_link,42.0,2,0,0,0,0,0,0.0,0.0,0.0,-0.41400000453,1.16499996185,8.17800045013,0,0.0,-0.0,-0.0,-0.0157388933003,-0.0315102078021,0.991465330124,0,0,0,0,0,782314496.0
1405689221021153358,82,1405689221021153358,ardrone_base_link,42.0,2,0,0,0,0,0,0.0,0.0,0.0,-0.414999991655,1.16499996185,8.17700004578,0,0.0,-0.0,-0.0,-0.0157063473016,-0.0309128426015,0.991325676441,0,0,0,0,0,782319296.0
1405689221022186876,83,1405689221022186876,ardrone_base_link,42.0,2,0,0,0,0,0,0.0,0.0,0.0,-0.416000008583,1.1629999876,8.17700004578,0,0.0,-0.0,-0.0,-0.0157327372581,-0.0305611658841,0.991383254528,0,0,0,0,0,782324288.0
1405689221023562937,84,1405689221023562937,ardrone_base_link,42.0,2,0,0,0,0,0,0.0,0.0,0.0,-0.416999995708,1.1629999876,8.17599964142,0,0.0,-0.0,-0.0,-0.0179859064519,-0.030714193359,0.991417169571,0,0,0,0,0,782329280.0
1405689221024762615,85,1405689221024762615,ardrone_base_link,42.0,2,0,0,0,0,0,0.0,0.0,0.0,-0.418000012636,1.1629999876,8.17599964142,0,0.0,-0.0,-0.0,-0.0202270690352,-0.0306661985815,0.991489470005,0,0,0,0,0,782334272.0
1405689221064956748,86,1405689221064956748,ardrone_base_link,42.0,2,0,0,0,0,0,0.0,0.0,0.0,-0.418000012636,1.1629999876,8.17599964142,0,0.0,-0.0,-0.0,-0.0196451880038,-0.0306300148368,0.991462111473,0,0,0,0,0,782339264.0
1405689221067380049,87,1405689221067380049,ardrone_base_link,42.0,2,0,0,0,0,0,0.0,0.0,0.0,-0.416999995708,1.1629999876,8.17599964142,0,0.0,-0.0,-0.0,-0.0170301962644,-0.0305665824562,0.991405725479,0,0,0,0,0,782344256.0
1405689221068590996,88,1405689221068590996,ardrone_base_link,42.0,2,0,0,0,0,0,0.0,0.0,0.0,-0.416999995708,1.16199994087,8.17599964142,0,0.0,-0.0,-0.0,-0.0149897644296,-0.0328859575093,0.991254329681,0,0,0,0,0,782349312.0
1405689221076960084,89,1405689221076960084,ardrone_base_link,42.0,2,0,0,0,0,0,0.0,0.0,0.0,-0.418000012636,1.16100001335,8.17599964142,0,0.0,-0.0,-0.0,-0.0177895687521,-0.0329660698771,0.991318285465,0,0,0,0,0,782355520.0
1405689221078120816,90,1405689221078120816,ardrone_base_link,42.0,2,0,0,0,0,0,0.0,0.0,0.0,-0.418000012636,1.16100001335,8.17500019073,0,0.0,-0.0,-0.0,-0.0202513616532,-0.0303282681853,0.991508245468,0,0,0,0,0,782359360.0
1405689221079464236,91,1405689221079464236,ardrone_base_link,42.0,2,0,0,0,0,0,0.0,0.0,0.0,-0.418999999762,1.16100001335,8.17399978638,0,0.0,-0.0,-0.0,-0.0194962676615,-0.0307370442897,0.991479694843,0,0,0,0,0,782364608.0
1405689221080865034,92,1405689221080865034,ardrone_base_link,42.0,2,0,0,0,0,0,0.0,0.0,0.0,-0.418999999762,1.16100001335,8.17399978638,0,0.0,-0.0,-0.0,-0.0169651992619,-0.031252656132,0.991398870945,0,0,0,0,0,782369280.0
1405689221082076236,93,1405689221082076236,ardrone_base_link,42.0,2,0,0,0,0,0,0.0,0.0,0.0,-0.418999999762,1.15999996662,8.17399978638,0,0.0,-0.0,-0.0,-0.0148687651381,-0.0310376286507,0.991361021996,0,0,0,0,0,782374464.0
1405689221083297984,94,1405689221083297984,ardrone_base_link,42.0,2,0,0,0,0,0,0.0,0.0,0.0,-0.418999999762,1.1590000391,8.17300033569,0,0.0,-0.0,-0.0,-0.0154187427834,-0.0310544483364,0.991370797157,0,0,0,0,0,782379264.0
1405689221086241932,95,1405689221086241932,ardrone_base_link,42.0,2,0,0,0,0,0,0.0,0.0,0.0,-0.418999999762,1.1590000391,8.17300033569,0,0.0,-0.0,-0.0,-0.0181120559573,-0.0309255085886,0.989042878151,0,0,0,0,0,782384448.0
1405689221087109469,96,1405689221087109469,ardrone_base_link,42.0,2,0,0,0,0,0,0.0,0.0,0.0,-0.418999999762,1.15799999237,8.17300033569,0,0.0,-0.0,-0.0,-0.0202786289155,-0.0308512635529,0.986753582954,0,0,0,0,0,782389248.0
1405689221120858184,97,1405689221120858184,ardrone_base_link,42.0,2,0,0,0,0,0,0.0,0.0,0.0,-0.418999999762,1.15799999237,8.17199993134,0,0.0,-0.0,-0.0,-0.0197607763112,-0.0307935122401,0.987332463264,0,0,0,0,0,782394304.0
1405689221121988470,98,1405689221121988470,ardrone_base_link,42.0,2,0,0,0,0,0,0.0,0.0,0.0,-0.418999999762,1.1590000391,8.17199993134,0,0.0,-0.0,-0.0,-0.019453547895,-0.0307656060904,0.987632036209,0,0,0,0,0,782399808.0
1405689221123660019,99,1405689221123660019,ardrone_base_link,42.0,2,0,0,0,0,0,0.0,0.0,0.0,-0.418999999762,1.15999996662,8.17199993134,0,0.0,-0.0,-0.0,-0.0196540150791,-0.0307541638613,0.987466275692,0,0,0,0,0,782404736.0
1405689221124817965,100,1405689221124817965,ardrone_base_link,42.0,2,0,0,0,0,0,0.0,0.0,0.0,-0.418000012636,1.16100001335,8.17199993134,0,0.0,-0.0,-0.0,-0.0195139292628,-0.0308132059872,0.98989790678,0,0,0,0,0,782409344.0
1405689221126065455,101,1405689221126065455,ardrone_base_link,42.0,2,0,0,0,0,0,0.0,0.0,0.0,-0.416999995708,1.16100001335,8.17199993134,0,0.0,-0.0,-0.0,-0.019404033199,-0.0308942589909,0.992223322392,0,0,0,0,0,782414272.0
1405689221127514248,102,1405689221127514248,ardrone_base_link,42.0,2,0,0,0,0,0,0.0,0.0,0.0,-0.416999995708,1.16100001335,8.17199993134,0,0.0,-0.0,-0.0,-0.0193331837654,-0.030915658921,0.991651773453,0,0,0,0,0,782419712.0
1405689221128497212,103,1405689221128497212,ardrone_base_link,42.0,2,0,0,0,0,0,0.0,0.0,0.0,-0.416999995708,1.15999996662,8.17099952698,0,0.0,-0.0,-0.0,-0.0192656628788,-0.0309572312981,0.991330802441,0,0,0,0,0,782424704.0
1405689221130228113,104,1405689221130228113,ardrone_base_link,42.0,2,0,0,0,0,0,0.0,0.0,0.0,-0.416999995708,1.1590000391,8.17099952698,0,0.0,-0.0,-0.0,-0.0192100256681,-0.0310114920139,0.991503179073,0,0,0,0,0,782429312.0
1405689221131196765,105,1405689221131196765,ardrone_base_link,42.0,2,0,0,0,0,0,0.0,0.0,0.0,-0.416999995708,1.15799999237,8.17000007629,0,0.0,-0.0,-0.0,-0.0191551055759,-0.0311049018055,0.993851542473,0,0,0,0,0,782434496.0
1405689221173819858,106,1405689221173819858,ardrone_base_link,42.0,2,0,0,0,0,0,0.0,0.0,0.0,-0.418999999762,1.1590000391,8.17000007629,0,0.0,-0.0,-0.0,-0.0191855579615,-0.0311632100493,0.996193110943,0,0,0,0,0,782439296.0
1405689221175143444,107,1405689221175143444,ardrone_base_link,42.0,2,0,0,0,0,0,0.0,0.0,0.0,-0.418999999762,1.15799999237,8.17000007629,0,0.0,-0.0,-0.0,-0.0170529782772,-0.0310711078346,0.995533466339,0,0,0,0,0,782444608.0
1405689221176495901,108,1405689221176495901,ardrone_base_link,42.0,2,0,0,0,0,0,0.0,0.0,0.0,-0.419999986887,1.15799999237,8.16899967194,0,0.0,-0.0,-0.0,-0.0150245409459,-0.0308878161013,0.992801249027,0,0,0,0,0,782449280.0
1405689221178011188,109,1405689221178011188,ardrone_base_link,42.0,2,0,0,0,0,0,0.0,0.0,0.0,-0.419999986887,1.15699994564,8.16899967194,0,0.0,-0.0,-0.0,-0.015727955848,-0.0307343304157,0.990645289421,0,0,0,0,0,782454272.0
1405689221179043052,110,1405689221179043052,ardrone_base_link,42.0,2,0,0,0,0,0,0.0,0.0,0.0,-0.419999986887,1.15499997139,8.16800022125,0,0.0,-0.0,-0.0,-0.0159875098616,-0.03065495193,0.991194248199,0,0,0,0,0,782459264.0
1405689221180314006,111,1405689221180314006,ardrone_base_link,42.0,2,0,0,0,0,0,0.0,0.0,0.0,-0.419999986887,1.15499997139,8.16699981689,0,0.0,-0.0,-0.0,-0.0157476980239,-0.0305938515812,0.991510689259,0,0,0,0,0,782464256.0
1405689221181689826,112,1405689221181689826,ardrone_base_link,42.0,2,0,0,0,0,0,0.0,0.0,0.0,-0.418999999762,1.15400004387,8.16699981689,0,0.0,-0.0,-0.0,-0.0157193895429,-0.0305734332651,0.991322934628,0,0,0,0,0,782469248.0
1405689221182967854,113,1405689221182967854,ardrone_base_link,42.0,2,0,0,0,0,0,0.0,0.0,0.0,-0.419999986887,1.15400004387,8.16600036621,0,0.0,-0.0,-0.0,-0.0156424287707,-0.0306204333901,0.991381049156,0,0,0,0,0,782474304.0
1405689221184267547,114,1405689221184267547,ardrone_base_link,42.0,2,0,0,0,0,0,0.0,0.0,0.0,-0.419999986887,1.15400004387,8.16600036621,0,0.0,-0.0,-0.0,-0.0155555019155,-0.0284198708832,0.9914752841,0,0,0,0,0,782480640.0
1405689221185670534,115,1405689221185670534,ardrone_base_link,42.0,2,0,0,0,0,0,0.0,0.0,0.0,-0.419999986887,1.15299999714,8.16600036621,0,0.0,-0.0,-0.0,-0.0154965547845,-0.0285911317915,0.991486489773,0,0,0,0,0,782484480.0
1405689221186828976,116,1405689221186828976,ardrone_base_link,42.0,2,0,0,0,0,0,0.0,0.0,0.0,-0.421000003815,1.15299999714,8.16499996185,0,0.0,-0.0,-0.0,-0.0155176091939,-0.03149959445,0.991345405579,0,0,0,0,0,782489280.0
1405689221188203978,117,1405689221188203978,ardrone_base_link,42.0,2,0,0,0,0,0,0.0,0.0,0.0,-0.42199999094,1.15199995041,8.16499996185,0,0.0,-0.0,-0.0,-0.0154720777646,-0.0312644913793,0.991360068321,0,0,0,0,0,782494400.0
1405689221191130331,118,1405689221191130331,ardrone_base_link,42.0,2,0,0,0,0,0,0.0,0.0,0.0,-0.42199999094,1.15199995041,8.1639995575,0,0.0,-0.0,-0.0,-0.0154395857826,-0.0307784043252,0.991384923458,0,0,0,0,0,782499264.0
1405689221194623229,119,1405689221194623229,ardrone_base_link,42.0,2,0,0,0,0,0,0.0,0.0,0.0,-0.423999994993,1.15100002289,8.1639995575,0,0.0,-0.0,-0.0,-0.0154627412558,-0.0309170335531,0.991371750832,0,0,0,0,0,782504256.0
1405689221232552738,120,1405689221232552738,ardrone_base_link,42.0,2,0,0,0,0,0,0.0,0.0,0.0,-0.425000011921,1.14999997616,8.1639995575,0,0.0,-0.0,-0.0,-0.015509490855,-0.0307927727699,0.991375505924,0,0,0,0,0,782509312.0
1405689221233808438,121,1405689221233808438,ardrone_base_link,42.0,2,0,0,0,0,0,0.0,0.0,0.0,-0.425000011921,1.14999997616,8.1639995575,0,0.0,-0.0,-0.0,-0.0155740492046,-0.0307582337409,0.991374254227,0,0,0,0,0,782514240.0
1405689221235272833,122,1405689221235272833,ardrone_base_link,42.0,2,0,0,0,0,0,0.0,0.0,0.0,-0.425000011921,1.14999997616,8.1639995575,0,0.0,-0.0,-0.0,-0.0156361740083,-0.0306773688644,0.99137544632,0,0,0,0,0,782519232.0
1405689221236909723,123,1405689221236909723,ardrone_base_link,42.0,2,0,0,0,0,0,0.0,0.0,0.0,-0.425000011921,1.15100002289,8.1639995575,0,0.0,-0.0,-0.0,-0.0156763643026,-0.0306638516486,0.991374909878,0,0,0,0,0,782524736.0
1405689221237952701,124,1405689221237952701,ardrone_base_link,42.0,2,0,0,0,0,0,0.0,0.0,0.0,-0.425000011921,1.15100002289,8.1639995575,0,0.0,-0.0,-0.0,-0.0156712774187,-0.0306757576764,0.991374671459,0,0,0,0,0,782529280.0
1405689221239056942,125,1405689221239056942,ardrone_base_link,42.0,2,0,0,0,0,0,0.0,0.0,0.0,-0.425000011921,1.14999997616,8.1639995575,0,0.0,-0.0,-0.0,-0.0156167866662,-0.0307349655777,0.99137544632,0,0,0,0,0,782534464.0
1405689221240489596,126,1405689221240489596,ardrone_base_link,42.0,2,0,0,0,0,0,0.0,0.0,0.0,-0.425000011921,1.14800000191,8.1639995575,0,0.0,-0.0,-0.0,-0.0155404172838,-0.0308483578265,0.991374909878,0,0,0,0,0,782539264.0
1405689221241931154,127,1405689221241931154,ardrone_base_link,42.0,2,0,0,0,0,0,0.0,0.0,0.0,-0.423999994993,1.14699995518,8.1639995575,0,0.0,-0.0,-0.0,-0.0154036181048,-0.0310252290219,0.993763387203,0,0,0,0,0,782544256.0
1405689221243161595,128,1405689221243161595,ardrone_base_link,42.0,2,0,0,0,0,0,0.0,0.0,0.0,-0.423999994993,1.14600002766,8.16300010681,0,0.0,-0.0,-0.0,-0.0153370890766,-0.0311695989221,0.996099054813,0,0,0,0,0,782549248.0
1405689221244380846,129,1405689221244380846,ardrone_base_link,42.0,2,0,0,0,0,0,0.0,0.0,0.0,-0.423000007868,1.14600002766,8.16300010681,0,0.0,-0.0,-0.0,-0.0154472384602,-0.0311953946948,0.995509505272,0,0,0,0,0,782554432.0
1405689221278532702,130,1405689221278532702,ardrone_base_link,42.0,2,0,0,0,0,0,0.0,0.0,0.0,-0.423000007868,1.14600002766,8.16199970245,0,0.0,-0.0,-0.0,-0.0156595502049,-0.0311359409243,0.992813467979,0,0,0,0,0,782559232.0
1405689221279773760,131,1405689221279773760,ardrone_base_link,42.0,2,0,0,0,0,0,0.0,0.0,0.0,-0.423000007868,1.14699995518,8.16199970245,0,0.0,-0.0,-0.0,-0.0180294830352,-0.0311713013798,0.99308937788,0,0,0,0,0,782564224.0
1405689221281202433,132,1405689221281202433,ardrone_base_link,42.0,2,0,0,0,0,0,0.0,0.0,0.0,-0.42199999094,1.14800000191,8.16199970245,0,0.0,-0.0,-0.0,-0.0179616957903,-0.0311686657369,0.993580341339,0,0,0,0,0,782569664.0
1405689221282633180,133,1405689221282633180,ardrone_base_link,42.0,2,0,0,0,0,0,0.0,0.0,0.0,-0.42199999094,1.14699995518,8.16199970245,0,0.0,-0.0,-0.0,-0.0151674877852,-0.0310260877013,0.990908205509,0,0,0,0,0,782574272.0
1405689221283808226,134,1405689221283808226,ardrone_base_link,42.0,2,0,0,0,0,0,0.0,0.0,0.0,-0.42199999094,1.14800000191,8.16199970245,0,0.0,-0.0,-0.0,-0.0153192020953,-0.0309813022614,0.991009294987,0,0,0,0,0,782579264.0
1405689221285109404,135,1405689221285109404,ardrone_base_link,42.0,2,0,0,0,0,0,0.0,0.0,0.0,-0.421000003815,1.14800000191,8.16100025177,0,0.0,-0.0,-0.0,-0.0156432110816,-0.0309452395886,0.991554439068,0,0,0,0,0,782584384.0
1405689221286463011,136,1405689221286463011,ardrone_base_link,42.0,2,0,0,0,0,0,0.0,0.0,0.0,-0.421000003815,1.14800000191,8.16100025177,0,0.0,-0.0,-0.0,-0.0153645435348,-0.0308850519359,0.991323471069,0,0,0,0,0,782589760.0
1405689221287524129,137,1405689221287524129,ardrone_base_link,42.0,2,0,0,0,0,0,0.0,0.0,0.0,-0.419999986887,1.14800000191,8.16100025177,0,0.0,-0.0,-0.0,-0.0153790218756,-0.0308478605002,0.991392850876,0,0,0,0,0,782594240.0
1405689221288818934,138,1405689221288818934,ardrone_base_link,42.0,2,0,0,0,0,0,0.0,0.0,0.0,-0.419999986887,1.14699995518,8.16100025177,0,0.0,-0.0,-0.0,-0.0153631241992,-0.0308200065047,0.991353750229,0,0,0,0,0,782599552.0
1405689221290213069,139,1405689221290213069,ardrone_base_link,42.0,2,0,0,0,0,0,0.0,0.0,0.0,-0.418999999762,1.14800000191,8.16100025177,0,0.0,-0.0,-0.0,-0.0153500288725,-0.0308733507991,0.993776857853,0,0,0,0,0,782605504.0
1405689221322493044,140,1405689221322493044,ardrone_base_link,42.0,2,0,0,0,0,0,0.0,0.0,0.0,-0.418999999762,1.14800000191,8.16100025177,0,0.0,-0.0,-0.0,-0.0153165003285,-0.0309343338013,0.996097922325,0,0,0,0,0,782609280.0
1405689221323930551,141,1405689221323930551,ardrone_base_link,42.0,2,0,0,0,0,0,0.0,0.0,0.0,-0.418999999762,1.14699995518,8.16100025177,0,0.0,-0.0,-0.0,-0.0155041273683,-0.0308580957353,0.993115723133,0,0,0,0,0,782614272.0
1405689221325182845,142,1405689221325182845,ardrone_base_link,42.0,2,0,0,0,0,0,0.0,0.0,0.0,-0.418000012636,1.14800000191,8.15999984741,0,0.0,-0.0,-0.0,-0.0179803706706,-0.0308261793107,0.990534901619,0,0,0,0,0,782619328.0
1405689221326881281,143,1405689221326881281,ardrone_base_link,42.0,2,0,0,0,0,0,0.0,0.0,0.0,-0.418999999762,1.14699995518,8.15999984741,0,0.0,-0.0,-0.0,-0.0202464349568,-0.030887613073,0.99134105444,0,0,0,0,0,782624576.0
1405689221328122869,144,1405689221328122869,ardrone_base_link,42.0,2,0,0,0,0,0,0.0,0.0,0.0,-0.418999999762,1.14699995518,8.15900039673,0,0.0,-0.0,-0.0,-0.019698292017,-0.0308956727386,0.99159181118,0,0,0,0,0,782629696.0
1405689221329074273,145,1405689221329074273,ardrone_base_link,42.0,2,0,0,0,0,0,0.0,0.0,0.0,-0.419999986887,1.14600002766,8.15799999237,0,0.0,-0.0,-0.0,-0.0171287003905,-0.0308545734733,0.991373062134,0,0,0,0,0,782634624.0
1405689221330511026,146,1405689221330511026,ardrone_base_link,42.0,2,0,0,0,0,0,0.0,0.0,0.0,-0.419999986887,1.14499998093,8.15699958801,0,0.0,-0.0,-0.0,-0.015074419789,-0.0308051165193,0.991350591183,0,0,0,0,0,782639232.0
1405689221331698493,147,1405689221331698493,ardrone_base_link,42.0,2,0,0,0,0,0,0.0,0.0,0.0,-0.419999986887,1.14400005341,8.15600013733,0,0.0,-0.0,-0.0,-0.0156497247517,-0.0307647660375,0.991367161274,0,0,0,0,0,782644288.0
1405689221332209158,148,1405689221332209158,ardrone_base_link,42.0,2,0,0,0,0,0,0.0,0.0,0.0,-0.421000003815,1.14499998093,8.15600013733,0,0.0,-0.0,-0.0,-0.0160010755062,-0.0307058170438,0.991389632225,0,0,0,0,0,782649280.0
1405689221334758780,149,1405689221334758780,ardrone_base_link,42.0,2,0,0,0,0,0,0.0,0.0,0.0,-0.419999986887,1.14499998093,8.15499973297,0,0.0,-0.0,-0.0,-0.0158312786371,-0.0306463669986,0.991366922855,0,0,0,0,0,782654272.0
1405689221339740133,150,1405689221339740133,ardrone_base_link,42.0,2,0,0,0,0,0,0.0,0.0,0.0,-0.421000003815,1.14400005341,8.15499973297,0,0.0,-0.0,-0.0,-0.0158394314349,-0.0306207668036,0.991374671459,0,0,0,0,0,782659392.0
1405689221356178433,151,1405689221356178433,ardrone_base_link,42.0,2,0,0,0,0,0,0.0,0.0,0.0,-0.421000003815,1.14400005341,8.15400028229,0,0.0,-0.0,-0.0,-0.0157264117151,-0.0306351501495,0.991377651691,0,0,0,0,0,782664704.0
1405689221356798569,152,1405689221356798569,ardrone_base_link,42.0,2,0,0,0,0,0,0.0,0.0,0.0,-0.419999986887,1.14400005341,8.15400028229,0,0.0,-0.0,-0.0,-0.0156172225252,-0.0306872017682,0.991373479366,0,0,0,0,0,782669760.0
1405689221357344908,153,1405689221357344908,ardrone_base_link,42.0,2,0,0,0,0,0,0.0,0.0,0.0,-0.419999986887,1.14400005341,8.15400028229,0,0.0,-0.0,-0.0,-0.0154969180003,-0.0307630337775,0.991374909878,0,0,0,0,0,782674688.0
1405689221359655612,154,1405689221359655612,ardrone_base_link,42.0,2,0,0,0,0,0,0.0,0.0,0.0,-0.419999986887,1.14400005341,8.15299987793,0,0.0,-0.0,-0.0,-0.0154252136126,-0.0308487098664,0.99137544632,0,0,0,0,0,782679232.0
1405689221364488128,155,1405689221364488128,ardrone_base_link,42.0,2,0,0,0,0,0,0.0,0.0,0.0,-0.421000003815,1.14400005341,8.15299987793,0,0.0,-0.0,-0.0,-0.0154007757083,-0.03092844598,0.991375207901,0,0,0,0,0,782684224.0
1405689221368808913,156,1405689221368808913,ardrone_base_link,42.0,2,0,0,0,0,0,0.0,0.0,0.0,-0.421000003815,1.14400005341,8.15200042725,0,0.0,-0.0,-0.0,-0.0154079468921,-0.0309820137918,0.991375029087,0,0,0,0,0,782689280.0
1405689221374933678,157,1405689221374933678,ardrone_base_link,42.0,2,0,0,0,0,0,0.0,0.0,0.0,-0.419999986887,1.14400005341,8.15100002289,0,0.0,-0.0,-0.0,-0.0155283454806,-0.0309307165444,0.988986313343,0,0,0,0,0,782694592.0
1405689221378827521,158,1405689221378827521,ardrone_base_link,42.0,2,0,0,0,0,0,0.0,0.0,0.0,-0.419999986887,1.14300000668,8.14999961853,0,0.0,-0.0,-0.0,-0.0156542137265,-0.0308450721204,0.986651360989,0,0,0,0,0,782699264.0
1405689221383988700,159,1405689221383988700,ardrone_base_link,42.0,2,0,0,0,0,0,0.0,0.0,0.0,-0.419999986887,1.14199995995,8.14900016785,0,0.0,-0.0,-0.0,-0.0179789569229,-0.0308550298214,0.987293481827,0,0,0,0,0,782704256.0
1405689221389028155,160,1405689221389028155,ardrone_base_link,42.0,2,0,0,0,0,0,0.0,0.0,0.0,-0.419999986887,1.14100003242,8.14900016785,0,0.0,-0.0,-0.0,-0.0202765613794,-0.0308658666909,0.987651586533,0,0,0,0,0,782709312.0
1405689221393932384,161,1405689221393932384,ardrone_base_link,42.0,2,0,0,0,0,0,0.0,0.0,0.0,-0.421000003815,1.14100003242,8.14900016785,0,0.0,-0.0,-0.0,-0.0197124555707,-0.0309057738632,0.989858388901,0,0,0,0,0,782714240.0
1405689221399492468,162,1405689221399492468,ardrone_base_link,42.0,2,0,0,0,0,0,0.0,0.0,0.0,-0.42199999094,1.14199995995,8.14900016785,0,0.0,-0.0,-0.0,-0.0195189006627,-0.0308845825493,0.98984181881,0,0,0,0,0,782719296.0
1405689221413302208,163,1405689221413302208,ardrone_base_link,42.0,2,0,0,0,0,0,0.0,0.0,0.0,-0.423000007868,1.14300000668,8.14799976349,0,0.0,-0.0,-0.0,-0.0197894144803,-0.0308306682855,0.989300072193,0,0,0,0,0,782724736.0
1405689221413929550,164,1405689221413929550,ardrone_base_link,42.0,2,0,0,0,0,0,0.0,0.0,0.0,-0.423999994993,1.14300000668,8.14700031281,0,0.0,-0.0,-0.0,-0.0196824986488,-0.0308296587318,0.991934597492,0,0,0,0,0,782730944.0
1405689221414592469,165,1405689221414592469,ardrone_base_link,42.0,2,0,0,0,0,0,0.0,0.0,0.0,-0.423000007868,1.14300000668,8.14700031281,0,0.0,-0.0,-0.0,-0.0196500960737,-0.0307392384857,0.991807341576,0,0,0,0,0,782734208.0
1405689221418814124,166,1405689221418814124,ardrone_base_link,42.0,2,0,0,0,0,0,0.0,0.0,0.0,-0.423000007868,1.14199995995,8.14700031281,0,0.0,-0.0,-0.0,-0.0194888841361,-0.0283602643758,0.991396188736,0,0,0,0,0,782739264.0
1405689221425341177,167,1405689221425341177,ardrone_base_link,42.0,2,0,0,0,0,0,0.0,0.0,0.0,-0.42199999094,1.14100003242,8.14700031281,0,0.0,-0.0,-0.0,-0.0193783082068,-0.0284044332802,0.991621017456,0,0,0,0,0,782744256.0
1405689221429017494,168,1405689221429017494,ardrone_base_link,42.0,2,0,0,0,0,0,0.0,0.0,0.0,-0.42199999094,1.14100003242,8.14700031281,0,0.0,-0.0,-0.0,-0.0193738806993,-0.0312651135027,0.991414964199,0,0,0,0,0,782749248.0
1405689221433980279,169,1405689221433980279,ardrone_base_link,42.0,2,0,0,0,0,0,0.0,0.0,0.0,-0.423000007868,1.14199995995,8.14700031281,0,0.0,-0.0,-0.0,-0.0170592050999,-0.0310611017048,0.991418123245,0,0,0,0,0,782754240.0
1405689221438591924,170,1405689221438591924,ardrone_base_link,42.0,2,0,0,0,0,0,0.0,0.0,0.0,-0.42199999094,1.14199995995,8.14700031281,0,0.0,-0.0,-0.0,-0.0148492138833,-0.0306803099811,0.991352975368,0,0,0,0,0,782759232.0
1405689221443849012,171,1405689221443849012,ardrone_base_link,42.0,2,0,0,0,0,0,0.0,0.0,0.0,-0.42199999094,1.14199995995,8.14700031281,0,0.0,-0.0,-0.0,-0.0177626386285,-0.0310134775937,0.991421818733,0,0,0,0,0,782764224.0
1405689221455771378,172,1405689221455771378,ardrone_base_link,42.0,2,0,0,0,0,0,0.0,0.0,0.0,-0.42199999094,1.14199995995,8.14599990845,0,0.0,-0.0,-0.0,-0.0203070025891,-0.0310576595366,0.991488218307,0,0,0,0,0,782769600.0
1405689221455898612,173,1405689221455898612,ardrone_base_link,42.0,2,0,0,0,0,0,0.0,0.0,0.0,-0.42199999094,1.14100003242,8.14599990845,0,0.0,-0.0,-0.0,-0.0172710958868,-0.0287206005305,0.989125907421,0,0,0,0,0,782774272.0
1405689221458501106,174,1405689221458501106,ardrone_base_link,42.0,2,0,0,0,0,0,0.0,0.0,0.0,-0.423000007868,1.13900005817,8.14500045776,0,0.0,-0.0,-0.0,-0.0147233838215,-0.0287230033427,0.989126384258,0,0,0,0,0,782779264.0
1405689221463812994,175,1405689221463812994,ardrone_base_link,42.0,2,0,0,0,0,0,0.0,0.0,0.0,-0.423999994993,1.13900005817,8.14400005341,0,0.0,-0.0,-0.0,-0.0176965948194,-0.0316417552531,0.991987764835,0,0,0,0,0,782784256.0
1405689221468892226,176,1405689221468892226,ardrone_base_link,42.0,2,0,0,0,0,0,0.0,0.0,0.0,-0.423000007868,1.13900005817,8.14299964905,0,0.0,-0.0,-0.0,-0.020260758698,-0.0313128046691,0.99177467823,0,0,0,0,0,782789248.0
1405689221473989429,177,1405689221473989429,ardrone_base_link,42.0,2,0,0,0,0,0,0.0,0.0,0.0,-0.423000007868,1.13999998569,8.14200019836,0,0.0,-0.0,-0.0,-0.0196018144488,-0.0307067409158,0.991303682327,0,0,0,0,0,782794240.0
1405689221478536840,178,1405689221478536840,ardrone_base_link,42.0,2,0,0,0,0,0,0.0,0.0,0.0,-0.423000007868,1.14100003242,8.14200019836,0,0.0,-0.0,-0.0,-0.0193868745118,-0.0308140702546,0.991501390934,0,0,0,0,0,782799232.0
1405689221484486107,179,1405689221484486107,ardrone_base_link,42.0,2,0,0,0,0,0,0.0,0.0,0.0,-0.423000007868,1.14199995995,8.14099979401,0,0.0,-0.0,-0.0,-0.0196519047022,-0.030650312081,0.989064872265,0,0,0,0,0,782804224.0
1405689221488679507,180,1405689221488679507,ardrone_base_link,42.0,2,0,0,0,0,0,0.0,0.0,0.0,-0.423000007868,1.14300000668,8.14099979401,0,0.0,-0.0,-0.0,-0.0196523759514,-0.0306377280504,0.986755788326,0,0,0,0,0,782809216.0
1405689221494359077,181,1405689221494359077,ardrone_base_link,42.0,2,0,0,0,0,0,0.0,0.0,0.0,-0.423000007868,1.14300000668,8.14099979401,0,0.0,-0.0,-0.0,-0.017232613638,-0.0306596942246,0.987261652946,0,0,0,0,0,782814208.0
1405689221508061112,182,1405689221508061112,ardrone_base_link,42.0,2,0,0,0,0,0,0.0,0.0,0.0,-0.42199999094,1.14400005341,8.14099979401,0,0.0,-0.0,-0.0,-0.0148633057252,-0.0307246185839,0.987532913685,0,0,0,0,0,782819968.0
1405689221508373644,183,1405689221508373644,ardrone_base_link,42.0,2,0,0,0,0,0,0.0,0.0,0.0,-0.42199999094,1.14400005341,8.14099979401,0,0.0,-0.0,-0.0,-0.0153728621081,-0.0307760182768,0.98737770319,0,0,0,0,0,782824320.0
1405689221508941571,184,1405689221508941571,ardrone_base_link,42.0,2,0,0,0,0,0,0.0,0.0,0.0,-0.42199999094,1.14400005341,8.14099979401,0,0.0,-0.0,-0.0,-0.0156144797802,-0.0308043584228,0.987421393394,0,0,0,0,0,782829376.0
1405689221514114204,185,1405689221514114204,ardrone_base_link,42.0,2,0,0,0,0,0,0.0,0.0,0.0,-0.42199999094,1.14300000668,8.14099979401,0,0.0,-0.0,-0.0,-0.0154421813786,-0.0308346673846,0.987412571907,0,0,0,0,0,782834240.0
1405689221518711424,186,1405689221518711424,ardrone_base_link,42.0,2,0,0,0,0,0,0.0,0.0,0.0,-0.423000007868,1.14199995995,8.14099979401,0,0.0,-0.0,-0.0,-0.0154365394264,-0.0309217870235,0.989819347858,0,0,0,0,0,782839232.0
1405689221523585450,187,1405689221523585450,ardrone_base_link,42.0,2,0,0,0,0,0,0.0,0.0,0.0,-0.423000007868,1.14100003242,8.14099979401,0,0.0,-0.0,-0.0,-0.0154269291088,-0.0309831816703,0.992139160633,0,0,0,0,0,782844224.0
1405689221529070336,188,1405689221529070336,ardrone_base_link,42.0,2,0,0,0,0,0,0.0,0.0,0.0,-0.42199999094,1.14199995995,8.14099979401,0,0.0,-0.0,-0.0,-0.0178951621056,-0.0309637542814,0.991606473923,0,0,0,0,0,782849216.0
1405689221535364469,189,1405689221535364469,ardrone_base_link,42.0,2,0,0,0,0,0,0.0,0.0,0.0,-0.421000003815,1.14300000668,8.14099979401,0,0.0,-0.0,-0.0,-0.0202827490866,-0.0309293307364,0.991354227066,0,0,0,0,0,782855488.0
1405689221538674803,190,1405689221538674803,ardrone_base_link,42.0,2,0,0,0,0,0,0.0,0.0,0.0,-0.421000003815,1.14300000668,8.14000034332,0,0.0,-0.0,-0.0,-0.019732164219,-0.0309455338866,0.993895769119,0,0,0,0,0,782859200.0
1405689221544101333,191,1405689221544101333,ardrone_base_link,42.0,2,0,0,0,0,0,0.0,0.0,0.0,-0.42199999094,1.14499998093,8.14000034332,0,0.0,-0.0,-0.0,-0.0193893555552,-0.0309891644865,0.996181368828,0,0,0,0,0,782864256.0
1405689221553914505,192,1405689221553914505,ardrone_base_link,42.0,2,0,0,0,0,0,0.0,0.0,0.0,-0.42199999094,1.14499998093,8.13899993896,0,0.0,-0.0,-0.0,-0.0195211786777,-0.0309857837856,0.995605945587,0,0,0,0,0,782869696.0
1405689221555293769,193,1405689221555293769,ardrone_base_link,42.0,2,0,0,0,0,0,0.0,0.0,0.0,-0.42199999094,1.14600002766,8.13899993896,0,0.0,-0.0,-0.0,-0.0193890128285,-0.0309898108244,0.995279550552,0,0,0,0,0,782874432.0
1405689221558610202,194,1405689221558610202,ardrone_base_link,42.0,2,0,0,0,0,0,0.0,0.0,0.0,-0.421000003815,1.14600002766,8.13899993896,0,0.0,-0.0,-0.0,-0.0192208159715,-0.0286953244358,0.995570540428,0,0,0,0,0,782879232.0
1405689221564625619,195,1405689221564625619,ardrone_base_link,42.0,2,0,0,0,0,0,0.0,0.0,0.0,-0.419999986887,1.14600002766,8.13799953461,0,0.0,-0.0,-0.0,-0.0191128477454,-0.0287302527577,0.99552077055,0,0,0,0,0,782884224.0
1405689221569158918,196,1405689221569158918,ardrone_base_link,42.0,2,0,0,0,0,0,0.0,0.0,0.0,-0.419999986887,1.14600002766,8.13799953461,0,0.0,-0.0,-0.0,-0.0191465131938,-0.0315345451236,0.995396971703,0,0,0,0,0,782889216.0
1405689221573965131,197,1405689221573965131,ardrone_base_link,42.0,2,0,0,0,0,0,0.0,0.0,0.0,-0.419999986887,1.14699995518,8.13700008392,0,0.0,-0.0,-0.0,-0.0191755276173,-0.0289145577699,0.993112802505,0,0,0,0,0,782894208.0
1405689221578909749,198,1405689221578909749,ardrone_base_link,42.0,2,0,0,0,0,0,0.0,0.0,0.0,-0.419999986887,1.14699995518,8.13700008392,0,0.0,-0.0,-0.0,-0.0191571004689,-0.026249030605,0.993305444717,0,0,0,0,0,782899200.0
1405689221584180349,199,1405689221584180349,ardrone_base_link,42.0,2,0,0,0,0,0,0.0,0.0,0.0,-0.421000003815,1.14800000191,8.13700008392,0,0.0,-0.0,-0.0,-0.0192344039679,-0.0270698033273,0.993801295757,0,0,0,0,0,782904256.0
1405689221589268506,200,1405689221589268506,ardrone_base_link,42.0,2,0,0,0,0,0,0.0,0.0,0.0,-0.42199999094,1.14900004864,8.13700008392,0,0.0,-0.0,-0.0,-0.0193963106722,-0.0272385608405,0.991169929504,0,0,0,0,0,782909184.0
1405689221593795813,201,1405689221593795813,ardrone_base_link,42.0,2,0,0,0,0,0,0.0,0.0,0.0,-0.423999994993,1.14800000191,8.13599967957,0,0.0,-0.0,-0.0,-0.0194707904011,-0.0293422266841,0.991185545921,0,0,0,0,0,782914176.0
1405689221607323777,202,1405689221607323777,ardrone_base_link,42.0,2,0,0,0,0,0,0.0,0.0,0.0,-0.425000011921,1.14699995518,8.13599967957,0,0.0,-0.0,-0.0,-0.0195028670132,-0.0314964056015,0.991599857807,0,0,0,0,0,782919296.0
1405689221610083470,203,1405689221610083470,ardrone_base_link,42.0,2,0,0,0,0,0,0.0,0.0,0.0,-0.423999994993,1.14699995518,8.13500022888,0,0.0,-0.0,-0.0,-0.01943539083,-0.0284899659455,0.991509258747,0,0,0,0,0,782924224.0
1405689221610697317,204,1405689221610697317,ardrone_base_link,42.0,2,0,0,0,0,0,0.0,0.0,0.0,-0.423000007868,1.14699995518,8.13399982452,0,0.0,-0.0,-0.0,-0.0193921942264,-0.0258529521525,0.991698503494,0,0,0,0,0,782930048.0
1405689221619963908,205,1405689221619963908,ardrone_base_link,42.0,2,0,0,0,0,0,0.0,0.0,0.0,-0.42199999094,1.14699995518,8.13300037384,0,0.0,-0.0,-0.0,-0.0217632260174,-0.026553561911,0.991676688194,0,0,0,0,0,782934208.0
1405689221619996844,206,1405689221619996844,ardrone_base_link,42.0,2,0,0,0,0,0,0.0,0.0,0.0,-0.421000003815,1.14800000191,8.13300037384,0,0.0,-0.0,-0.0,-0.024074755609,-0.0269160754979,0.991750895977,0,0,0,0,0,782939264.0
1405689221623870960,207,1405689221623870960,ardrone_base_link,42.0,2,0,0,0,0,0,0.0,0.0,0.0,-0.421000003815,1.14900004864,8.13300037384,0,0.0,-0.0,-0.0,-0.0235880836844,-0.0292280577123,0.991624712944,0,0,0,0,0,782944256.0
1405689221630543960,208,1405689221630543960,ardrone_base_link,42.0,2,0,0,0,0,0,0.0,0.0,0.0,-0.421000003815,1.14999997616,8.13300037384,0,0.0,-0.0,-0.0,-0.0234133303165,-0.0316513180733,0.989119052887,0,0,0,0,0,782949184.0
1405689221634737251,209,1405689221634737251,ardrone_base_link,42.0,2,0,0,0,0,0,0.0,0.0,0.0,-0.421000003815,1.15100002289,8.13199996948,0,0.0,-0.0,-0.0,-0.0212797615677,-0.031208416447,0.986769974232,0,0,0,0,0,782954176.0
1405689221639485056,210,1405689221639485056,ardrone_base_link,42.0,2,0,0,0,0,0,0.0,0.0,0.0,-0.421000003815,1.15199995041,8.13099956512,0,0.0,-0.0,-0.0,-0.0188651308417,-0.0310467164963,0.98731559515,0,0,0,0,0,782959232.0
1405689221644606075,211,1405689221644606075,ardrone_base_link,42.0,2,0,0,0,0,0,0.0,0.0,0.0,-0.421000003815,1.15199995041,8.13099956512,0,0.0,-0.0,-0.0,-0.0193323362619,-0.0312377046794,0.987629354,0,0,0,0,0,782964224.0
1405689221649354410,212,1405689221649354410,ardrone_base_link,42.0,2,0,0,0,0,0,0.0,0.0,0.0,-0.42199999094,1.15299999714,8.13099956512,0,0.0,-0.0,-0.0,-0.0195235200226,-0.0311423111707,0.987468421459,0,0,0,0,0,782969216.0
1405689221656907154,213,1405689221656907154,ardrone_base_link,42.0,2,0,0,0,0,0,0.0,0.0,0.0,-0.42199999094,1.15299999714,8.13000011444,0,0.0,-0.0,-0.0,-0.0193069726229,-0.0310450587422,0.987508058548,0,0,0,0,0,782974208.0
1405689221660930287,214,1405689221660930287,ardrone_base_link,42.0,2,0,0,0,0,0,0.0,0.0,0.0,-0.423000007868,1.15299999714,8.12899971008,0,0.0,-0.0,-0.0,-0.019323123619,-0.0309013966471,0.98750025034,0,0,0,0,0,782980480.0
1405689221687266206,215,1405689221687266206,ardrone_base_link,42.0,2,0,0,0,0,0,0.0,0.0,0.0,-0.423000007868,1.15299999714,8.1280002594,0,0.0,-0.0,-0.0,-0.0193349998444,-0.0307984091341,0.987517118454,0,0,0,0,0,782984192.0
1405689221687829865,216,1405689221687829865,ardrone_base_link,42.0,2,0,0,0,0,0,0.0,0.0,0.0,-0.423000007868,1.15299999714,8.12699985504,0,0.0,-0.0,-0.0,-0.0194274652749,-0.0306903272867,0.987503170967,0,0,0,0,0,782989248.0
1405689221689701828,217,1405689221689701828,ardrone_base_link,42.0,2,0,0,0,0,0,0.0,0.0,0.0,-0.42199999094,1.15299999714,8.12600040436,0,0.0,-0.0,-0.0,-0.0195146817714,-0.0306096430868,0.987506568432,0,0,0,0,0,782994176.0
1405689221689888825,218,1405689221689888825,ardrone_base_link,42.0,2,0,0,0,0,0,0.0,0.0,0.0,-0.423000007868,1.15499997139,8.125,0,0.0,-0.0,-0.0,-0.0196247976273,-0.030586566776,0.987510025501,0,0,0,0,0,782999808.0
1405689221689979508,219,1405689221689979508,ardrone_base_link,42.0,2,0,0,0,0,0,0.0,0.0,0.0,-0.42199999094,1.15600001812,8.12399959564,0,0.0,-0.0,-0.0,-0.0197088923305,-0.0306196976453,0.987506568432,0,0,0,0,0,783004736.0
1405689221690039648,220,1405689221690039648,ardrone_base_link,42.0,2,0,0,0,0,0,0.0,0.0,0.0,-0.423000007868,1.15600001812,8.12300014496,0,0.0,-0.0,-0.0,-0.0197259262204,-0.0307010896504,0.987507820129,0,0,0,0,0,783009216.0
1405689221694087375,221,1405689221694087375,ardrone_base_link,42.0,2,0,0,0,0,0,0.0,0.0,0.0,-0.423000007868,1.15600001812,8.1219997406,0,0.0,-0.0,-0.0,-0.0195919051766,-0.0308580044657,0.989896714687,0,0,0,0,0,783014208.0
1405689221699452234,222,1405689221699452234,ardrone_base_link,42.0,2,0,0,0,0,0,0.0,0.0,0.0,-0.423000007868,1.15499997139,8.12100028992,0,0.0,-0.0,-0.0,-0.0194188803434,-0.0309869553894,0.992231190205,0,0,0,0,0,783019264.0
1405689221706864440,223,1405689221706864440,ardrone_base_link,42.0,2,0,0,0,0,0,0.0,0.0,0.0,-0.423000007868,1.15400004387,8.11999988556,0,0.0,-0.0,-0.0,-0.0193676687777,-0.0309972595423,0.991641819477,0,0,0,0,0,783024192.0
1405689221709399554,224,1405689221709399554,ardrone_base_link,42.0,2,0,0,0,0,0,0.0,0.0,0.0,-0.423000007868,1.15299999714,8.11900043488,0,0.0,-0.0,-0.0,-0.0193703267723,-0.0309843923897,0.991334974766,0,0,0,0,0,783029248.0
1405689221714655169,225,1405689221714655169,ardrone_base_link,42.0,2,0,0,0,0,0,0.0,0.0,0.0,-0.423999994993,1.15299999714,8.11900043488,0,0.0,-0.0,-0.0,-0.0194278992712,-0.0309679880738,0.991504609585,0,0,0,0,0,783034240.0
1405689221748562045,226,1405689221748562045,ardrone_base_link,42.0,2,0,0,0,0,0,0.0,0.0,0.0,-0.423999994993,1.15199995041,8.11900043488,0,0.0,-0.0,-0.0,-0.0195332355797,-0.0309371128678,0.991460204124,0,0,0,0,0,783039424.0
1405689221749780481,227,1405689221749780481,ardrone_base_link,42.0,2,0,0,0,0,0,0.0,0.0,0.0,-0.425000011921,1.15199995041,8.11900043488,0,0.0,-0.0,-0.0,-0.0196851026267,-0.0331978984177,0.991363286972,0,0,0,0,0,783044800.0
1405689221751858202,228,1405689221751858202,ardrone_base_link,42.0,2,0,0,0,0,0,0.0,0.0,0.0,-0.425000011921,1.15100002289,8.11800003052,0,0.0,-0.0,-0.0,-0.0174431465566,-0.0330751948059,0.991295099258,0,0,0,0,0,783049408.0
1405689221753096638,229,1405689221753096638,ardrone_base_link,42.0,2,0,0,0,0,0,0.0,0.0,0.0,-0.423999994993,1.14999997616,8.11699962616,0,0.0,-0.0,-0.0,-0.0151389073581,-0.0302029810846,0.991388380527,0,0,0,0,0,783054208.0
1405689221754454728,230,1405689221754454728,ardrone_base_link,42.0,2,0,0,0,0,0,0.0,0.0,0.0,-0.423999994993,1.14999997616,8.11699962616,0,0.0,-0.0,-0.0,-0.0156832337379,-0.0304753277451,0.991385936737,0,0,0,0,0,783059200.0
1405689221755704145,231,1405689221755704145,ardrone_base_link,42.0,2,0,0,0,0,0,0.0,0.0,0.0,-0.423000007868,1.15100002289,8.11600017548,0,0.0,-0.0,-0.0,-0.0159236770123,-0.0309630893171,0.991367638111,0,0,0,0,0,783064512.0
1405689221757142115,232,1405689221757142115,ardrone_base_link,42.0,2,0,0,0,0,0,0.0,0.0,0.0,-0.42199999094,1.15100002289,8.11600017548,0,0.0,-0.0,-0.0,-0.0156532749534,-0.0308098252863,0.991377353668,0,0,0,0,0,783069696.0
1405689221758465920,233,1405689221758465920,ardrone_base_link,42.0,2,0,0,0,0,0,0.0,0.0,0.0,-0.423000007868,1.15100002289,8.11499977112,0,0.0,-0.0,-0.0,-0.0155654652044,-0.0309289563447,0.991374909878,0,0,0,0,0,783074176.0
1405689221759973834,234,1405689221759973834,ardrone_base_link,42.0,2,0,0,0,0,0,0.0,0.0,0.0,-0.423000007868,1.15100002289,8.11499977112,0,0.0,-0.0,-0.0,-0.0177149735391,-0.0309895221144,0.991428136826,0,0,0,0,0,783079168.0
1405689221764456575,235,1405689221764456575,ardrone_base_link,42.0,2,0,0,0,0,0,0.0,0.0,0.0,-0.423000007868,1.15100002289,8.11499977112,0,0.0,-0.0,-0.0,-0.0176527295262,-0.0309805311263,0.989037513733,0,0,0,0,0,783084160.0
1405689221798608385,236,1405689221798608385,ardrone_base_link,42.0,2,0,0,0,0,0,0.0,0.0,0.0,-0.423000007868,1.14999997616,8.11499977112,0,0.0,-0.0,-0.0,-0.0148508921266,-0.0308432560414,0.986638188362,0,0,0,0,0,783089600.0
1405689221799317473,237,1405689221799317473,ardrone_base_link,42.0,2,0,0,0,0,0,0.0,0.0,0.0,-0.423000007868,1.14900004864,8.11499977112,0,0.0,-0.0,-0.0,-0.0151193952188,-0.0308027602732,0.987233877182,0,0,0,0,0,783094208.0
1405689221799398472,238,1405689221799398472,ardrone_base_link,42.0,2,0,0,0,0,0,0.0,0.0,0.0,-0.423000007868,1.14800000191,8.11499977112,0,0.0,-0.0,-0.0,-0.0155650284141,-0.0308135710657,0.989939689636,0,0,0,0,0,783099456.0
1405689221800283921,239,1405689221800283921,ardrone_base_link,42.0,2,0,0,0,0,0,0.0,0.0,0.0,-0.423000007868,1.14800000191,8.11400032043,0,0.0,-0.0,-0.0,-0.0154025070369,-0.0307970494032,0.992101073265,0,0,0,0,0,783105408.0
1405689221803082443,240,1405689221803082443,ardrone_base_link,42.0,2,0,0,0,0,0,0.0,0.0,0.0,-0.423000007868,1.14800000191,8.11400032043,0,0.0,-0.0,-0.0,-0.0156154101714,-0.030739961192,0.991556882858,0,0,0,0,0,783109248.0
1405689221803212606,241,1405689221803212606,ardrone_base_link,42.0,2,0,0,0,0,0,0.0,0.0,0.0,-0.423000007868,1.14800000191,8.11400032043,0,0.0,-0.0,-0.0,-0.0157213397324,-0.0307152308524,0.991239011288,0,0,0,0,0,783114176.0
1405689221803971518,242,1405689221803971518,ardrone_base_link,42.0,2,0,0,0,0,0,0.0,0.0,0.0,-0.423999994993,1.14699995518,8.11299991608,0,0.0,-0.0,-0.0,-0.0158179067075,-0.0307267773896,0.991427958012,0,0,0,0,0,783119744.0
1405689221804343325,243,1405689221804343325,ardrone_base_link,42.0,2,0,0,0,0,0,0.0,0.0,0.0,-0.423999994993,1.14600002766,8.11200046539,0,0.0,-0.0,-0.0,-0.015812812373,-0.0307479519397,0.99136865139,0,0,0,0,0,783124160.0
1405689221808895828,244,1405689221808895828,ardrone_base_link,42.0,2,0,0,0,0,0,0.0,0.0,0.0,-0.423999994993,1.14499998093,8.11200046539,0,0.0,-0.0,-0.0,-0.0157705321908,-0.0307799633592,0.991381824017,0,0,0,0,0,783129152.0
1405689221814073618,245,1405689221814073618,ardrone_base_link,42.0,2,0,0,0,0,0,0.0,0.0,0.0,-0.423999994993,1.14499998093,8.11100006104,0,0.0,-0.0,-0.0,-0.0157204866409,-0.030812734738,0.991367399693,0,0,0,0,0,783134144.0
1405689221818775167,246,1405689221818775167,ardrone_base_link,42.0,2,0,0,0,0,0,0.0,0.0,0.0,-0.423999994993,1.14600002766,8.11100006104,0,0.0,-0.0,-0.0,-0.0156678892672,-0.0308414660394,0.99137789011,0,0,0,0,0,783139136.0
1405689221830587766,247,1405689221830587766,ardrone_base_link,42.0,2,0,0,0,0,0,0.0,0.0,0.0,-0.423999994993,1.14699995518,8.10999965668,0,0.0,-0.0,-0.0,-0.0156336482614,-0.030861414969,0.991376399994,0,0,0,0,0,783144640.0
1405689221832545580,248,1405689221832545580,ardrone_base_link,42.0,2,0,0,0,0,0,0.0,0.0,0.0,-0.423999994993,1.14600002766,8.10999965668,0,0.0,-0.0,-0.0,-0.0155900651589,-0.0308715831488,0.991373002529,0,0,0,0,0,783149376.0
1405689221834593912,249,1405689221834593912,ardrone_base_link,42.0,2,0,0,0,0,0,0.0,0.0,0.0,-0.423000007868,1.14600002766,8.10999965668,0,0.0,-0.0,-0.0,-0.0177365727723,-0.0309690050781,0.99381762743,0,0,0,0,0,783154176.0
1405689221838998687,250,1405689221838998687,ardrone_base_link,42.0,2,0,0,0,0,0,0.0,0.0,0.0,-0.423000007868,1.14499998093,8.10900020599,0,0.0,-0.0,-0.0,-0.0175319723785,-0.0310299694538,0.996149659157,0,0,0,0,0,783159168.0
1405689221844566325,251,1405689221844566325,ardrone_base_link,42.0,2,0,0,0,0,0,0.0,0.0,0.0,-0.42199999094,1.14400005341,8.10799980164,0,0.0,-0.0,-0.0,-0.017096914351,-0.0309436805546,0.993160426617,0,0,0,0,0,783164224.0
1405689221848759145,252,1405689221848759145,ardrone_base_link,42.0,2,0,0,0,0,0,0.0,0.0,0.0,-0.42199999094,1.14499998093,8.10799980164,0,0.0,-0.0,-0.0,-0.0196646098047,-0.0309855341911,0.992965102196,0,0,0,0,0,783169152.0
1405689221853905259,253,1405689221853905259,ardrone_base_link,42.0,2,0,0,0,0,0,0.0,0.0,0.0,-0.42199999094,1.14499998093,8.10700035095,0,0.0,-0.0,-0.0,-0.0195365920663,-0.0310990326107,0.99605691433,0,0,0,0,0,783174208.0
1405689221860504325,254,1405689221860504325,ardrone_base_link,42.0,2,0,0,0,0,0,0.0,0.0,0.0,-0.42199999094,1.14600002766,8.10799980164,0,0.0,-0.0,-0.0,-0.0191538836807,-0.0311145633459,0.995718002319,0,0,0,0,0,783179136.0
1405689221863975082,255,1405689221863975082,ardrone_base_link,42.0,2,0,0,0,0,0,0.0,0.0,0.0,-0.423999994993,1.14600002766,8.10700035095,0,0.0,-0.0,-0.0,-0.0195484403521,-0.0310496017337,0.992867946625,0,0,0,0,0,783184192.0
1405689221868764499,256,1405689221868764499,ardrone_base_link,42.0,2,0,0,0,0,0,0.0,0.0,0.0,-0.423999994993,1.14800000191,8.10700035095,0,0.0,-0.0,-0.0,-0.0195776242763,-0.0309634879231,0.990727305412,0,0,0,0,0,783189184.0
1405689221874081172,257,1405689221874081172,ardrone_base_link,42.0,2,0,0,0,0,0,0.0,0.0,0.0,-0.423999994993,1.14800000191,8.10599994659,0,0.0,-0.0,-0.0,-0.0195666123182,-0.0309137888253,0.991277813911,0,0,0,0,0,783194176.0
1405689221892868349,258,1405689221892868349,ardrone_base_link,42.0,2,0,0,0,0,0,0.0,0.0,0.0,-0.423999994993,1.14699995518,8.10499954224,0,0.0,-0.0,-0.0,-0.0171528663486,-0.0308031793684,0.991555929184,0,0,0,0,0,783199808.0
1405689221893437898,259,1405689221893437898,ardrone_base_link,42.0,2,0,0,0,0,0,0.0,0.0,0.0,-0.423999994993,1.14600002766,8.10499954224,0,0.0,-0.0,-0.0,-0.0148481009528,-0.0306853912771,0.991299331188,0,0,0,0,0,783204160.0
1405689221894105944,260,1405689221894105944,ardrone_base_link,42.0,2,0,0,0,0,0,0.0,0.0,0.0,-0.423000007868,1.14400005341,8.10400009155,0,0.0,-0.0,-0.0,-0.015364206396,-0.0306498669088,0.991376936436,0,0,0,0,0,783209344.0
1405689221894438428,261,1405689221894438428,ardrone_base_link,42.0,2,0,0,0,0,0,0.0,0.0,0.0,-0.423000007868,1.14400005341,8.10400009155,0,0.0,-0.0,-0.0,-0.015647366643,-0.0306629408151,0.99137377739,0,0,0,0,0,783214144.0
1405689221898764858,262,1405689221898764858,ardrone_base_link,42.0,2,0,0,0,0,0,0.0,0.0,0.0,-0.423000007868,1.14199995995,8.10400009155,0,0.0,-0.0,-0.0,-0.0155963357538,-0.0330194123089,0.991273462772,0,0,0,0,0,783219136.0
1405689221905400245,263,1405689221905400245,ardrone_base_link,42.0,2,0,0,0,0,0,0.0,0.0,0.0,-0.423000007868,1.14199995995,8.10400009155,0,0.0,-0.0,-0.0,-0.0157316923141,-0.0330584980547,0.991267800331,0,0,0,0,0,783224576.0
1405689221911220893,264,1405689221911220893,ardrone_base_link,42.0,2,0,0,0,0,0,0.0,0.0,0.0,-0.423999994993,1.14100003242,8.10400009155,0,0.0,-0.0,-0.0,-0.0157542619854,-0.0303375162184,0.991399884224,0,0,0,0,0,783230464.0
1405689221914062335,265,1405689221914062335,ardrone_base_link,42.0,2,0,0,0,0,0,0.0,0.0,0.0,-0.423999994993,1.14100003242,8.10299968719,0,0.0,-0.0,-0.0,-0.0158464182168,-0.0306756719947,0.991390824318,0,0,0,0,0,783234176.0
1405689221918553323,266,1405689221918553323,ardrone_base_link,42.0,2,0,0,0,0,0,0.0,0.0,0.0,-0.425000011921,1.13999998569,8.10200023651,0,0.0,-0.0,-0.0,-0.0158549714833,-0.0311517901719,0.991366386414,0,0,0,0,0,783239168.0
1405689221924100207,267,1405689221924100207,ardrone_base_link,42.0,2,0,0,0,0,0,0.0,0.0,0.0,-0.425999999046,1.13999998569,8.10099983215,0,0.0,-0.0,-0.0,-0.0158065799624,-0.0309076849371,0.99137711525,0,0,0,0,0,783244160.0
1405689221938028418,268,1405689221938028418,ardrone_base_link,42.0,2,0,0,0,0,0,0.0,0.0,0.0,-0.425000011921,1.13900005817,8.10099983215,0,0.0,-0.0,-0.0,-0.0157296732068,-0.0308815967292,0.991374433041,0,0,0,0,0,783249792.0
