%time,field.header.seq,field.header.stamp,field.header.frame_id,field.batteryPercent,field.state,field.magX,field.magY,field.magZ,field.pressure,field.temp,field.wind_speed,field.wind_angle,field.wind_comp_angle,field.rotX,field.rotY,field.rotZ,field.altd,field.vx,field.vy,field.vz,field.ax,field.ay,field.az,field.motor1,field.motor2,field.motor3,field.motor4,field.tags_count,field.tm
1405448103188778088,183,1405448103188778088,ardrone_base_link,79.0,2,0,0,0,0,0,0.0,0.0,0.0,0.270000010729,-2.67300009727,-7.40999984741,0,0.0,-0.0,-0.0,0.0151511011645,-0.0230348818004,1.00086796284,0,0,0,0,0,77606696.0
1405448103189668096,184,1405448103189668096,ardrone_base_link,79.0,2,0,0,0,0,0,0.0,0.0,0.0,0.268999993801,-2.67300009727,-7.40999984741,0,0.0,-0.0,-0.0,0.0157910939306,-0.0229427739978,1.00329935551,0,0,0,0,0,77611704.0
1405448103191046601,185,1405448103191046601,ardrone_base_link,79.0,2,0,0,0,0,0,0.0,0.0,0.0,0.270000010729,-2.67300009727,-7.41099977493,0,0.0,-0.0,-0.0,0.0155319049954,-0.0253650248051,1.0031453371,0,0,0,0,0,77616696.0
1405448103192522367,186,1405448103192522367,ardrone_base_link,79.0,2,0,0,0,0,0,0.0,0.0,0.0,0.270000010729,-2.67300009727,-7.41200017929,0,0.0,-0.0,-0.0,0.0154420984909,-0.0276557859033,1.00250375271,0,0,0,0,0,77621696.0
1405448103193674641,187,1405448103193674641,ardrone_base_link,79.0,2,0,0,0,0,0,0.0,0.0,0.0,0.268999993801,-2.67300009727,-7.41300010681,0,0.0,-0.0,-0.0,0.0153369596228,-0.0272287521511,1.00276792049,0,0,0,0,0,77626744.0
1405448103197763179,188,1405448103197763179,ardrone_base_link,79.0,2,0,0,0,0,0,0.0,0.0,0.0,0.270000010729,-2.6740000248,-7.41400003433,0,0.0,-0.0,-0.0,0.0152895124629,-0.0270245242864,1.00269949436,0,0,0,0,0,77631672.0
1405448103200354017,189,1405448103200354017,ardrone_base_link,79.0,2,0,0,0,0,0,0.0,0.0,0.0,0.268999993801,-2.6740000248,-7.41499996185,0,0.0,-0.0,-0.0,0.0151396840811,-0.02722325176,1.00034701824,0,0,0,0,0,77637008.0
1405448103201524624,190,1405448103201524624,ardrone_base_link,79.0,2,0,0,0,0,0,0.0,0.0,0.0,0.268000006676,-2.6740000248,-7.41599988937,0,0.0,-0.0,-0.0,0.0150404777378,-0.0271909683943,0.997982263565,0,0,0,0,0,77641672.0
1405448103243606150,191,1405448103243606150,ardrone_base_link,79.0,2,0,0,0,0,0,0.0,0.0,0.0,0.266999989748,-2.67300009727,-7.41699981689,0,0.0,-0.0,-0.0,0.0151283824816,-0.0249284729362,0.998687803745,0,0,0,0,0,77646648.0
1405448103400629711,192,1405448103400629711,ardrone_base_link,79.0,2,0,0,0,0,0,0.0,0.0,0.0,0.270000010729,-2.67300009727,-7.42399978638,0,0.0,-0.0,-0.0,0.0171160288155,-0.0223859380931,0.997263789177,0,0,0,0,0,77681592.0
1405448103401690961,193,1405448103401690961,ardrone_base_link,79.0,2,0,0,0,0,0,0.0,0.0,0.0,0.270000010729,-2.6740000248,-7.42500019073,0,0.0,-0.0,-0.0,0.0174815077335,-0.0249875430018,0.996647596359,0,0,0,0,0,77686648.0
1405448103407927405,194,1405448103407927405,ardrone_base_link,79.0,2,0,0,0,0,0,0.0,0.0,0.0,0.268999993801,-2.6740000248,-7.42600011826,0,0.0,-0.0,-0.0,0.0171429049224,-0.0277962833643,0.996740818024,0,0,0,0,0,77691624.0
1405448103409250626,195,1405448103409250626,ardrone_base_link,79.0,2,0,0,0,0,0,0.0,0.0,0.0,0.270000010729,-2.67600011826,-7.42700004578,0,0.0,-0.0,-0.0,0.0170994736254,-0.0270284228027,0.996736228466,0,0,0,0,0,77697944.0
1405448103410604123,196,1405448103410604123,ardrone_base_link,79.0,2,0,0,0,0,0,0.0,0.0,0.0,0.268999993801,-2.67499995232,-7.42700004578,0,0.0,-0.0,-0.0,0.0147830937058,-0.0268638171256,0.999190568924,0,0,0,0,0,77701608.0
1405448103411794556,197,1405448103411794556,ardrone_base_link,79.0,2,0,0,0,0,0,0.0,0.0,0.0,0.268000006676,-2.67499995232,-7.4279999733,0,0.0,-0.0,-0.0,0.0124336080626,-0.0270060114563,0.99917858839,0,0,0,0,0,77706584.0
1405448103413065438,198,1405448103413065438,ardrone_base_link,79.0,2,0,0,0,0,0,0.0,0.0,0.0,0.266999989748,-2.6740000248,-7.42899990082,0,0.0,-0.0,-0.0,0.010622240603,-0.026954786852,0.998674929142,0,0,0,0,0,77711592.0
1405448103414319524,199,1405448103414319524,ardrone_base_link,79.0,2,0,0,0,0,0,0.0,0.0,0.0,0.266000002623,-2.67300009727,-7.42999982834,0,0.0,-0.0,-0.0,0.0109327631071,-0.026894018054,0.998919546604,0,0,0,0,0,77716552.0
1405448103415646220,200,1405448103415646220,ardrone_base_link,79.0,2,0,0,0,0,0,0.0,0.0,0.0,0.266000002623,-2.6740000248,-7.4310002327,0,0.0,-0.0,-0.0,0.0113343810663,-0.0268029309809,0.998823523521,0,0,0,0,0,77721560.0
1405448103571167570,201,1405448103571167570,ardrone_base_link,79.0,2,0,0,0,0,0,0.0,0.0,0.0,0.261999994516,-2.67300009727,-7.44299983978,0,0.0,-0.0,-0.0,0.0189358592033,-0.0264043081552,0.994534730911,0,0,0,0,0,77791456.0
1405448103575291111,202,1405448103575291111,ardrone_base_link,79.0,2,0,0,0,0,0,0.0,0.0,0.0,0.261999994516,-2.67499995232,-7.4439997673,0,0.0,-0.0,-0.0,0.0214505884796,-0.0240837745368,0.994910001755,0,0,0,0,0,77796448.0
1405448103621328482,203,1405448103621328482,ardrone_base_link,79.0,2,0,0,0,0,0,0.0,0.0,0.0,0.261999994516,-2.67700004578,-7.44500017166,0,0.0,-0.0,-0.0,0.0235321000218,-0.0240862369537,0.992284715176,0,0,0,0,0,77801440.0
1405448103622508204,204,1405448103622508204,ardrone_base_link,79.0,2,0,0,0,0,0,0.0,0.0,0.0,0.261999994516,-2.67700004578,-7.44600009918,0,0.0,-0.0,-0.0,0.0205192156136,-0.0270286239684,0.992320120335,0,0,0,0,0,77806384.0
1405448103623824325,205,1405448103623824325,ardrone_base_link,79.0,2,0,0,0,0,0,0.0,0.0,0.0,0.259999990463,-2.6779999733,-7.4470000267,0,0.0,-0.0,-0.0,0.0179545860738,-0.0269750915468,0.995309650898,0,0,0,0,0,77811376.0
1405448103625142913,206,1405448103625142913,ardrone_base_link,79.0,2,0,0,0,0,0,0.0,0.0,0.0,0.261000007391,-2.6779999733,-7.44799995422,0,0.0,-0.0,-0.0,0.0186097156256,-0.026590814814,0.995045959949,0,0,0,0,0,77816392.0
1405448103626409608,207,1405448103626409608,ardrone_base_link,79.0,2,0,0,0,0,0,0.0,0.0,0.0,0.259999990463,-2.68000006676,-7.44899988174,0,0.0,-0.0,-0.0,0.0210984256119,-0.0268066190183,0.994488596916,0,0,0,0,0,77822656.0
1405448103627704574,208,1405448103627704574,ardrone_base_link,79.0,2,0,0,0,0,0,0.0,0.0,0.0,0.259000003338,-2.68099999428,-7.44999980927,0,0.0,-0.0,-0.0,0.0232231393456,-0.026753988117,0.994659483433,0,0,0,0,0,77826400.0
1405448103628960701,209,1405448103628960701,ardrone_base_link,79.0,2,0,0,0,0,0,0.0,0.0,0.0,0.259999990463,-2.6819999218,-7.45100021362,0,0.0,-0.0,-0.0,0.0227158665657,-0.024420298636,0.992338120937,0,0,0,0,0,77831376.0
1405448103630349178,210,1405448103630349178,ardrone_base_link,79.0,2,0,0,0,0,0,0.0,0.0,0.0,0.259000003338,-2.68300008774,-7.45200014114,0,0.0,-0.0,-0.0,0.0202564354986,-0.022162668407,0.992581307888,0,0,0,0,0,77836384.0
1405448103631562618,211,1405448103631562618,ardrone_base_link,79.0,2,0,0,0,0,0,0.0,0.0,0.0,0.259999990463,-2.68400001526,-7.45300006866,0,0.0,-0.0,-0.0,0.0183749012649,-0.025188036263,0.997777402401,0,0,0,0,0,77841376.0
1405448103789454367,212,1405448103789454367,ardrone_base_link,79.0,2,0,0,0,0,0,0.0,0.0,0.0,0.259999990463,-2.68899989128,-7.46400022507,0,0.0,-0.0,-0.0,0.0149308191612,-0.0229716040194,0.999847650528,0,0,0,0,0,77901616.0
1405448103790357055,213,1405448103790357055,ardrone_base_link,79.0,2,0,0,0,0,0,0.0,0.0,0.0,0.261000007391,-2.68899989128,-7.46500015259,0,0.0,-0.0,-0.0,0.0153554277495,-0.0206492468715,0.999189257622,0,0,0,0,0,77906256.0
1405448103791666786,214,1405448103791666786,ardrone_base_link,79.0,2,0,0,0,0,0,0.0,0.0,0.0,0.263000011444,-2.69000005722,-7.46600008011,0,0.0,-0.0,-0.0,0.015842275694,-0.0207047350705,0.998914599419,0,0,0,0,0,77911224.0
1405448103792874706,215,1405448103792874706,ardrone_base_link,79.0,2,0,0,0,0,0,0.0,0.0,0.0,0.263000011444,-2.69000005722,-7.46700000763,0,0.0,-0.0,-0.0,0.0155491456389,-0.0235684961081,0.998946845531,0,0,0,0,0,77916272.0
1405448103794136952,216,1405448103794136952,ardrone_base_link,79.0,2,0,0,0,0,0,0.0,0.0,0.0,0.263999998569,-2.69099998474,-7.46799993515,0,0.0,-0.0,-0.0,0.0155044086277,-0.0233701653779,0.998932719231,0,0,0,0,0,77921320.0
1405448103797583292,217,1405448103797583292,ardrone_base_link,79.0,2,0,0,0,0,0,0.0,0.0,0.0,0.263999998569,-2.69099998474,-7.46899986267,0,0.0,-0.0,-0.0,0.0152454506606,-0.0229366794229,0.99656188488,0,0,0,0,0,77926200.0
1405448103798734849,218,1405448103798734849,ardrone_base_link,79.0,2,0,0,0,0,0,0.0,0.0,0.0,0.263000011444,-2.69099998474,-7.46999979019,0,0.0,-0.0,-0.0,0.0150350183249,-0.0231538061053,0.99420106411,0,0,0,0,0,77931240.0
1405448103802176687,219,1405448103802176687,ardrone_base_link,79.0,2,0,0,0,0,0,0.0,0.0,0.0,0.261999994516,-2.69099998474,-7.47100019455,0,0.0,-0.0,-0.0,0.0172336921096,-0.0231202635914,0.994758665562,0,0,0,0,0,77936208.0
1405448103803248491,220,1405448103803248491,ardrone_base_link,79.0,2,0,0,0,0,0,0.0,0.0,0.0,0.261999994516,-2.69199991226,-7.47200012207,0,0.0,-0.0,-0.0,0.0194529481232,-0.0230931341648,0.995005905628,0,0,0,0,0,77941272.0
1405448103804401447,221,1405448103804401447,ardrone_base_link,79.0,2,0,0,0,0,0,0.0,0.0,0.0,0.261999994516,-2.69400000572,-7.47300004959,0,0.0,-0.0,-0.0,0.018921431154,-0.0229691118002,0.994848191738,0,0,0,0,0,77947392.0
1405448103806307998,222,1405448103806307998,ardrone_base_link,79.0,2,0,0,0,0,0,0.0,0.0,0.0,0.263000011444,-2.69499993324,-7.47399997711,0,0.0,-0.0,-0.0,0.0187027193606,-0.0228615757078,0.994902431965,0,0,0,0,0,77951248.0
1405448103813745220,223,1405448103813745220,ardrone_base_link,79.0,2,0,0,0,0,0,0.0,0.0,0.0,0.263000011444,-2.69600009918,-7.47499990463,0,0.0,-0.0,-0.0,0.0189525466412,-0.0227429121733,0.99488723278,0,0,0,0,0,77956608.0
1405448103814840226,224,1405448103814840226,ardrone_base_link,79.0,2,0,0,0,0,0,0.0,0.0,0.0,0.263999998569,-2.6970000267,-7.47599983215,0,0.0,-0.0,-0.0,0.0188829526305,-0.0226086303592,0.992517113686,0,0,0,0,0,77961584.0
1405448103816235667,225,1405448103816235667,ardrone_base_link,79.0,2,0,0,0,0,0,0.0,0.0,0.0,0.263999998569,-2.69799995422,-7.47700023651,0,0.0,-0.0,-0.0,0.0189131665975,-0.0226264894009,0.992557346821,0,0,0,0,0,77966512.0
1405448103817333545,226,1405448103817333545,ardrone_base_link,79.0,2,0,0,0,0,0,0.0,0.0,0.0,0.263999998569,-2.69799995422,-7.47800016403,0,0.0,-0.0,-0.0,0.016692943871,-0.022808900103,0.99553757906,0,0,0,0,0,77971160.0
1405448103818695732,227,1405448103818695732,ardrone_base_link,79.0,2,0,0,0,0,0,0.0,0.0,0.0,0.263999998569,-2.69799995422,-7.47900009155,0,0.0,-0.0,-0.0,0.0144291613251,-0.0229280795902,0.995310306549,0,0,0,0,0,77976136.0
1405448103820012593,228,1405448103820012593,ardrone_base_link,79.0,2,0,0,0,0,0,0.0,0.0,0.0,0.264999985695,-2.6970000267,-7.48000001907,0,0.0,-0.0,-0.0,0.0149673921987,-0.0229982472956,0.994816660881,0,0,0,0,0,77981160.0
1405448103821112761,229,1405448103821112761,ardrone_base_link,79.0,2,0,0,0,0,0,0.0,0.0,0.0,0.264999985695,-2.69600009918,-7.48099994659,0,0.0,-0.0,-0.0,0.0152818979695,-0.0230625960976,0.995025157928,0,0,0,0,0,77986144.0
1405448103822817427,230,1405448103822817427,ardrone_base_link,79.0,2,0,0,0,0,0,0.0,0.0,0.0,0.264999985695,-2.69600009918,-7.48199987411,0,0.0,-0.0,-0.0,0.0151659147814,-0.0230925753713,0.994974851608,0,0,0,0,0,77991112.0
1405448103823908671,231,1405448103823908671,ardrone_base_link,79.0,2,0,0,0,0,0,0.0,0.0,0.0,0.266000002623,-2.69499993324,-7.48299980164,0,0.0,-0.0,-0.0,0.0152833778411,-0.0230925828218,0.995001554489,0,0,0,0,0,77996104.0
1405448103825112772,232,1405448103825112772,ardrone_base_link,79.0,2,0,0,0,0,0,0.0,0.0,0.0,0.264999985695,-2.69600009918,-7.48400020599,0,0.0,-0.0,-0.0,0.0153590478003,-0.0230686794966,0.994969546795,0,0,0,0,0,78001112.0
1405448103826680324,233,1405448103826680324,ardrone_base_link,79.0,2,0,0,0,0,0,0.0,0.0,0.0,0.266000002623,-2.69600009918,-7.48500013351,0,0.0,-0.0,-0.0,0.0154423480853,-0.0230299662799,0.994986116886,0,0,0,0,0,78006096.0
1405448103827714013,234,1405448103827714013,ardrone_base_link,79.0,2,0,0,0,0,0,0.0,0.0,0.0,0.264999985695,-2.69499993324,-7.48600006104,0,0.0,-0.0,-0.0,0.0154394935817,-0.0229809302837,0.994987905025,0,0,0,0,0,78011096.0
1405448103829077358,235,1405448103829077358,ardrone_base_link,79.0,2,0,0,0,0,0,0.0,0.0,0.0,0.264999985695,-2.69499993324,-7.48699998856,0,0.0,-0.0,-0.0,0.0176887437701,-0.0228974390775,0.994927585125,0,0,0,0,0,78016120.0
1405448103830555016,236,1405448103830555016,ardrone_base_link,79.0,2,0,0,0,0,0,0.0,0.0,0.0,0.264999985695,-2.69499993324,-7.48799991608,0,0.0,-0.0,-0.0,0.0198475588113,-0.0228184144944,0.994880497456,0,0,0,0,0,78021096.0
1405448103831627320,237,1405448103831627320,ardrone_base_link,79.0,2,0,0,0,0,0,0.0,0.0,0.0,0.263999998569,-2.69600009918,-7.48799991608,0,0.0,-0.0,-0.0,0.0190996751189,-0.0227195266634,0.992503762245,0,0,0,0,0,78026064.0
1405448103833043165,238,1405448103833043165,ardrone_base_link,79.0,2,0,0,0,0,0,0.0,0.0,0.0,0.263000011444,-2.6970000267,-7.4889998436,0,0.0,-0.0,-0.0,0.0164491869509,-0.0227254908532,0.992616832256,0,0,0,0,0,78031152.0
1405448103834278100,239,1405448103834278100,ardrone_base_link,79.0,2,0,0,0,0,0,0.0,0.0,0.0,0.263000011444,-2.6970000267,-7.48999977112,0,0.0,-0.0,-0.0,0.0144408755004,-0.0228109695017,0.995589256287,0,0,0,0,0,78036080.0
1405448103837159326,240,1405448103837159326,ardrone_base_link,79.0,2,0,0,0,0,0,0.0,0.0,0.0,0.261999994516,-2.6970000267,-7.49100017548,0,0.0,-0.0,-0.0,0.0148728843778,-0.0250739678741,0.995188355446,0,0,0,0,0,78041072.0
1405448103838191931,241,1405448103838191931,ardrone_base_link,79.0,2,0,0,0,0,0,0.0,0.0,0.0,0.261999994516,-2.69600009918,-7.492000103,0,0.0,-0.0,-0.0,0.0150708379224,-0.0272878855467,0.994599938393,0,0,0,0,0,78046104.0
1405448103844609290,242,1405448103844609290,ardrone_base_link,79.0,2,0,0,0,0,0,0.0,0.0,0.0,0.261999994516,-2.69499993324,-7.49300003052,0,0.0,-0.0,-0.0,0.0171870384365,-0.0267031807452,0.994791328907,0,0,0,0,0,78051120.0
1405448103845638537,243,1405448103845638537,ardrone_base_link,79.0,2,0,0,0,0,0,0.0,0.0,0.0,0.261999994516,-2.6970000267,-7.49399995804,0,0.0,-0.0,-0.0,0.019512873143,-0.0264151208103,0.994698524475,0,0,0,0,0,78056032.0
1405448103847124575,244,1405448103847124575,ardrone_base_link,79.0,2,0,0,0,0,0,0.0,0.0,0.0,0.261999994516,-2.69799995422,-7.49499988556,0,0.0,-0.0,-0.0,0.0189916230738,-0.0266678407788,0.994732022285,0,0,0,0,0,78061024.0
1405448103848283832,245,1405448103848283832,ardrone_base_link,79.0,2,0,0,0,0,0,0.0,0.0,0.0,0.263000011444,-2.69899988174,-7.49599981308,0,0.0,-0.0,-0.0,0.0187827181071,-0.026745531708,0.994708061218,0,0,0,0,0,78066104.0
1405448103849606207,246,1405448103849606207,ardrone_base_link,79.0,2,0,0,0,0,0,0.0,0.0,0.0,0.261999994516,-2.69899988174,-7.49700021744,0,0.0,-0.0,-0.0,0.0190619789064,-0.0269520841539,0.997110426426,0,0,0,0,0,78072200.0
1405448103850964359,247,1405448103850964359,ardrone_base_link,79.0,2,0,0,0,0,0,0.0,0.0,0.0,0.261999994516,-2.69899988174,-7.49800014496,0,0.0,-0.0,-0.0,0.0190942697227,-0.0271166916937,0.999447584152,0,0,0,0,0,78076000.0
1405448103853789909,248,1405448103853789909,ardrone_base_link,79.0,2,0,0,0,0,0,0.0,0.0,0.0,0.261000007391,-2.69799995422,-7.49900007248,0,0.0,-0.0,-0.0,0.0166581682861,-0.0271445587277,0.996513962746,0,0,0,0,0,78081032.0
1405448103854835159,249,1405448103854835159,ardrone_base_link,79.0,2,0,0,0,0,0,0.0,0.0,0.0,0.261000007391,-2.6970000267,-7.5,0,0.0,-0.0,-0.0,0.0142676793039,-0.0270905215293,0.99392926693,0,0,0,0,0,78086552.0
1405448103855968430,250,1405448103855968430,ardrone_base_link,79.0,2,0,0,0,0,0,0.0,0.0,0.0,0.261000007391,-2.69600009918,-7.50099992752,0,0.0,-0.0,-0.0,0.0172849260271,-0.0270570591092,0.997009634972,0,0,0,0,0,78091000.0
1405448103858828809,251,1405448103858828809,ardrone_base_link,79.0,2,0,0,0,0,0,0.0,0.0,0.0,0.259999990463,-2.69600009918,-7.50199985504,0,0.0,-0.0,-0.0,0.0176871977746,-0.0270107313991,0.999601185322,0,0,0,0,0,78095952.0
1405448103859782972,252,1405448103859782972,ardrone_base_link,79.0,2,0,0,0,0,0,0.0,0.0,0.0,0.259000003338,-2.6970000267,-7.50299978256,0,0.0,-0.0,-0.0,0.014762815088,-0.0269061438739,0.998921513557,0,0,0,0,0,78100992.0
1405448103861112648,253,1405448103861112648,ardrone_base_link,79.0,2,0,0,0,0,0,0.0,0.0,0.0,0.25799998641,-2.6970000267,-7.50400018692,0,0.0,-0.0,-0.0,0.0151347247884,-0.0267895180732,0.998632907867,0,0,0,0,0,78105944.0
1405448103862559453,254,1405448103862559453,ardrone_base_link,79.0,2,0,0,0,0,0,0.0,0.0,0.0,0.25799998641,-2.69799995422,-7.50400018692,0,0.0,-0.0,-0.0,0.0155925881118,-0.0267070103437,0.998796761036,0,0,0,0,0,78110944.0
1405448103863876840,255,1405448103863876840,ardrone_base_link,79.0,2,0,0,0,0,0,0.0,0.0,0.0,0.259000003338,-2.69899988174,-7.50500011444,0,0.0,-0.0,-0.0,0.0153285590932,-0.026657031849,0.998771846294,0,0,0,0,0,78115976.0
1405448103865098120,256,1405448103865098120,ardrone_base_link,79.0,2,0,0,0,0,0,0.0,0.0,0.0,0.259999990463,-2.69899988174,-7.50600004196,0,0.0,-0.0,-0.0,0.0152849759907,-0.0243526957929,0.998869776726,0,0,0,0,0,78121056.0
1405448103901120826,257,1405448103901120826,ardrone_base_link,79.0,2,0,0,0,0,0,0.0,0.0,0.0,0.261000007391,-2.69899988174,-7.50699996948,0,0.0,-0.0,-0.0,0.0151572963223,-0.0221584066749,0.99896299839,0,0,0,0,0,78125944.0
1405448103903975043,258,1405448103903975043,ardrone_base_link,79.0,2,0,0,0,0,0,0.0,0.0,0.0,0.261000007391,-2.70000004768,-7.507999897,0,0.0,-0.0,-0.0,0.0150514338166,-0.0228262785822,0.998953223228,0,0,0,0,0,78130968.0
1405448103904936946,259,1405448103904936946,ardrone_base_link,79.0,2,0,0,0,0,0,0.0,0.0,0.0,0.261000007391,-2.70000004768,-7.50899982452,0,0.0,-0.0,-0.0,0.0149565897882,-0.023241231218,0.998932898045,0,0,0,0,0,78136360.0
1405448103906395792,260,1405448103906395792,ardrone_base_link,79.0,2,0,0,0,0,0,0.0,0.0,0.0,0.261999994516,-2.70000004768,-7.51000022888,0,0.0,-0.0,-0.0,0.0148717323318,-0.0231127515435,0.996549367905,0,0,0,0,0,78141280.0
1405448104038100320,261,1405448104038100320,ardrone_base_link,79.0,2,0,0,0,0,0,0.0,0.0,0.0,0.261000007391,-2.70000004768,-7.5110001564,0,0.0,-0.0,-0.0,0.0149316964671,-0.0232076961547,0.996604979038,0,0,0,0,0,78145920.0
1405448104039162693,262,1405448104039162693,ardrone_base_link,79.0,2,0,0,0,0,0,0.0,0.0,0.0,0.25,-2.69799995422,-7.54899978638,0,0.0,-0.0,-0.0,0.0154182640836,-0.0245090145618,0.998868405819,0,0,0,0,0,78350632.0
1405448104042478740,263,1405448104042478740,ardrone_base_link,79.0,2,0,0,0,0,0,0.0,0.0,0.0,0.252000004053,-2.69899988174,-7.55000019073,0,0.0,-0.0,-0.0,0.0155000891536,-0.0223701372743,0.998972713947,0,0,0,0,0,78355624.0
1405448104043502877,264,1405448104043502877,ardrone_base_link,79.0,2,0,0,0,0,0,0.0,0.0,0.0,0.252000004053,-2.70000004768,-7.55100011826,0,0.0,-0.0,-0.0,0.015468178317,-0.0230532474816,0.998946607113,0,0,0,0,0,78360640.0
1405448104048595843,265,1405448104048595843,ardrone_base_link,79.0,2,0,0,0,0,0,0.0,0.0,0.0,0.252999991179,-2.69899988174,-7.55200004578,0,0.0,-0.0,-0.0,0.0153854526579,-0.0234446804971,0.998932898045,0,0,0,0,0,78365656.0
1405448104049756793,266,1405448104049756793,ardrone_base_link,79.0,2,0,0,0,0,0,0.0,0.0,0.0,0.254000008106,-2.69899988174,-7.5529999733,0,0.0,-0.0,-0.0,0.0152806406841,-0.023337000981,0.998940229416,0,0,0,0,0,78370584.0
1405448104058683475,267,1405448104058683475,ardrone_base_link,79.0,2,0,0,0,0,0,0.0,0.0,0.0,0.252999991179,-2.69799995422,-7.55399990082,0,0.0,-0.0,-0.0,0.015270662494,-0.0234495978802,1.00132775307,0,0,0,0,0,78375568.0
1405448104059382731,268,1405448104059382731,ardrone_base_link,79.0,2,0,0,0,0,0,0.0,0.0,0.0,0.254000008106,-2.69799995422,-7.55499982834,0,0.0,-0.0,-0.0,0.0152807310224,-0.021098157391,1.00138068199,0,0,0,0,0,78380576.0
1405448104060862472,269,1405448104060862472,ardrone_base_link,79.0,2,0,0,0,0,0,0.0,0.0,0.0,0.254999995232,-2.69799995422,-7.5560002327,0,0.0,-0.0,-0.0,0.0153394676745,-0.0187759045511,1.00094902515,0,0,0,0,0,78385880.0
1405448104062102343,270,1405448104062102343,ardrone_base_link,79.0,2,0,0,0,0,0,0.0,0.0,0.0,0.254999995232,-2.6970000267,-7.55700016022,0,0.0,-0.0,-0.0,0.0154130198061,-0.0192290991545,1.00115191936,0,0,0,0,0,78390544.0
1405448104064739143,271,1405448104064739143,ardrone_base_link,79.0,2,0,0,0,0,0,0.0,0.0,0.0,0.254999995232,-2.69799995422,-7.55800008774,0,0.0,-0.0,-0.0,0.0153590030968,-0.0216400269419,0.998583078384,0,0,0,0,0,78396352.0
1405448104065845889,272,1405448104065845889,ardrone_base_link,79.0,2,0,0,0,0,0,0.0,0.0,0.0,0.254999995232,-2.6970000267,-7.55800008774,0,0.0,-0.0,-0.0,0.0153929060325,-0.0236198119819,0.998554766178,0,0,0,0,0,78400536.0
1405448104067080666,273,1405448104067080666,ardrone_base_link,79.0,2,0,0,0,0,0,0.0,0.0,0.0,0.256000012159,-2.6970000267,-7.55900001526,0,0.0,-0.0,-0.0,0.0154678784311,-0.0230255685747,0.999110162258,0,0,0,0,0,78405536.0
1405448104069671552,274,1405448104069671552,ardrone_base_link,79.0,2,0,0,0,0,0,0.0,0.0,0.0,0.256999999285,-2.69899988174,-7.55999994278,0,0.0,-0.0,-0.0,0.0177650637925,-0.022650398314,0.9988296628,0,0,0,0,0,78410520.0
1405448104071044299,275,1405448104071044299,ardrone_base_link,79.0,2,0,0,0,0,0,0.0,0.0,0.0,0.256999999285,-2.69899988174,-7.5609998703,0,0.0,-0.0,-0.0,0.0199728421867,-0.0228227693588,0.99885559082,0,0,0,0,0,78415512.0
1405448104072404948,276,1405448104072404948,ardrone_base_link,79.0,2,0,0,0,0,0,0.0,0.0,0.0,0.256999999285,-2.70000004768,-7.56199979782,0,0.0,-0.0,-0.0,0.0193395242095,-0.0228364951909,0.998826742172,0,0,0,0,0,78420512.0
1405448104076062790,277,1405448104076062790,ardrone_base_link,79.0,2,0,0,0,0,0,0.0,0.0,0.0,0.256000012159,-2.70000004768,-7.56300020218,0,0.0,-0.0,-0.0,0.0189155396074,-0.0252408795059,0.998757123947,0,0,0,0,0,78425480.0
1405448104077174492,278,1405448104077174492,ardrone_base_link,79.0,2,0,0,0,0,0,0.0,0.0,0.0,0.254999995232,-2.7009999752,-7.5640001297,0,0.0,-0.0,-0.0,0.0188786052167,-0.0274903327227,0.996251523495,0,0,0,0,0,78431096.0
1405448104078406407,279,1405448104078406407,ardrone_base_link,79.0,2,0,0,0,0,0,0.0,0.0,0.0,0.254999995232,-2.70199990273,-7.56500005722,0,0.0,-0.0,-0.0,0.0188241768628,-0.0269888732582,0.996326506138,0,0,0,0,0,78435472.0
1405448104079747593,280,1405448104079747593,ardrone_base_link,79.0,2,0,0,0,0,0,0.0,0.0,0.0,0.254000008106,-2.70300006866,-7.56599998474,0,0.0,-0.0,-0.0,0.0189539752901,-0.0267830137163,0.999272763729,0,0,0,0,0,78440496.0
1405448104080966241,281,1405448104080966241,ardrone_base_link,79.0,2,0,0,0,0,0,0.0,0.0,0.0,0.254000008106,-2.70399999619,-7.56699991226,0,0.0,-0.0,-0.0,0.0166441723704,-0.0269413311034,0.99903178215,0,0,0,0,0,78446872.0
1405448104082272727,282,1405448104082272727,ardrone_base_link,79.0,2,0,0,0,0,0,0.0,0.0,0.0,0.252999991179,-2.70399999619,-7.56799983978,0,0.0,-0.0,-0.0,0.0143206166103,-0.0268135536462,0.996220290661,0,0,0,0,0,78450512.0
1405448104083611540,283,1405448104083611540,ardrone_base_link,79.0,2,0,0,0,0,0,0.0,0.0,0.0,0.252000004053,-2.70499992371,-7.5689997673,0,0.0,-0.0,-0.0,0.0148053392768,-0.0267191156745,0.994086027145,0,0,0,0,0,78455568.0
1405448104085185072,284,1405448104085185072,ardrone_base_link,79.0,2,0,0,0,0,0,0.0,0.0,0.0,0.252000004053,-2.70499992371,-7.57000017166,0,0.0,-0.0,-0.0,0.0151056507602,-0.0266870204359,0.994615316391,0,0,0,0,0,78460488.0
1405448104086234276,285,1405448104086234276,ardrone_base_link,79.0,2,0,0,0,0,0,0.0,0.0,0.0,0.252000004053,-2.70499992371,-7.57100009918,0,0.0,-0.0,-0.0,0.017252786085,-0.0266696605831,0.994900166988,0,0,0,0,0,78465496.0
1405448104087312852,286,1405448104087312852,ardrone_base_link,79.0,2,0,0,0,0,0,0.0,0.0,0.0,0.250999987125,-2.70499992371,-7.5720000267,0,0.0,-0.0,-0.0,0.0172490552068,-0.0266592185944,0.994698703289,0,0,0,0,0,78470480.0
1405448104088950959,287,1405448104088950959,ardrone_base_link,79.0,2,0,0,0,0,0,0.0,0.0,0.0,0.25,-2.70499992371,-7.57299995422,0,0.0,-0.0,-0.0,0.0167652182281,-0.0266729611903,0.994772434235,0,0,0,0,0,78475416.0
1405448104090122646,288,1405448104090122646,ardrone_base_link,79.0,2,0,0,0,0,0,0.0,0.0,0.0,0.248999997973,-2.70700001717,-7.57399988174,0,0.0,-0.0,-0.0,0.019359793514,-0.0266589187086,0.994704842567,0,0,0,0,0,78480464.0
1405448104091487917,289,1405448104091487917,ardrone_base_link,79.0,2,0,0,0,0,0,0.0,0.0,0.0,0.247999995947,-2.70799994469,-7.57499980927,0,0.0,-0.0,-0.0,0.0192948840559,-0.0266742836684,0.994718253613,0,0,0,0,0,78485408.0
1405448104092670649,290,1405448104092670649,ardrone_base_link,79.0,2,0,0,0,0,0,0.0,0.0,0.0,0.247999995947,-2.70900011063,-7.57600021362,0,0.0,-0.0,-0.0,0.0188844073564,-0.0243881866336,0.994827151299,0,0,0,0,0,78490984.0
1405448104182997102,291,1405448104182997102,ardrone_base_link,79.0,2,0,0,0,0,0,0.0,0.0,0.0,0.24699999392,-2.71000003815,-7.57700014114,0,0.0,-0.0,-0.0,0.0167951658368,-0.0244568306953,0.994874000549,0,0,0,0,0,78495584.0
1405448104184307146,292,1405448104184307146,ardrone_base_link,79.0,2,0,0,0,0,0,0.0,0.0,0.0,0.24699999392,-2.70900011063,-7.57700014114,0,0.0,-0.0,-0.0,0.014363151975,-0.0272760223597,0.99480009079,0,0,0,0,0,78500448.0
1405448104185486170,293,1405448104185486170,ardrone_base_link,79.0,2,0,0,0,0,0,0.0,0.0,0.0,0.24699999392,-2.70900011063,-7.57800006866,0,0.0,-0.0,-0.0,0.0149192633107,-0.0269785709679,0.994795680046,0,0,0,0,0,78505408.0
1405448104186806966,294,1405448104186806966,ardrone_base_link,79.0,2,0,0,0,0,0,0.0,0.0,0.0,0.246000006795,-2.70900011063,-7.57899999619,0,0.0,-0.0,-0.0,0.0151460915804,-0.0265253391117,0.994812011719,0,0,0,0,0,78510448.0
1405448104188124497,295,1405448104188124497,ardrone_base_link,79.0,2,0,0,0,0,0,0.0,0.0,0.0,0.246000006795,-2.70900011063,-7.57999992371,0,0.0,-0.0,-0.0,0.014979747124,-0.0267739966512,0.994805932045,0,0,0,0,0,78515424.0
1405448104189454513,296,1405448104189454513,ardrone_base_link,79.0,2,0,0,0,0,0,0.0,0.0,0.0,0.245000004768,-2.71000003815,-7.58099985123,0,0.0,-0.0,-0.0,0.0151083786041,-0.0244820807129,0.994913578033,0,0,0,0,0,78520464.0
1405448104190830560,297,1405448104190830560,ardrone_base_link,79.0,2,0,0,0,0,0,0.0,0.0,0.0,0.246000006795,-2.70900011063,-7.58199977875,0,0.0,-0.0,-0.0,0.0151866013184,-0.0223122742027,0.995017826557,0,0,0,0,0,78525376.0
1405448104232835430,298,1405448104232835430,ardrone_base_link,79.0,2,0,0,0,0,0,0.0,0.0,0.0,0.246000006795,-2.71000003815,-7.58300018311,0,0.0,-0.0,-0.0,0.0151769239455,-0.0251656360924,0.994885742664,0,0,0,0,0,78530400.0
1405448104234352380,299,1405448104234352380,ardrone_base_link,79.0,2,0,0,0,0,0,0.0,0.0,0.0,0.244000002742,-2.70900011063,-7.58400011063,0,0.0,-0.0,-0.0,0.0151158832014,-0.0277119483799,0.994766652584,0,0,0,0,0,78535336.0
1405448104235730853,300,1405448104235730853,ardrone_base_link,79.0,2,0,0,0,0,0,0.0,0.0,0.0,0.244000002742,-2.70900011063,-7.58500003815,0,0.0,-0.0,-0.0,0.0151333780959,-0.0269531887025,0.994800627232,0,0,0,0,0,78540376.0
1405448104236901749,301,1405448104236901749,ardrone_base_link,79.0,2,0,0,0,0,0,0.0,0.0,0.0,0.243000000715,-2.71000003815,-7.58599996567,0,0.0,-0.0,-0.0,0.0174937136471,-0.0243315193802,0.994866490364,0,0,0,0,0,78545472.0
1405448104238317333,302,1405448104238317333,ardrone_base_link,79.0,2,0,0,0,0,0,0.0,0.0,0.0,0.243000000715,-2.71099996567,-7.58699989319,0,0.0,-0.0,-0.0,0.0174845717847,-0.022212004289,0.994964659214,0,0,0,0,0,78550376.0
1405448104239513009,303,1405448104239513009,ardrone_base_link,79.0,2,0,0,0,0,0,0.0,0.0,0.0,0.244000002742,-2.71199989319,-7.58799982071,0,0.0,-0.0,-0.0,0.0146469632164,-0.022758455947,0.995004475117,0,0,0,0,0,78555336.0
1405448104241130729,304,1405448104241130729,ardrone_base_link,79.0,2,0,0,0,0,0,0.0,0.0,0.0,0.245000004768,-2.71199989319,-7.58900022507,0,0.0,-0.0,-0.0,0.0148824015632,-0.0230188891292,0.994984924793,0,0,0,0,0,78560352.0
1405448104242227673,305,1405448104242227673,ardrone_base_link,79.0,2,0,0,0,0,0,0.0,0.0,0.0,0.246000006795,-2.71300005913,-7.59000015259,0,0.0,-0.0,-0.0,0.0175973605365,-0.0227958206087,0.994929492474,0,0,0,0,0,78565304.0
1405448104243361607,306,1405448104243361607,ardrone_base_link,79.0,2,0,0,0,0,0,0.0,0.0,0.0,0.246000006795,-2.71399998665,-7.59100008011,0,0.0,-0.0,-0.0,0.0172885395586,-0.0228806976229,0.99493265152,0,0,0,0,0,78572128.0
1405448104244731232,307,1405448104244731232,ardrone_base_link,79.0,2,0,0,0,0,0,0.0,0.0,0.0,0.246000006795,-2.71399998665,-7.59200000763,0,0.0,-0.0,-0.0,0.016791716218,-0.0229266323149,0.994943857193,0,0,0,0,0,78575288.0
1405448104280276483,308,1405448104280276483,ardrone_base_link,79.0,2,0,0,0,0,0,0.0,0.0,0.0,0.245000004768,-2.71600008011,-7.59299993515,0,0.0,-0.0,-0.0,0.0192207079381,-0.0252768732607,0.994779288769,0,0,0,0,0,78580320.0
1405448104281544075,309,1405448104281544075,ardrone_base_link,79.0,2,0,0,0,0,0,0.0,0.0,0.0,0.244000002742,-2.71700000763,-7.59399986267,0,0.0,-0.0,-0.0,0.019102262333,-0.0275619048625,0.994677245617,0,0,0,0,0,78585336.0
1405448104283187165,310,1405448104283187165,ardrone_base_link,79.0,2,0,0,0,0,0,0.0,0.0,0.0,0.243000000715,-2.71799993515,-7.59499979019,0,0.0,-0.0,-0.0,0.0186236444861,-0.0269997660071,0.994715332985,0,0,0,0,0,78590320.0
1405448104284364252,311,1405448104284364252,ardrone_base_link,79.0,2,0,0,0,0,0,0.0,0.0,0.0,0.243000000715,-2.71900010109,-7.59600019455,0,0.0,-0.0,-0.0,0.0188768077642,-0.0266504026949,0.994723856449,0,0,0,0,0,78595432.0
1405448104285578409,312,1405448104285578409,ardrone_base_link,79.0,2,0,0,0,0,0,0.0,0.0,0.0,0.243000000715,-2.72000002861,-7.59700012207,0,0.0,-0.0,-0.0,0.0188430603594,-0.026730986312,0.994717776775,0,0,0,0,0,78600312.0
1405448104290718129,313,1405448104290718129,ardrone_base_link,79.0,2,0,0,0,0,0,0.0,0.0,0.0,0.241999998689,-2.72099995613,-7.59700012207,0,0.0,-0.0,-0.0,0.0189075917006,-0.0266192778945,0.99471950531,0,0,0,0,0,78605248.0
1405448104435894419,314,1405448104435894419,ardrone_base_link,79.0,2,0,0,0,0,0,0.0,0.0,0.0,0.238999992609,-2.72699999809,-7.60799980164,0,0.0,-0.0,-0.0,0.0192300863564,-0.0245877578855,0.998768150806,0,0,0,0,0,78660640.0
1405448104436874506,315,1405448104436874506,ardrone_base_link,79.0,2,0,0,0,0,0,0.0,0.0,0.0,0.239999994636,-2.72699999809,-7.60799980164,0,0.0,-0.0,-0.0,0.0192599836737,-0.0223583132029,1.00127482414,0,0,0,0,0,78665296.0
1405448104439069413,316,1405448104439069413,ardrone_base_link,79.0,2,0,0,0,0,0,0.0,0.0,0.0,0.240999996662,-2.72799992561,-7.60900020599,0,0.0,-0.0,-0.0,0.0191795211285,-0.0252534374595,1.0034815073,0,0,0,0,0,78670192.0
1405448104440866118,317,1405448104440866118,ardrone_base_link,79.0,2,0,0,0,0,0,0.0,0.0,0.0,0.240999996662,-2.72900009155,-7.61000013351,0,0.0,-0.0,-0.0,0.0168008301407,-0.0255547333509,1.00292408466,0,0,0,0,0,78675112.0
1405448104441983033,318,1405448104441983033,ardrone_base_link,79.0,2,0,0,0,0,0,0.0,0.0,0.0,0.240999996662,-2.72900009155,-7.61000013351,0,0.0,-0.0,-0.0,0.014609974809,-0.0226554628462,1.00281250477,0,0,0,0,0,78680176.0
1405448104443333491,319,1405448104443333491,ardrone_base_link,79.0,2,0,0,0,0,0,0.0,0.0,0.0,0.241999998689,-2.72900009155,-7.61100006104,0,0.0,-0.0,-0.0,0.0128943473101,-0.0230577532202,1.00300621986,0,0,0,0,0,78685128.0
1405448104444719471,320,1405448104444719471,ardrone_base_link,79.0,2,0,0,0,0,0,0.0,0.0,0.0,0.241999998689,-2.72799992561,-7.61199998856,0,0.0,-0.0,-0.0,0.013242777437,-0.0235350672156,1.00293266773,0,0,0,0,0,78690128.0
1405448104445902481,321,1405448104445902481,ardrone_base_link,79.0,2,0,0,0,0,0,0.0,0.0,0.0,0.243000000715,-2.72799992561,-7.61299991608,0,0.0,-0.0,-0.0,0.0158149693161,-0.0232286825776,1.00050222874,0,0,0,0,0,78696360.0
1405448104447557565,322,1405448104447557565,ardrone_base_link,79.0,2,0,0,0,0,0,0.0,0.0,0.0,0.245000004768,-2.72799992561,-7.61299991608,0,0.0,-0.0,-0.0,0.015447748825,-0.0254532601684,0.99804598093,0,0,0,0,0,78700144.0
1405448104448619836,323,1405448104448619836,ardrone_base_link,79.0,2,0,0,0,0,0,0.0,0.0,0.0,0.245000004768,-2.72699999809,-7.6139998436,0,0.0,-0.0,-0.0,0.0149717014283,-0.0276460181922,0.99855697155,0,0,0,0,0,78705056.0
1405448104449791628,324,1405448104449791628,ardrone_base_link,79.0,2,0,0,0,0,0,0.0,0.0,0.0,0.245000004768,-2.72600007057,-7.61499977112,0,0.0,-0.0,-0.0,0.0152666540816,-0.027094271034,0.998880445957,0,0,0,0,0,78710152.0
1405448104451228945,325,1405448104451228945,ardrone_base_link,79.0,2,0,0,0,0,0,0.0,0.0,0.0,0.246000006795,-2.72600007057,-7.61600017548,0,0.0,-0.0,-0.0,0.0151794599369,-0.0267209094018,0.996334552765,0,0,0,0,0,78715064.0
1405448104452455997,326,1405448104452455997,ardrone_base_link,79.0,2,0,0,0,0,0,0.0,0.0,0.0,0.245000004768,-2.72499990463,-7.617000103,0,0.0,-0.0,-0.0,0.0151896737516,-0.0268496647477,0.994039356709,0,0,0,0,0,78720112.0
1405448104453731302,327,1405448104453731302,ardrone_base_link,79.0,2,0,0,0,0,0,0.0,0.0,0.0,0.244000002742,-2.72499990463,-7.61800003052,0,0.0,-0.0,-0.0,0.0175431855023,-0.0268146395683,0.994566440582,0,0,0,0,0,78725024.0
1405448104455399660,328,1405448104455399660,ardrone_base_link,79.0,2,0,0,0,0,0,0.0,0.0,0.0,0.244000002742,-2.72600007057,-7.61899995804,0,0.0,-0.0,-0.0,0.0198547039181,-0.0267728678882,0.994839727879,0,0,0,0,0,78730104.0
1405448104457968642,329,1405448104457968642,ardrone_base_link,79.0,2,0,0,0,0,0,0.0,0.0,0.0,0.243000000715,-2.72600007057,-7.61999988556,0,0.0,-0.0,-0.0,0.019290426746,-0.0266881622374,0.994670033455,0,0,0,0,0,78735048.0
1405448104459252039,330,1405448104459252039,ardrone_base_link,79.0,2,0,0,0,0,0,0.0,0.0,0.0,0.243000000715,-2.72699999809,-7.62099981308,0,0.0,-0.0,-0.0,0.0189571082592,-0.0266095492989,0.994722783566,0,0,0,0,0,78740160.0
1405448104465499140,331,1405448104465499140,ardrone_base_link,79.0,2,0,0,0,0,0,0.0,0.0,0.0,0.243000000715,-2.72799992561,-7.62200021744,0,0.0,-0.0,-0.0,0.0191096663475,-0.0242101307958,0.994819700718,0,0,0,0,0,78745008.0
1405448104466503808,332,1405448104466503808,ardrone_base_link,79.0,2,0,0,0,0,0,0.0,0.0,0.0,0.241999998689,-2.72900009155,-7.62300014496,0,0.0,-0.0,-0.0,0.0190259572119,-0.021893363446,0.994940042496,0,0,0,0,0,78750072.0
1405448104469655715,333,1405448104469655715,ardrone_base_link,79.0,2,0,0,0,0,0,0.0,0.0,0.0,0.243000000715,-2.73000001907,-7.62400007248,0,0.0,-0.0,-0.0,0.0189188458025,-0.0224388632923,0.994899809361,0,0,0,0,0,78755000.0
1405448104471962878,334,1405448104471962878,ardrone_base_link,79.0,2,0,0,0,0,0,0.0,0.0,0.0,0.243000000715,-2.73099994659,-7.625,0,0.0,-0.0,-0.0,0.0188893787563,-0.0228181611747,0.99727845192,0,0,0,0,0,78760392.0
1405448104473123156,335,1405448104473123156,ardrone_base_link,79.0,2,0,0,0,0,0,0.0,0.0,0.0,0.243000000715,-2.73099994659,-7.62599992752,0,0.0,-0.0,-0.0,0.0188351441175,-0.0227038040757,0.997235178947,0,0,0,0,0,78765056.0
1405448104475433346,336,1405448104475433346,ardrone_base_link,79.0,2,0,0,0,0,0,0.0,0.0,0.0,0.245000004768,-2.73099994659,-7.62699985504,0,0.0,-0.0,-0.0,0.0186894070357,-0.0227362271398,0.994305729866,0,0,0,0,0,78770304.0
1405448104476367772,337,1405448104476367772,ardrone_base_link,79.0,2,0,0,0,0,0,0.0,0.0,0.0,0.246000006795,-2.73099994659,-7.62799978256,0,0.0,-0.0,-0.0,0.0187101308256,-0.0228171385825,0.994589865208,0,0,0,0,0,78774968.0
1405448104478666583,338,1405448104478666583,ardrone_base_link,79.0,2,0,0,0,0,0,0.0,0.0,0.0,0.24699999392,-2.73099994659,-7.62799978256,0,0.0,-0.0,-0.0,0.0187489856035,-0.0252389181405,0.994958758354,0,0,0,0,0,78780360.0
1405448104479725655,339,1405448104479725655,ardrone_base_link,79.0,2,0,0,0,0,0,0.0,0.0,0.0,0.246000006795,-2.73200011253,-7.62900018692,0,0.0,-0.0,-0.0,0.0188107546419,-0.0275647137314,0.994641125202,0,0,0,0,0,78785584.0
1405448104481013002,340,1405448104481013002,ardrone_base_link,79.0,2,0,0,0,0,0,0.0,0.0,0.0,0.246000006795,-2.73300004005,-7.62900018692,0,0.0,-0.0,-0.0,0.0213239267468,-0.0247601009905,0.994775891304,0,0,0,0,0,78790440.0
1405448104615730358,341,1405448104615730358,ardrone_base_link,79.0,2,0,0,0,0,0,0.0,0.0,0.0,0.246000006795,-2.7349998951,-7.63000011444,0,0.0,-0.0,-0.0,0.0237453877926,-0.0222369395196,0.99481356144,0,0,0,0,0,78794976.0
1405448104616923277,342,1405448104616923277,ardrone_base_link,79.0,2,0,0,0,0,0,0.0,0.0,0.0,0.246000006795,-2.73699998856,-7.63100004196,0,0.0,-0.0,-0.0,0.0232010707259,-0.0229568369687,0.99482524395,0,0,0,0,0,78800040.0
1405448104649232368,343,1405448104649232368,ardrone_base_link,79.0,2,0,0,0,0,0,0.0,0.0,0.0,0.246000006795,-2.74099993706,-7.63500022888,0,0.0,-0.0,-0.0,0.0189633946866,-0.0227590110153,0.994892418385,0,0,0,0,0,78821200.0
1405448104650414040,344,1405448104650414040,ardrone_base_link,79.0,2,0,0,0,0,0,0.0,0.0,0.0,0.245000004768,-2.742000103,-7.6360001564,0,0.0,-0.0,-0.0,0.0188129227608,-0.0227794535458,0.997285723686,0,0,0,0,0,78825232.0
1405448104657316845,345,1405448104657316845,ardrone_base_link,79.0,2,0,0,0,0,0,0.0,0.0,0.0,0.245000004768,-2.74300003052,-7.63700008392,0,0.0,-0.0,-0.0,0.0189422722906,-0.0227923989296,0.999620437622,0,0,0,0,0,78830312.0
1405448104684813427,346,1405448104684813427,ardrone_base_link,79.0,2,0,0,0,0,0,0.0,0.0,0.0,0.245000004768,-2.74300003052,-7.63800001144,0,0.0,-0.0,-0.0,0.016717934981,-0.0228686966002,1.00147211552,0,0,0,0,0,78834920.0
1405448104686207132,347,1405448104686207132,ardrone_base_link,79.0,2,0,0,0,0,0,0.0,0.0,0.0,0.246000006795,-2.74300003052,-7.63899993896,0,0.0,-0.0,-0.0,0.0145492972806,-0.0252639520913,1.00344479084,0,0,0,0,0,78839936.0
1405448104687585733,348,1405448104687585733,ardrone_base_link,79.0,2,0,0,0,0,0,0.0,0.0,0.0,0.245000004768,-2.74399995804,-7.63999986649,0,0.0,-0.0,-0.0,0.0151825957,-0.0275873523206,1.00529658794,0,0,0,0,0,78845120.0
1405448104690017451,349,1405448104690017451,ardrone_base_link,79.0,2,0,0,0,0,0,0.0,0.0,0.0,0.244000002742,-2.74300003052,-7.64099979401,0,0.0,-0.0,-0.0,0.015534455888,-0.027072172612,1.0049110651,0,0,0,0,0,78849912.0
1405448104691091631,350,1405448104691091631,ardrone_base_link,79.0,2,0,0,0,0,0,0.0,0.0,0.0,0.244000002742,-2.74300003052,-7.64200019836,0,0.0,-0.0,-0.0,0.0153286643326,-0.0267952531576,1.00218403339,0,0,0,0,0,78854880.0
1405448104692457116,351,1405448104692457116,ardrone_base_link,79.0,2,0,0,0,0,0,0.0,0.0,0.0,0.241999998689,-2.74300003052,-7.64300012589,0,0.0,-0.0,-0.0,0.0154111087322,-0.0270575862378,1.00239598751,0,0,0,0,0,78859880.0
1405448104694988735,352,1405448104694988735,ardrone_base_link,79.0,2,0,0,0,0,0,0.0,0.0,0.0,0.241999998689,-2.74300003052,-7.64400005341,0,0.0,-0.0,-0.0,0.015372114256,-0.0270264036953,1.0005095005,0,0,0,0,0,78864928.0
1405448104696238732,353,1405448104696238732,ardrone_base_link,79.0,2,0,0,0,0,0,0.0,0.0,0.0,0.243000000715,-2.74300003052,-7.64499998093,0,0.0,-0.0,-0.0,0.0153325041756,-0.0269794203341,0.997939705849,0,0,0,0,0,78869856.0
1405448104697580807,354,1405448104697580807,ardrone_base_link,79.0,2,0,0,0,0,0,0.0,0.0,0.0,0.244000002742,-2.74300003052,-7.64599990845,0,0.0,-0.0,-0.0,0.0153690520674,-0.0269613564014,0.998594224453,0,0,0,0,0,78874848.0
1405448104839294013,355,1405448104839294013,ardrone_base_link,79.0,2,0,0,0,0,0,0.0,0.0,0.0,0.241999998689,-2.74399995804,-7.65299987793,0,0.0,-0.0,-0.0,0.015074685216,-0.026875955984,0.996547400951,0,0,0,0,0,78914800.0
1405448104840638259,356,1405448104840638259,ardrone_base_link,79.0,2,0,0,0,0,0,0.0,0.0,0.0,0.240999996662,-2.74499988556,-7.65399980545,0,0.0,-0.0,-0.0,0.0149402227253,-0.0266373287886,0.993919491768,0,0,0,0,0,78920280.0
1405448105004102362,357,1405448105004102362,ardrone_base_link,79.0,2,0,0,0,0,0,0.0,0.0,0.0,0.240999996662,-2.7460000515,-7.65899991989,0,0.0,-0.0,-0.0,0.0151252271608,-0.0224449820817,0.994988024235,0,0,0,0,0,78945960.0
1405448105005098415,358,1405448105005098415,ardrone_base_link,79.0,2,0,0,0,0,0,0.0,0.0,0.0,0.239999994636,-2.7460000515,-7.65999984741,0,0.0,-0.0,-0.0,0.0152359334752,-0.0229768548161,0.997378587723,0,0,0,0,0,78949760.0
1405448105007640919,359,1405448105007640919,ardrone_base_link,79.0,2,0,0,0,0,0,0.0,0.0,0.0,0.239999994636,-2.7460000515,-7.66099977493,0,0.0,-0.0,-0.0,0.015350587666,-0.0230462029576,0.999702334404,0,0,0,0,0,78954744.0
1405448105008443168,360,1405448105008443168,ardrone_base_link,79.0,2,0,0,0,0,0,0.0,0.0,0.0,0.238999992609,-2.74499988556,-7.66200017929,0,0.0,-0.0,-0.0,0.0131415864453,-0.0232742000371,1.00155985355,0,0,0,0,0,78959808.0
1405448105009835809,361,1405448105009835809,ardrone_base_link,79.0,2,0,0,0,0,0,0.0,0.0,0.0,0.238000005484,-2.74399995804,-7.66300010681,0,0.0,-0.0,-0.0,0.0132456133142,-0.025634046644,1.00348246098,0,0,0,0,0,78964736.0
1405448105011249922,362,1405448105011249922,ardrone_base_link,79.0,2,0,0,0,0,0,0.0,0.0,0.0,0.237000003457,-2.74399995804,-7.66400003433,0,0.0,-0.0,-0.0,0.015942716971,-0.0277261212468,1.00049996376,0,0,0,0,0,78969792.0
1405448105012631658,363,1405448105012631658,ardrone_base_link,79.0,2,0,0,0,0,0,0.0,0.0,0.0,0.236000001431,-2.74399995804,-7.66499996185,0,0.0,-0.0,-0.0,0.0157072823495,-0.0270507521927,1.00023782253,0,0,0,0,0,78974720.0
1405448105013826923,364,1405448105013826923,ardrone_base_link,79.0,2,0,0,0,0,0,0.0,0.0,0.0,0.236000001431,-2.74399995804,-7.66599988937,0,0.0,-0.0,-0.0,0.0152978366241,-0.0267027430236,1.00097727776,0,0,0,0,0,78979696.0
1405448105016322782,365,1405448105016322782,ardrone_base_link,79.0,2,0,0,0,0,0,0.0,0.0,0.0,0.236000001431,-2.74399995804,-7.66699981689,0,0.0,-0.0,-0.0,0.0153952362016,-0.02675101161,0.998284399509,0,0,0,0,0,78984688.0
1405448105018889168,366,1405448105018889168,ardrone_base_link,79.0,2,0,0,0,0,0,0.0,0.0,0.0,0.236000001431,-2.74399995804,-7.66800022125,0,0.0,-0.0,-0.0,0.0153245031834,-0.0267234705389,0.998425364494,0,0,0,0,0,78989848.0
1405448105020184867,367,1405448105020184867,ardrone_base_link,79.0,2,0,0,0,0,0,0.0,0.0,0.0,0.234999999404,-2.74399995804,-7.66900014877,0,0.0,-0.0,-0.0,0.0153335267678,-0.0268188882619,0.998923659325,0,0,0,0,0,78995008.0
1405448105021391220,368,1405448105021391220,ardrone_base_link,79.0,2,0,0,0,0,0,0.0,0.0,0.0,0.232999995351,-2.74399995804,-7.66900014877,0,0.0,-0.0,-0.0,0.0152511224151,-0.0269018672407,0.998712003231,0,0,0,0,0,79000040.0
1405448105023078361,369,1405448105023078361,ardrone_base_link,79.0,2,0,0,0,0,0,0.0,0.0,0.0,0.232999995351,-2.74300003052,-7.67000007629,0,0.0,-0.0,-0.0,0.0152232339606,-0.0270114224404,0.998784005642,0,0,0,0,0,79004640.0
1405448105024264841,370,1405448105024264841,ardrone_base_link,79.0,2,0,0,0,0,0,0.0,0.0,0.0,0.231999993324,-2.74300003052,-7.67100000381,0,0.0,-0.0,-0.0,0.0151848271489,-0.0270456764847,0.998736858368,0,0,0,0,0,79009616.0
1405448105025718559,371,1405448105025718559,ardrone_base_link,79.0,2,0,0,0,0,0,0.0,0.0,0.0,0.231999993324,-2.74300003052,-7.67199993134,0,0.0,-0.0,-0.0,0.0151626579463,-0.0270130112767,0.998776197433,0,0,0,0,0,79015168.0
1405448105027190492,372,1405448105027190492,ardrone_base_link,79.0,2,0,0,0,0,0,0.0,0.0,0.0,0.231000006199,-2.74300003052,-7.67299985886,0,0.0,-0.0,-0.0,0.0151751153171,-0.0269444007427,0.998761296272,0,0,0,0,0,79019616.0
1405448105028535831,373,1405448105028535831,ardrone_base_link,79.0,2,0,0,0,0,0,0.0,0.0,0.0,0.230000004172,-2.74300003052,-7.67399978638,0,0.0,-0.0,-0.0,0.0151977520436,-0.0268697291613,0.998756408691,0,0,0,0,0,79024920.0
1405448105029876050,374,1405448105029876050,ardrone_base_link,79.0,2,0,0,0,0,0,0.0,0.0,0.0,0.229000002146,-2.74300003052,-7.67399978638,0,0.0,-0.0,-0.0,0.0152231184766,-0.0268206689507,0.998765945435,0,0,0,0,0,79029664.0
1405448105031098798,375,1405448105031098798,ardrone_base_link,79.0,2,0,0,0,0,0,0.0,0.0,0.0,0.229000002146,-2.742000103,-7.67500019073,0,0.0,-0.0,-0.0,0.0152432294562,-0.0267980769277,0.998760342598,0,0,0,0,0,79034600.0
1405448105032479505,376,1405448105032479505,ardrone_base_link,79.0,2,0,0,0,0,0,0.0,0.0,0.0,0.228000000119,-2.742000103,-7.67600011826,0,0.0,-0.0,-0.0,0.0152554735541,-0.0267923343927,0.998761057854,0,0,0,0,0,79039568.0
1405448105033613968,377,1405448105033613968,ardrone_base_link,79.0,2,0,0,0,0,0,0.0,0.0,0.0,0.226999998093,-2.74099993706,-7.67700004578,0,0.0,-0.0,-0.0,0.0152606684715,-0.0267985835671,0.998762249947,0,0,0,0,0,79044592.0
1405448105034836445,378,1405448105034836445,ardrone_base_link,79.0,2,0,0,0,0,0,0.0,0.0,0.0,0.225999996066,-2.74000000954,-7.6779999733,0,0.0,-0.0,-0.0,0.0152613064274,-0.0268123261631,0.998761534691,0,0,0,0,0,79049592.0
1405448105037679305,379,1405448105037679305,ardrone_base_link,79.0,2,0,0,0,0,0,0.0,0.0,0.0,0.22499999404,-2.73799991608,-7.67899990082,0,0.0,-0.0,-0.0,0.0153215425089,-0.0245267488062,0.998867988586,0,0,0,0,0,79054544.0
1405448105038897474,380,1405448105038897474,ardrone_base_link,79.0,2,0,0,0,0,0,0.0,0.0,0.0,0.225999996066,-2.73699998856,-7.67999982834,0,0.0,-0.0,-0.0,0.0153134074062,-0.0222203005105,0.996584057808,0,0,0,0,0,79059536.0
1405448105040044792,381,1405448105040044792,ardrone_base_link,79.0,2,0,0,0,0,0,0.0,0.0,0.0,0.225999996066,-2.73699998856,-7.6810002327,0,0.0,-0.0,-0.0,0.0175678078085,-0.0226950179785,0.99417001009,0,0,0,0,0,79064560.0
1405448105044637446,382,1405448105044637446,ardrone_base_link,79.0,2,0,0,0,0,0,0.0,0.0,0.0,0.22499999404,-2.73799991608,-7.68200016022,0,0.0,-0.0,-0.0,0.0198967270553,-0.0229846667498,0.994694173336,0,0,0,0,0,79071328.0
1405448105045749098,383,1405448105045749098,ardrone_base_link,79.0,2,0,0,0,0,0,0.0,0.0,0.0,0.22499999404,-2.73900008202,-7.68300008774,0,0.0,-0.0,-0.0,0.0193911921233,-0.0228525772691,0.99502158165,0,0,0,0,0,79074520.0
1405448105047147759,384,1405448105047147759,ardrone_base_link,79.0,2,0,0,0,0,0,0.0,0.0,0.0,0.22499999404,-2.73900008202,-7.68400001526,0,0.0,-0.0,-0.0,0.0213846508414,-0.0228767190129,0.994803845882,0,0,0,0,0,79079584.0
1405448105048558203,385,1405448105048558203,ardrone_base_link,79.0,2,0,0,0,0,0,0.0,0.0,0.0,0.22499999404,-2.74099993706,-7.68499994278,0,0.0,-0.0,-0.0,0.0237333048135,-0.0228368006647,0.994793593884,0,0,0,0,0,79084520.0
1405448105049889216,386,1405448105049889216,ardrone_base_link,79.0,2,0,0,0,0,0,0.0,0.0,0.0,0.22499999404,-2.742000103,-7.6859998703,0,0.0,-0.0,-0.0,0.0207131430507,-0.0228840801865,0.99484950304,0,0,0,0,0,79089496.0
1405448105052537351,387,1405448105052537351,ardrone_base_link,79.0,2,0,0,0,0,0,0.0,0.0,0.0,0.224000006914,-2.74300003052,-7.68699979782,0,0.0,-0.0,-0.0,0.0180562511086,-0.0229012779891,0.994926393032,0,0,0,0,0,79094512.0
1405448105053545276,388,1405448105053545276,ardrone_base_link,79.0,2,0,0,0,0,0,0.0,0.0,0.0,0.22499999404,-2.74399995804,-7.68800020218,0,0.0,-0.0,-0.0,0.0209572631866,-0.0228711254895,0.994842648506,0,0,0,0,0,79099520.0
1405448105054694754,389,1405448105054694754,ardrone_base_link,79.0,2,0,0,0,0,0,0.0,0.0,0.0,0.224000006914,-2.74399995804,-7.68800020218,0,0.0,-0.0,-0.0,0.0210880283266,-0.02287806198,0.994840443134,0,0,0,0,0,79104472.0
1405448105056208662,390,1405448105056208662,ardrone_base_link,79.0,2,0,0,0,0,0,0.0,0.0,0.0,0.22499999404,-2.74300003052,-7.6890001297,0,0.0,-0.0,-0.0,0.0180744118989,-0.0229085441679,0.994912385941,0,0,0,0,0,79109472.0
1405448105057454103,391,1405448105057454103,ardrone_base_link,79.0,2,0,0,0,0,0,0.0,0.0,0.0,0.225999996066,-2.74300003052,-7.69000005722,0,0.0,-0.0,-0.0,0.0184141155332,-0.0252609439194,0.99718439579,0,0,0,0,0,79114496.0
1405448105058752773,392,1405448105058752773,ardrone_base_link,79.0,2,0,0,0,0,0,0.0,0.0,0.0,0.226999998093,-2.74300003052,-7.69099998474,0,0.0,-0.0,-0.0,0.0189881343395,-0.0275737792253,0.999405264854,0,0,0,0,0,79119456.0
1405448105303172419,393,1405448105303172419,ardrone_base_link,79.0,2,0,0,0,0,0,0.0,0.0,0.0,0.225999996066,-2.74300003052,-7.76800012589,0,0.0,-0.0,-0.0,0.0150615982711,-0.024559462443,0.999016404152,0,0,0,0,0,79528888.0
1405448105305642460,394,1405448105305642460,ardrone_base_link,79.0,2,0,0,0,0,0,0.0,0.0,0.0,0.225999996066,-2.74300003052,-7.76900005341,0,0.0,-0.0,-0.0,0.0151528036222,-0.0221784152091,0.998852610588,0,0,0,0,0,79533848.0
1405448105306521574,395,1405448105306521574,ardrone_base_link,79.0,2,0,0,0,0,0,0.0,0.0,0.0,0.226999998093,-2.74399995804,-7.76999998093,0,0.0,-0.0,-0.0,0.0152072682977,-0.0226838644594,0.998967111111,0,0,0,0,0,79538824.0
1405448105308062205,396,1405448105308062205,ardrone_base_link,79.0,2,0,0,0,0,0,0.0,0.0,0.0,0.228000000119,-2.74399995804,-7.77099990845,0,0.0,-0.0,-0.0,0.0152484476566,-0.022956782952,0.998948514462,0,0,0,0,0,79543864.0
1405448105309350972,397,1405448105309350972,ardrone_base_link,79.0,2,0,0,0,0,0,0.0,0.0,0.0,0.230000004172,-2.74499988556,-7.77199983597,0,0.0,-0.0,-0.0,0.017541019246,-0.0204471219331,0.996609151363,0,0,0,0,0,79548824.0
1405448105310583888,398,1405448105310583888,ardrone_base_link,79.0,2,0,0,0,0,0,0.0,0.0,0.0,0.231999993324,-2.74499988556,-7.77299976349,0,0.0,-0.0,-0.0,0.0174561981112,-0.018295885995,0.994360327721,0,0,0,0,0,79554248.0
1405448105312090069,399,1405448105312090069,ardrone_base_link,79.0,2,0,0,0,0,0,0.0,0.0,0.0,0.233999997377,-2.7460000515,-7.77400016785,0,0.0,-0.0,-0.0,0.0145882116631,-0.0213531702757,0.994904279709,0,0,0,0,0,79559152.0
1405448105313102954,400,1405448105313102954,ardrone_base_link,79.0,2,0,0,0,0,0,0.0,0.0,0.0,0.234999999404,-2.74499988556,-7.77500009537,0,0.0,-0.0,-0.0,0.0125933056697,-0.0241676047444,0.997518539429,0,0,0,0,0,79564000.0
1405448105314465483,401,1405448105314465483,ardrone_base_link,79.0,2,0,0,0,0,0,0.0,0.0,0.0,0.236000001431,-2.74300003052,-7.77600002289,0,0.0,-0.0,-0.0,0.0109039768577,-0.0236385948956,0.999757349491,0,0,0,0,0,79570056.0
1405448105316043972,402,1405448105316043972,ardrone_base_link,79.0,2,0,0,0,0,0,0.0,0.0,0.0,0.236000001431,-2.74099993706,-7.77699995041,0,0.0,-0.0,-0.0,0.0112697128206,-0.0234485510737,0.999220013618,0,0,0,0,0,79573816.0
1405448105317104372,403,1405448105317104372,ardrone_base_link,79.0,2,0,0,0,0,0,0.0,0.0,0.0,0.234999999404,-2.74000000954,-7.77799987793,0,0.0,-0.0,-0.0,0.011645889841,-0.0235983245075,0.998886048794,0,0,0,0,0,79578864.0
1405448105318731083,404,1405448105318731083,ardrone_base_link,79.0,2,0,0,0,0,0,0.0,0.0,0.0,0.234999999404,-2.74000000954,-7.77899980545,0,0.0,-0.0,-0.0,0.0138376187533,-0.02346618101,0.999025940895,0,0,0,0,0,79583776.0
1405448105324919456,405,1405448105324919456,ardrone_base_link,79.0,2,0,0,0,0,0,0.0,0.0,0.0,0.234999999404,-2.74000000954,-7.78000020981,0,0.0,-0.0,-0.0,0.0140307852998,-0.0233625099063,1.00135672092,0,0,0,0,0,79588888.0
1405448105326012632,406,1405448105326012632,ardrone_base_link,79.0,2,0,0,0,0,0,0.0,0.0,0.0,0.234999999404,-2.74000000954,-7.78100013733,0,0.0,-0.0,-0.0,0.0112813506275,-0.0255312416703,1.00366342068,0,0,0,0,0,79593808.0
1405448105327405805,407,1405448105327405805,ardrone_base_link,79.0,2,0,0,0,0,0,0.0,0.0,0.0,0.233999997377,-2.74000000954,-7.78200006485,0,0.0,-0.0,-0.0,0.0138471601531,-0.0252316687256,1.00300180912,0,0,0,0,0,79598784.0
1405448105328659915,408,1405448105328659915,ardrone_base_link,79.0,2,0,0,0,0,0,0.0,0.0,0.0,0.233999997377,-2.74000000954,-7.78299999237,0,0.0,-0.0,-0.0,0.0165294017643,-0.0222100857645,1.00277447701,0,0,0,0,0,79603824.0
1405448105330031151,409,1405448105330031151,ardrone_base_link,79.0,2,0,0,0,0,0,0.0,0.0,0.0,0.232999995351,-2.73900008202,-7.78399991989,0,0.0,-0.0,-0.0,0.0155789433047,-0.0247157532722,1.00284147263,0,0,0,0,0,79608768.0
1405448105331270836,410,1405448105331270836,ardrone_base_link,79.0,2,0,0,0,0,0,0.0,0.0,0.0,0.232999995351,-2.73900008202,-7.78499984741,0,0.0,-0.0,-0.0,0.0174583643675,-0.0273973084986,1.00261974335,0,0,0,0,0,79613752.0
1405448105334082233,411,1405448105334082233,ardrone_base_link,79.0,2,0,0,0,0,0,0.0,0.0,0.0,0.233999997377,-2.74000000954,-7.78599977493,0,0.0,-0.0,-0.0,0.0197038501501,-0.0265864785761,1.0002259016,0,0,0,0,0,79618704.0
1405448105335268191,412,1405448105335268191,ardrone_base_link,79.0,2,0,0,0,0,0,0.0,0.0,0.0,0.234999999404,-2.74099993706,-7.78700017929,0,0.0,-0.0,-0.0,0.0190393868834,-0.0263920966536,0.997896075249,0,0,0,0,0,79623688.0
1405448105336434551,413,1405448105336434551,ardrone_base_link,79.0,2,0,0,0,0,0,0.0,0.0,0.0,0.237000003457,-2.742000103,-7.78800010681,0,0.0,-0.0,-0.0,0.0165479108691,-0.0244333315641,0.998659908772,0,0,0,0,0,79628736.0
1405448105337739438,414,1405448105337739438,ardrone_base_link,79.0,2,0,0,0,0,0,0.0,0.0,0.0,0.238000005484,-2.742000103,-7.78900003433,0,0.0,-0.0,-0.0,0.0145023632795,-0.0247014462948,0.999010980129,0,0,0,0,0,79633680.0
1405448105339227807,415,1405448105339227807,ardrone_base_link,79.0,2,0,0,0,0,0,0.0,0.0,0.0,0.238000005484,-2.742000103,-7.78999996185,0,0.0,-0.0,-0.0,0.0150063885376,-0.0276981070638,0.998694419861,0,0,0,0,0,79638680.0
1405448105340550399,416,1405448105340550399,ardrone_base_link,79.0,2,0,0,0,0,0,0.0,0.0,0.0,0.238000005484,-2.74099993706,-7.78999996185,0,0.0,-0.0,-0.0,0.0153182921931,-0.0275720059872,0.99874907732,0,0,0,0,0,79643720.0
1405448105341578284,417,1405448105341578284,ardrone_base_link,79.0,2,0,0,0,0,0,0.0,0.0,0.0,0.238000005484,-2.74099993706,-7.79099988937,0,0.0,-0.0,-0.0,0.0151902595535,-0.0249276477844,0.998868703842,0,0,0,0,0,79648680.0
1405448105343159524,418,1405448105343159524,ardrone_base_link,79.0,2,0,0,0,0,0,0.0,0.0,0.0,0.238000005484,-2.74099993706,-7.79199981689,0,0.0,-0.0,-0.0,0.0152087789029,-0.0228038039058,0.996591627598,0,0,0,0,0,79653680.0
1405448105345910515,419,1405448105345910515,ardrone_base_link,79.0,2,0,0,0,0,0,0.0,0.0,0.0,0.238000005484,-2.74099993706,-7.79300022125,0,0.0,-0.0,-0.0,0.0150592178106,-0.0254423860461,0.994112849236,0,0,0,0,0,79658640.0
1405448105347055232,420,1405448105347055232,ardrone_base_link,79.0,2,0,0,0,0,0,0.0,0.0,0.0,0.238000005484,-2.74099993706,-7.79400014877,0,0.0,-0.0,-0.0,0.0150715680793,-0.0278505645692,0.994584798813,0,0,0,0,0,79663664.0
1405448105348734435,421,1405448105348734435,ardrone_base_link,79.0,2,0,0,0,0,0,0.0,0.0,0.0,0.238999992609,-2.74099993706,-7.79500007629,0,0.0,-0.0,-0.0,0.0151353459805,-0.0268872212619,0.994931459427,0,0,0,0,0,79668680.0
1405448105349661465,422,1405448105349661465,ardrone_base_link,79.0,2,0,0,0,0,0,0.0,0.0,0.0,0.238999992609,-2.742000103,-7.79600000381,0,0.0,-0.0,-0.0,0.015162082389,-0.02646160312,0.994769096375,0,0,0,0,0,79673616.0
1405448105353767437,423,1405448105353767437,ardrone_base_link,79.0,2,0,0,0,0,0,0.0,0.0,0.0,0.238999992609,-2.742000103,-7.79699993134,0,0.0,-0.0,-0.0,0.0151551868767,-0.0265044048429,0.994807422161,0,0,0,0,0,79678632.0
1405448105354670550,424,1405448105354670550,ardrone_base_link,79.0,2,0,0,0,0,0,0.0,0.0,0.0,0.238999992609,-2.742000103,-7.79799985886,0,0.0,-0.0,-0.0,0.0151121215895,-0.0264480933547,0.994799375534,0,0,0,0,0,79683632.0
1405448105356427796,425,1405448105356427796,ardrone_base_link,79.0,2,0,0,0,0,0,0.0,0.0,0.0,0.238000005484,-2.74300003052,-7.79899978638,0,0.0,-0.0,-0.0,0.0150591703132,-0.0264967549592,0.994816720486,0,0,0,0,0,79688624.0
1405448105357520875,426,1405448105357520875,ardrone_base_link,79.0,2,0,0,0,0,0,0.0,0.0,0.0,0.237000003457,-2.74300003052,-7.80000019073,0,0.0,-0.0,-0.0,0.0150983212516,-0.0266250111163,0.997192203999,0,0,0,0,0,79694856.0
1405448105361345911,427,1405448105361345911,ardrone_base_link,79.0,2,0,0,0,0,0,0.0,0.0,0.0,0.237000003457,-2.74300003052,-7.80100011826,0,0.0,-0.0,-0.0,0.0151545628905,-0.0267775729299,0.999528884888,0,0,0,0,0,79698608.0
1405448105362458676,428,1405448105362458676,ardrone_base_link,79.0,2,0,0,0,0,0,0.0,0.0,0.0,0.236000001431,-2.74300003052,-7.80200004578,0,0.0,-0.0,-0.0,0.0151265496388,-0.0267978236079,0.998943448067,0,0,0,0,0,79703592.0
1405448105363816162,429,1405448105363816162,ardrone_base_link,79.0,2,0,0,0,0,0,0.0,0.0,0.0,0.234999999404,-2.74399995804,-7.8029999733,0,0.0,-0.0,-0.0,0.0151251871139,-0.0267960783094,0.998633027077,0,0,0,0,0,79708768.0
1405448105365164991,430,1405448105365164991,ardrone_base_link,79.0,2,0,0,0,0,0,0.0,0.0,0.0,0.234999999404,-2.74399995804,-7.80399990082,0,0.0,-0.0,-0.0,0.0151527449489,-0.0267893653363,0.998803734779,0,0,0,0,0,79713584.0
1405448105366910706,431,1405448105366910706,ardrone_base_link,79.0,2,0,0,0,0,0,0.0,0.0,0.0,0.234999999404,-2.74300003052,-7.80499982834,0,0.0,-0.0,-0.0,0.0152656072751,-0.0268257092685,1.00114870071,0,0,0,0,0,79718568.0
1405448105367747521,432,1405448105367747521,ardrone_base_link,79.0,2,0,0,0,0,0,0.0,0.0,0.0,0.234999999404,-2.74300003052,-7.8060002327,0,0.0,-0.0,-0.0,0.0153803443536,-0.0268701408058,1.00349318981,0,0,0,0,0,79723600.0
1405448105379623246,433,1405448105379623246,ardrone_base_link,79.0,2,0,0,0,0,0,0.0,0.0,0.0,0.233999997377,-2.742000103,-7.80800008774,0,0.0,-0.0,-0.0,0.0154203698039,-0.0268854908645,1.00259327888,0,0,0,0,0,79733568.0
1405448105380986704,434,1405448105380986704,ardrone_base_link,79.0,2,0,0,0,0,0,0.0,0.0,0.0,0.233999997377,-2.74300003052,-7.80800008774,0,0.0,-0.0,-0.0,0.0154714426026,-0.0269510410726,1.00276005268,0,0,0,0,0,79738544.0
1405448105382194506,435,1405448105382194506,ardrone_base_link,79.0,2,0,0,0,0,0,0.0,0.0,0.0,0.233999997377,-2.74300003052,-7.80900001526,0,0.0,-0.0,-0.0,0.0155068002641,-0.0270178038627,1.00271236897,0,0,0,0,0,79743568.0
1405448105383446773,436,1405448105383446773,ardrone_base_link,79.0,2,0,0,0,0,0,0.0,0.0,0.0,0.232999995351,-2.74399995804,-7.80999994278,0,0.0,-0.0,-0.0,0.01781710051,-0.0270420443267,1.00267314911,0,0,0,0,0,79748544.0
1405448105419276560,437,1405448105419276560,ardrone_base_link,79.0,2,0,0,0,0,0,0.0,0.0,0.0,0.231999993324,-2.74399995804,-7.8109998703,0,0.0,-0.0,-0.0,0.0199472103268,-0.0269719548523,1.00021290779,0,0,0,0,0,79754072.0
1405448105428502551,438,1405448105428502551,ardrone_base_link,79.0,2,0,0,0,0,0,0.0,0.0,0.0,0.231000006199,-2.74399995804,-7.81199979782,0,0.0,-0.0,-0.0,0.0192338973284,-0.026906453073,0.997905552387,0,0,0,0,0,79758744.0
1405448105430013134,439,1405448105430013134,ardrone_base_link,79.0,2,0,0,0,0,0,0.0,0.0,0.0,0.231000006199,-2.74300003052,-7.81300020218,0,0.0,-0.0,-0.0,0.0165972709656,-0.0269128475338,0.998552083969,0,0,0,0,0,79763600.0
1405448105431467572,440,1405448105431467572,ardrone_base_link,79.0,2,0,0,0,0,0,0.0,0.0,0.0,0.231000006199,-2.74300003052,-7.8140001297,0,0.0,-0.0,-0.0,0.0168514549732,-0.0245520956814,0.998956859112,0,0,0,0,0,79768568.0
1405448105432835758,441,1405448105432835758,ardrone_base_link,79.0,2,0,0,0,0,0,0.0,0.0,0.0,0.231999993324,-2.742000103,-7.81500005722,0,0.0,-0.0,-0.0,0.01739882119,-0.0222239270806,0.998883843422,0,0,0,0,0,79773536.0
1405448105433863555,442,1405448105433863555,ardrone_base_link,79.0,2,0,0,0,0,0,0.0,0.0,0.0,0.231999993324,-2.742000103,-7.81599998474,0,0.0,-0.0,-0.0,0.0149437850341,-0.0227784365416,0.998959064484,0,0,0,0,0,79778496.0
1405448105435166900,443,1405448105435166900,ardrone_base_link,79.0,2,0,0,0,0,0,0.0,0.0,0.0,0.231999993324,-2.74099993706,-7.81699991226,0,0.0,-0.0,-0.0,0.0151006253436,-0.0230687111616,0.998932421207,0,0,0,0,0,79783992.0
1405448105436564927,444,1405448105436564927,ardrone_base_link,79.0,2,0,0,0,0,0,0.0,0.0,0.0,0.231000006199,-2.74000000954,-7.81799983978,0,0.0,-0.0,-0.0,0.0156636442989,-0.0229299087077,0.998946845531,0,0,0,0,0,79788552.0
1405448105437641129,445,1405448105437641129,ardrone_base_link,79.0,2,0,0,0,0,0,0.0,0.0,0.0,0.231999993324,-2.73900008202,-7.8189997673,0,0.0,-0.0,-0.0,0.0154475197196,-0.0230121426284,0.99893540144,0,0,0,0,0,79793976.0
1405448105439024121,446,1405448105439024121,ardrone_base_link,79.0,2,0,0,0,0,0,0.0,0.0,0.0,0.232999995351,-2.73799991608,-7.82000017166,0,0.0,-0.0,-0.0,0.0154941082001,-0.0230249688029,0.998937129974,0,0,0,0,0,79798768.0
1405448105517469464,447,1405448105517469464,ardrone_base_link,79.0,2,0,0,0,0,0,0.0,0.0,0.0,0.233999997377,-2.73900008202,-7.82100009918,0,0.0,-0.0,-0.0,0.0154347158968,-0.0230541881174,0.998941063881,0,0,0,0,0,79803472.0
1405448105518431123,448,1405448105518431123,ardrone_base_link,79.0,2,0,0,0,0,0,0.0,0.0,0.0,0.233999997377,-2.73900008202,-7.8220000267,0,0.0,-0.0,-0.0,0.0154456878081,-0.0230596400797,0.998937368393,0,0,0,0,0,79808640.0
1405448105519717308,449,1405448105519717308,ardrone_base_link,79.0,2,0,0,0,0,0,0.0,0.0,0.0,0.233999997377,-2.74000000954,-7.82299995422,0,0.0,-0.0,-0.0,0.0153395915404,-0.0254025831819,0.998831927776,0,0,0,0,0,79814200.0
1405448105520984999,450,1405448105520984999,ardrone_base_link,79.0,2,0,0,0,0,0,0.0,0.0,0.0,0.233999997377,-2.74099993706,-7.82399988174,0,0.0,-0.0,-0.0,0.017421413213,-0.0276106279343,0.996286511421,0,0,0,0,0,79819904.0
1405448105522255792,451,1405448105522255792,ardrone_base_link,79.0,2,0,0,0,0,0,0.0,0.0,0.0,0.232999995351,-2.74099993706,-7.82499980927,0,0.0,-0.0,-0.0,0.0172007288784,-0.027016453445,0.993978142738,0,0,0,0,0,79823448.0
1405448105523486024,452,1405448105523486024,ardrone_base_link,79.0,2,0,0,0,0,0,0.0,0.0,0.0,0.231999993324,-2.74099993706,-7.82600021362,0,0.0,-0.0,-0.0,0.0142998443916,-0.0267802197486,0.994646131992,0,0,0,0,0,79829216.0
1405448105527672619,453,1405448105527672619,ardrone_base_link,79.0,2,0,0,0,0,0,0.0,0.0,0.0,0.231000006199,-2.74099993706,-7.82700014114,0,0.0,-0.0,-0.0,0.014500098303,-0.0269114691764,0.994939088821,0,0,0,0,0,79833888.0
