%time,field.header.seq,field.header.stamp,field.header.frame_id,field.batteryPercent,field.state,field.magX,field.magY,field.magZ,field.pressure,field.temp,field.wind_speed,field.wind_angle,field.wind_comp_angle,field.rotX,field.rotY,field.rotZ,field.altd,field.vx,field.vy,field.vz,field.ax,field.ay,field.az,field.motor1,field.motor2,field.motor3,field.motor4,field.tags_count,field.tm
1405689274962949643,0,1405689274962949643,ardrone_base_link,42.0,2,0,0,0,0,0,0.0,0.0,0.0,-0.412999987602,1.38900005817,8.77999973297,0,0.0,-0.0,-0.0,-0.0227746684104,-0.0273516476154,0.999517798424,0,0,0,0,0,836269248.0
1405689274963289920,1,1405689274963289920,ardrone_base_link,42.0,2,0,0,0,0,0,0.0,0.0,0.0,-0.412999987602,1.38999998569,8.77999973297,0,0.0,-0.0,-0.0,-0.0227699819952,-0.0273542087525,0.999669194221,0,0,0,0,0,836274176.0
1405689274963662822,2,1405689274963662822,ardrone_base_link,42.0,2,0,0,0,0,0,0.0,0.0,0.0,-0.412000000477,1.38999998569,8.77999973297,0,0.0,-0.0,-0.0,-0.0228146538138,-0.0273716989905,0.999639153481,0,0,0,0,0,836279744.0
1405689274966010170,3,1405689274966010170,ardrone_base_link,42.0,2,0,0,0,0,0,0.0,0.0,0.0,-0.412000000477,1.39100003242,8.77999973297,0,0.0,-0.0,-0.0,-0.0228218398988,-0.0273848567158,0.999645531178,0,0,0,0,0,836284224.0
1405689274971709169,4,1405689274971709169,ardrone_base_link,42.0,2,0,0,0,0,0,0.0,0.0,0.0,-0.412000000477,1.39100003242,8.77999973297,0,0.0,-0.0,-0.0,-0.0206217113882,-0.0296582598239,0.999464094639,0,0,0,0,0,836289600.0
1405689274975974638,5,1405689274975974638,ardrone_base_link,42.0,2,0,0,0,0,0,0.0,0.0,0.0,-0.412000000477,1.39100003242,8.78100013733,0,0.0,-0.0,-0.0,-0.0207397397608,-0.0318994447589,0.999378681183,0,0,0,0,0,836294272.0
1405689274980783479,6,1405689274980783479,ardrone_base_link,42.0,2,0,0,0,0,0,0.0,0.0,0.0,-0.412999987602,1.39100003242,8.78100013733,0,0.0,-0.0,-0.0,-0.0212449431419,-0.0313176251948,0.999413311481,0,0,0,0,0,836299264.0
1405689274985534506,7,1405689274985534506,ardrone_base_link,42.0,2,0,0,0,0,0,0.0,0.0,0.0,-0.412999987602,1.39199995995,8.78199958801,0,0.0,-0.0,-0.0,-0.0209670159966,-0.0286881998181,0.999524652958,0,0,0,0,0,836304192.0
1405689274990579553,8,1405689274990579553,ardrone_base_link,42.0,2,0,0,0,0,0,0.0,0.0,0.0,-0.412000000477,1.39199995995,8.78299999237,0,0.0,-0.0,-0.0,-0.0233219321817,-0.0288935732096,0.999572515488,0,0,0,0,0,836309184.0
1405689274996761731,9,1405689274996761731,ardrone_base_link,42.0,2,0,0,0,0,0,0.0,0.0,0.0,-0.411000013351,1.39300000668,8.78299999237,0,0.0,-0.0,-0.0,-0.023313280195,-0.0316257663071,0.999441146851,0,0,0,0,0,836314688.0
1405689275010033543,10,1405689275010033543,ardrone_base_link,42.0,2,0,0,0,0,0,0.0,0.0,0.0,-0.409000009298,1.39300000668,8.78400039673,0,0.0,-0.0,-0.0,-0.0227330569178,-0.0290484409779,0.999547839165,0,0,0,0,0,836319488.0
1405689275010565060,11,1405689275010565060,ardrone_base_link,42.0,2,0,0,0,0,0,0.0,0.0,0.0,-0.407999992371,1.39400005341,8.78400039673,0,0.0,-0.0,-0.0,-0.0228932201862,-0.0263716839254,0.999680399895,0,0,0,0,0,836324800.0
1405689275011539503,12,1405689275011539503,ardrone_base_link,42.0,2,0,0,0,0,0,0.0,0.0,0.0,-0.407000005245,1.39400005341,8.78400039673,0,0.0,-0.0,-0.0,-0.0205234419554,-0.0272287875414,0.999589383602,0,0,0,0,0,836329280.0
1405689275015946156,13,1405689275015946156,ardrone_base_link,42.0,2,0,0,0,0,0,0.0,0.0,0.0,-0.407000005245,1.39400005341,8.78499984741,0,0.0,-0.0,-0.0,-0.0184090733528,-0.027508739382,0.997137665749,0,0,0,0,0,836334208.0
1405689275021909016,14,1405689275021909016,ardrone_base_link,42.0,2,0,0,0,0,0,0.0,0.0,0.0,-0.407000005245,1.39499998093,8.78600025177,0,0.0,-0.0,-0.0,-0.0190280340612,-0.0274172127247,0.99482178688,0,0,0,0,0,836339200.0
1405689275025693544,15,1405689275025693544,ardrone_base_link,42.0,2,0,0,0,0,0,0.0,0.0,0.0,-0.405999988317,1.39499998093,8.78600025177,0,0.0,-0.0,-0.0,-0.0193112902343,-0.0274739023298,0.995417952538,0,0,0,0,0,836344192.0
1405689275030480953,16,1405689275030480953,ardrone_base_link,42.0,2,0,0,0,0,0,0.0,0.0,0.0,-0.404000014067,1.39499998093,8.78699970245,0,0.0,-0.0,-0.0,-0.0168347284198,-0.0273812767118,0.995667994022,0,0,0,0,0,836349248.0
1405689275036841949,17,1405689275036841949,ardrone_base_link,42.0,2,0,0,0,0,0,0.0,0.0,0.0,-0.402000010014,1.39499998093,8.78800010681,0,0.0,-0.0,-0.0,-0.0145179433748,-0.0273025371134,0.997835695744,0,0,0,0,0,836355456.0
1405689275042170904,18,1405689275042170904,ardrone_base_link,42.0,2,0,0,0,0,0,0.0,0.0,0.0,-0.400999993086,1.39400005341,8.78800010681,0,0.0,-0.0,-0.0,-0.0150445066392,-0.0271749272943,0.997839570045,0,0,0,0,0,836359232.0
1405689275051842480,19,1405689275051842480,ardrone_base_link,42.0,2,0,0,0,0,0,0.0,0.0,0.0,-0.400999993086,1.39300000668,8.78800010681,0,0.0,-0.0,-0.0,-0.0175826791674,-0.0294079221785,0.995154559612,0,0,0,0,0,836369216.0
1405689275059953271,20,1405689275059953271,ardrone_base_link,42.0,2,0,0,0,0,0,0.0,0.0,0.0,-0.400999993086,1.39300000668,8.78800010681,0,0.0,-0.0,-0.0,-0.0197950918227,-0.0295026507229,0.998060524464,0,0,0,0,0,836374208.0
1405689275085193127,21,1405689275085193127,ardrone_base_link,42.0,2,0,0,0,0,0,0.0,0.0,0.0,-0.400999993086,1.39300000668,8.78800010681,0,0.0,-0.0,-0.0,-0.0191323459148,-0.0267645642161,1.00030243397,0,0,0,0,0,836379264.0
1405689275085726765,22,1405689275085726765,ardrone_base_link,42.0,2,0,0,0,0,0,0.0,0.0,0.0,-0.40000000596,1.39300000668,8.78800010681,0,0.0,-0.0,-0.0,-0.0190306957811,-0.0269302297384,0.997363269329,0,0,0,0,0,836384192.0
1405689275086338889,23,1405689275086338889,ardrone_base_link,42.0,2,0,0,0,0,0,0.0,0.0,0.0,-0.40000000596,1.39300000668,8.78800010681,0,0.0,-0.0,-0.0,-0.0217015836388,-0.0295885186642,0.994617700577,0,0,0,0,0,836389248.0
1405689275086973303,24,1405689275086973303,ardrone_base_link,42.0,2,0,0,0,0,0,0.0,0.0,0.0,-0.40000000596,1.39400005341,8.78800010681,0,0.0,-0.0,-0.0,-0.0239625759423,-0.0316187441349,0.995365738869,0,0,0,0,0,836394176.0
1405689275087660704,25,1405689275087660704,ardrone_base_link,42.0,2,0,0,0,0,0,0.0,0.0,0.0,-0.400999993086,1.39499998093,8.78800010681,0,0.0,-0.0,-0.0,-0.0233940985054,-0.0310650542378,0.995623290539,0,0,0,0,0,836399552.0
1405689275088182276,26,1405689275088182276,ardrone_base_link,42.0,2,0,0,0,0,0,0.0,0.0,0.0,-0.40000000596,1.39499998093,8.78800010681,0,0.0,-0.0,-0.0,-0.0230639912188,-0.0307326521724,0.995469748974,0,0,0,0,0,836404672.0
1405689275091008173,27,1405689275091008173,ardrone_base_link,42.0,2,0,0,0,0,0,0.0,0.0,0.0,-0.40000000596,1.39600002766,8.78800010681,0,0.0,-0.0,-0.0,-0.0231659263372,-0.0286651067436,0.995605707169,0,0,0,0,0,836409152.0
1405689275095912334,28,1405689275095912334,ardrone_base_link,42.0,2,0,0,0,0,0,0.0,0.0,0.0,-0.398999989033,1.39600002766,8.78800010681,0,0.0,-0.0,-0.0,-0.0230347923934,-0.0264167189598,0.99571120739,0,0,0,0,0,836414272.0
1405689275100809401,29,1405689275100809401,ardrone_base_link,42.0,2,0,0,0,0,0,0.0,0.0,0.0,-0.398999989033,1.39699995518,8.78800010681,0,0.0,-0.0,-0.0,-0.0231645386666,-0.0292924083769,0.993205070496,0,0,0,0,0,836419200.0
1405689275106084477,30,1405689275106084477,ardrone_base_link,42.0,2,0,0,0,0,0,0.0,0.0,0.0,-0.40000000596,1.39800000191,8.78800010681,0,0.0,-0.0,-0.0,-0.0231299102306,-0.0295843556523,0.993230223656,0,0,0,0,0,836424192.0
1405689275111125333,31,1405689275111125333,ardrone_base_link,42.0,2,0,0,0,0,0,0.0,0.0,0.0,-0.398999989033,1.39800000191,8.78800010681,0,0.0,-0.0,-0.0,-0.022948179394,-0.0267279557884,0.996298849583,0,0,0,0,0,836429184.0
1405689275131323812,32,1405689275131323812,ardrone_base_link,42.0,2,0,0,0,0,0,0.0,0.0,0.0,-0.398000001907,1.39900004864,8.7889995575,0,0.0,-0.0,-0.0,-0.0229551587254,-0.0270271468908,0.996004879475,0,0,0,0,0,836434752.0
1405689275133336074,33,1405689275133336074,ardrone_base_link,42.0,2,0,0,0,0,0,0.0,0.0,0.0,-0.397000014782,1.39900004864,8.7889995575,0,0.0,-0.0,-0.0,-0.0229798872024,-0.0274279136211,0.99550318718,0,0,0,0,0,836439232.0
1405689275133423880,34,1405689275133423880,ardrone_base_link,42.0,2,0,0,0,0,0,0.0,0.0,0.0,-0.397000014782,1.39999997616,8.7889995575,0,0.0,-0.0,-0.0,-0.0230309963226,-0.0295142941177,0.995620369911,0,0,0,0,0,836444480.0
1405689275133478153,35,1405689275133478153,ardrone_base_link,42.0,2,0,0,0,0,0,0.0,0.0,0.0,-0.397000014782,1.39999997616,8.7889995575,0,0.0,-0.0,-0.0,-0.0230940226465,-0.0317851230502,0.995460689068,0,0,0,0,0,836449536.0
1405689275135729286,36,1405689275135729286,ardrone_base_link,42.0,2,0,0,0,0,0,0.0,0.0,0.0,-0.398000001907,1.40100002289,8.7889995575,0,0.0,-0.0,-0.0,-0.0207866746932,-0.0311752464622,0.995462417603,0,0,0,0,0,836454208.0
1405689275140731881,37,1405689275140731881,ardrone_base_link,42.0,2,0,0,0,0,0,0.0,0.0,0.0,-0.397000014782,1.39999997616,8.7889995575,0,0.0,-0.0,-0.0,-0.0184859912843,-0.0286037568003,0.99549728632,0,0,0,0,0,836459200.0
1405689275145506710,38,1405689275145506710,ardrone_base_link,42.0,2,0,0,0,0,0,0.0,0.0,0.0,-0.397000014782,1.39999997616,8.7889995575,0,0.0,-0.0,-0.0,-0.018920250237,-0.0265811625868,0.998013913631,0,0,0,0,0,836464192.0
1405689275150937782,39,1405689275150937782,ardrone_base_link,42.0,2,0,0,0,0,0,0.0,0.0,0.0,-0.398000001907,1.39999997616,8.7889995575,0,0.0,-0.0,-0.0,-0.0192876271904,-0.0293960478157,0.997836887836,0,0,0,0,0,836469184.0
1405689275156014236,40,1405689275156014236,ardrone_base_link,42.0,2,0,0,0,0,0,0.0,0.0,0.0,-0.398000001907,1.39999997616,8.7889995575,0,0.0,-0.0,-0.0,-0.0192927438766,-0.0318466462195,0.994782984257,0,0,0,0,0,836474176.0
1405689275197006085,41,1405689275197006085,ardrone_base_link,42.0,2,0,0,0,0,0,0.0,0.0,0.0,-0.397000014782,1.39999997616,8.7889995575,0,0.0,-0.0,-0.0,-0.0192707329988,-0.0308063048869,0.995591819286,0,0,0,0,0,836484480.0
1405689275198242660,42,1405689275198242660,ardrone_base_link,42.0,2,0,0,0,0,0,0.0,0.0,0.0,-0.395999997854,1.39999997616,8.7889995575,0,0.0,-0.0,-0.0,-0.0193841978908,-0.030871424824,0.992982685566,0,0,0,0,0,836489472.0
1405689275199719610,43,1405689275199719610,ardrone_base_link,42.0,2,0,0,0,0,0,0.0,0.0,0.0,-0.395000010729,1.39999997616,8.78999996185,0,0.0,-0.0,-0.0,-0.0194507353008,-0.0308059044182,0.990703105927,0,0,0,0,0,836494400.0
1405689275201067688,44,1405689275201067688,ardrone_base_link,42.0,2,0,0,0,0,0,0.0,0.0,0.0,-0.393999993801,1.39999997616,8.79100036621,0,0.0,-0.0,-0.0,-0.0194315761328,-0.0308939348906,0.991264641285,0,0,0,0,0,836499200.0
1405689275202230452,45,1405689275202230452,ardrone_base_link,42.0,2,0,0,0,0,0,0.0,0.0,0.0,-0.393000006676,1.39999997616,8.79199981689,0,0.0,-0.0,-0.0,-0.0194217376411,-0.0309900715947,0.991604745388,0,0,0,0,0,836504256.0
1405689275203653201,46,1405689275203653201,ardrone_base_link,42.0,2,0,0,0,0,0,0.0,0.0,0.0,-0.393000006676,1.39999997616,8.79300022125,0,0.0,-0.0,-0.0,-0.019425207749,-0.0311037227511,0.991417467594,0,0,0,0,0,836509184.0
1405689275204968513,47,1405689275204968513,ardrone_base_link,42.0,2,0,0,0,0,0,0.0,0.0,0.0,-0.391999989748,1.39999997616,8.79300022125,0,0.0,-0.0,-0.0,-0.0194250624627,-0.0311755016446,0.991460680962,0,0,0,0,0,836514240.0
1405689275206229661,48,1405689275206229661,ardrone_base_link,42.0,2,0,0,0,0,0,0.0,0.0,0.0,-0.391999989748,1.39999997616,8.79300022125,0,0.0,-0.0,-0.0,-0.0194258857518,-0.0312107522041,0.991458237171,0,0,0,0,0,836519232.0
1405689275207606607,49,1405689275207606607,ardrone_base_link,42.0,2,0,0,0,0,0,0.0,0.0,0.0,-0.393000006676,1.39999997616,8.79300022125,0,0.0,-0.0,-0.0,-0.0194257646799,-0.0312044136226,0.991471171379,0,0,0,0,0,836524224.0
1405689275212857206,50,1405689275212857206,ardrone_base_link,42.0,2,0,0,0,0,0,0.0,0.0,0.0,-0.393000006676,1.39999997616,8.79300022125,0,0.0,-0.0,-0.0,-0.0193399805576,-0.031202537939,0.993846654892,0,0,0,0,0,836529216.0
1405689275243673931,51,1405689275243673931,ardrone_base_link,42.0,2,0,0,0,0,0,0.0,0.0,0.0,-0.393999993801,1.39999997616,8.79300022125,0,0.0,-0.0,-0.0,-0.0192552581429,-0.0311462841928,0.996185302734,0,0,0,0,0,836534464.0
1405689275245569678,52,1405689275245569678,ardrone_base_link,42.0,2,0,0,0,0,0,0.0,0.0,0.0,-0.395000010729,1.39999997616,8.79300022125,0,0.0,-0.0,-0.0,-0.0192768387496,-0.0309706106782,0.995599150658,0,0,0,0,0,836539200.0
1405689275245636530,53,1405689275245636530,ardrone_base_link,42.0,2,0,0,0,0,0,0.0,0.0,0.0,-0.395999997854,1.39999997616,8.79300022125,0,0.0,-0.0,-0.0,-0.0215885769576,-0.0308229867369,0.995341300964,0,0,0,0,0,836545024.0
1405689275245824222,54,1405689275245824222,ardrone_base_link,42.0,2,0,0,0,0,0,0.0,0.0,0.0,-0.397000014782,1.40100002289,8.79300022125,0,0.0,-0.0,-0.0,-0.0238306112587,-0.0307128299028,0.995564222336,0,0,0,0,0,836549184.0
1405689275246191280,55,1405689275246191280,ardrone_base_link,42.0,2,0,0,0,0,0,0.0,0.0,0.0,-0.397000014782,1.40199995041,8.79300022125,0,0.0,-0.0,-0.0,-0.02326454781,-0.0306118950248,0.995506584644,0,0,0,0,0,836554496.0
1405689275246658979,56,1405689275246658979,ardrone_base_link,42.0,2,0,0,0,0,0,0.0,0.0,0.0,-0.398000001907,1.40199995041,8.79300022125,0,0.0,-0.0,-0.0,-0.0229684710503,-0.0305814296007,0.995509505272,0,0,0,0,0,836559232.0
1405689275249032237,57,1405689275249032237,ardrone_base_link,42.0,2,0,0,0,0,0,0.0,0.0,0.0,-0.398999989033,1.40299999714,8.79300022125,0,0.0,-0.0,-0.0,-0.0231321826577,-0.0306199099869,0.995495378971,0,0,0,0,0,836564288.0
1405689275251747542,58,1405689275251747542,ardrone_base_link,42.0,2,0,0,0,0,0,0.0,0.0,0.0,-0.398999989033,1.40299999714,8.79300022125,0,0.0,-0.0,-0.0,-0.0230890437961,-0.0307056773454,0.995508790016,0,0,0,0,0,836569280.0
1405689275256590781,59,1405689275256590781,ardrone_base_link,42.0,2,0,0,0,0,0,0.0,0.0,0.0,-0.40000000596,1.40299999714,8.79300022125,0,0.0,-0.0,-0.0,-0.023043775931,-0.0285193752497,0.995612978935,0,0,0,0,0,836574208.0
1405689275264312131,60,1405689275264312131,ardrone_base_link,42.0,2,0,0,0,0,0,0.0,0.0,0.0,-0.40000000596,1.40299999714,8.79300022125,0,0.0,-0.0,-0.0,-0.0230295732617,-0.0286839827895,0.995606124401,0,0,0,0,0,836579200.0
1405689275266817368,61,1405689275266817368,ardrone_base_link,42.0,2,0,0,0,0,0,0.0,0.0,0.0,-0.400999993086,1.40299999714,8.79300022125,0,0.0,-0.0,-0.0,-0.0230654347688,-0.0292954463512,0.995586872101,0,0,0,0,0,836584192.0
1405689275271080242,62,1405689275271080242,ardrone_base_link,42.0,2,0,0,0,0,0,0.0,0.0,0.0,-0.40000000596,1.40299999714,8.79300022125,0,0.0,-0.0,-0.0,-0.0230822339654,-0.0291447453201,0.995594918728,0,0,0,0,0,836589184.0
1405689275276822120,63,1405689275276822120,ardrone_base_link,42.0,2,0,0,0,0,0,0.0,0.0,0.0,-0.400999993086,1.40400004387,8.79300022125,0,0.0,-0.0,-0.0,-0.0208720527589,-0.0315097942948,0.995432555676,0,0,0,0,0,836594368.0
1405689275295406048,64,1405689275295406048,ardrone_base_link,42.0,2,0,0,0,0,0,0.0,0.0,0.0,-0.400999993086,1.40400004387,8.79399967194,0,0.0,-0.0,-0.0,-0.0209626127034,-0.031465370208,0.995437443256,0,0,0,0,0,836599424.0
1405689275295915174,65,1405689275295915174,ardrone_base_link,42.0,2,0,0,0,0,0,0.0,0.0,0.0,-0.400999993086,1.40499997139,8.79399967194,0,0.0,-0.0,-0.0,-0.0215654466301,-0.0309108439833,0.993084192276,0,0,0,0,0,836605760.0
1405689275296535848,66,1405689275296535848,ardrone_base_link,42.0,2,0,0,0,0,0,0.0,0.0,0.0,-0.402000010014,1.40400004387,8.79399967194,0,0.0,-0.0,-0.0,-0.0191121082753,-0.0310612600297,0.990680098534,0,0,0,0,0,836609792.0
1405689275297077264,67,1405689275297077264,ardrone_base_link,42.0,2,0,0,0,0,0,0.0,0.0,0.0,-0.402000010014,1.40400004387,8.79399967194,0,0.0,-0.0,-0.0,-0.0191420912743,-0.0310069043189,0.991276621819,0,0,0,0,0,836614208.0
1405689275301246268,68,1405689275301246268,ardrone_base_link,42.0,2,0,0,0,0,0,0.0,0.0,0.0,-0.400999993086,1.40400004387,8.79399967194,0,0.0,-0.0,-0.0,-0.0195653252304,-0.0310636814684,0.991592764854,0,0,0,0,0,836619200.0
1405689275306373087,69,1405689275306373087,ardrone_base_link,42.0,2,0,0,0,0,0,0.0,0.0,0.0,-0.40000000596,1.40400004387,8.79399967194,0,0.0,-0.0,-0.0,-0.0192983523011,-0.0310097690672,0.991419672966,0,0,0,0,0,836624192.0
1405689275311113490,70,1405689275311113490,ardrone_base_link,42.0,2,0,0,0,0,0,0.0,0.0,0.0,-0.40000000596,1.40400004387,8.79399967194,0,0.0,-0.0,-0.0,-0.0193334445357,-0.0310033615679,0.991465091705,0,0,0,0,0,836629184.0
1405689275316471125,71,1405689275316471125,ardrone_base_link,42.0,2,0,0,0,0,0,0.0,0.0,0.0,-0.40000000596,1.40299999714,8.79500007629,0,0.0,-0.0,-0.0,-0.0192853398621,-0.0310080572963,0.991453588009,0,0,0,0,0,836634240.0
1405689275321607173,72,1405689275321607173,ardrone_base_link,42.0,2,0,0,0,0,0,0.0,0.0,0.0,-0.40000000596,1.40299999714,8.79500007629,0,0.0,-0.0,-0.0,-0.0193318836391,-0.0310221780092,0.991473138332,0,0,0,0,0,836639232.0
1405689275343577088,73,1405689275343577088,ardrone_base_link,42.0,2,0,0,0,0,0,0.0,0.0,0.0,-0.400999993086,1.40199995041,8.79500007629,0,0.0,-0.0,-0.0,-0.0193544533104,-0.0310517884791,0.991458237171,0,0,0,0,0,836644928.0
1405689275344185325,74,1405689275344185325,ardrone_base_link,42.0,2,0,0,0,0,0,0.0,0.0,0.0,-0.400999993086,1.40199995041,8.79500007629,0,0.0,-0.0,-0.0,-0.0193186793476,-0.0311213210225,0.993849873543,0,0,0,0,0,836649216.0
1405689275348447975,75,1405689275348447975,ardrone_base_link,42.0,2,0,0,0,0,0,0.0,0.0,0.0,-0.400999993086,1.40199995041,8.79500007629,0,0.0,-0.0,-0.0,-0.0192233528942,-0.0312165617943,0.998577415943,0,0,0,0,0,836654272.0
1405689275348850503,76,1405689275348850503,ardrone_base_link,42.0,2,0,0,0,0,0,0.0,0.0,0.0,-0.402000010014,1.40100002289,8.79500007629,0,0.0,-0.0,-0.0,-0.0193041991442,-0.0311303660274,0.997929930687,0,0,0,0,0,836659200.0
1405689275349508811,77,1405689275349508811,ardrone_base_link,42.0,2,0,0,0,0,0,0.0,0.0,0.0,-0.402999997139,1.40100002289,8.79500007629,0,0.0,-0.0,-0.0,-0.0194550938904,-0.030955363065,0.994700431824,0,0,0,0,0,836664256.0
1405689275351684728,78,1405689275351684728,ardrone_base_link,42.0,2,0,0,0,0,0,0.0,0.0,0.0,-0.404000014067,1.39999997616,8.79500007629,0,0.0,-0.0,-0.0,-0.0194336678833,-0.030880022794,0.995152831078,0,0,0,0,0,836669632.0
1405689275355823233,79,1405689275355823233,ardrone_base_link,42.0,2,0,0,0,0,0,0.0,0.0,0.0,-0.405000001192,1.39999997616,8.79500007629,0,0.0,-0.0,-0.0,-0.0193865709007,-0.0308141354471,0.995584487915,0,0,0,0,0,836674240.0
1405689275361426516,80,1405689275361426516,ardrone_base_link,42.0,2,0,0,0,0,0,0.0,0.0,0.0,-0.405000001192,1.39999997616,8.79500007629,0,0.0,-0.0,-0.0,-0.019500810653,-0.0329836569726,0.992885768414,0,0,0,0,0,836679232.0
1405689275367123703,81,1405689275367123703,ardrone_base_link,42.0,2,0,0,0,0,0,0.0,0.0,0.0,-0.405000001192,1.39999997616,8.79500007629,0,0.0,-0.0,-0.0,-0.0219100769609,-0.0351707153022,0.990535378456,0,0,0,0,0,836684224.0
1405689275371451519,82,1405689275371451519,ardrone_base_link,42.0,2,0,0,0,0,0,0.0,0.0,0.0,-0.405000001192,1.40100002289,8.79500007629,0,0.0,-0.0,-0.0,-0.0240414422005,-0.0323712527752,0.991295099258,0,0,0,0,0,836689280.0
1405689275375957934,83,1405689275375957934,ardrone_base_link,42.0,2,0,0,0,0,0,0.0,0.0,0.0,-0.404000014067,1.40199995041,8.79500007629,0,0.0,-0.0,-0.0,-0.0233625024557,-0.029908940196,0.991736769676,0,0,0,0,0,836694208.0
1405689275393937170,84,1405689275393937170,ardrone_base_link,42.0,2,0,0,0,0,0,0.0,0.0,0.0,-0.405000001192,1.40199995041,8.79500007629,0,0.0,-0.0,-0.0,-0.0230422932655,-0.0307554136962,0.991505324841,0,0,0,0,0,836699520.0
1405689275394544534,85,1405689275394544534,ardrone_base_link,42.0,2,0,0,0,0,0,0.0,0.0,0.0,-0.405999988317,1.40299999714,8.79500007629,0,0.0,-0.0,-0.0,-0.0231643784791,-0.0311540979892,0.991544604301,0,0,0,0,0,836704768.0
1405689275395120759,86,1405689275395120759,ardrone_base_link,42.0,2,0,0,0,0,0,0.0,0.0,0.0,-0.407000005245,1.40400004387,8.79500007629,0,0.0,-0.0,-0.0,-0.0253052283078,-0.0312070380896,0.993988513947,0,0,0,0,0,836709760.0
1405689275396285607,87,1405689275396285607,ardrone_base_link,42.0,2,0,0,0,0,0,0.0,0.0,0.0,-0.407999992371,1.40499997139,8.79500007629,0,0.0,-0.0,-0.0,-0.0274772532284,-0.0313628166914,0.996386706829,0,0,0,0,0,836714368.0
1405689275400996452,88,1405689275400996452,ardrone_base_link,42.0,2,0,0,0,0,0,0.0,0.0,0.0,-0.407000005245,1.40600001812,8.79500007629,0,0.0,-0.0,-0.0,-0.0245790034533,-0.0289643406868,0.995824933052,0,0,0,0,0,836719296.0
1405689275405917777,89,1405689275405917777,ardrone_base_link,42.0,2,0,0,0,0,0,0.0,0.0,0.0,-0.407000005245,1.40600001812,8.79599952698,0,0.0,-0.0,-0.0,-0.0220377091318,-0.0265814363956,0.995567381382,0,0,0,0,0,836724224.0
1405689275412652256,90,1405689275412652256,ardrone_base_link,42.0,2,0,0,0,0,0,0.0,0.0,0.0,-0.405999988317,1.40699994564,8.79699993134,0,0.0,-0.0,-0.0,-0.0228071063757,-0.0270276609808,0.995731472969,0,0,0,0,0,836730496.0
1405689275417309509,91,1405689275417309509,ardrone_base_link,42.0,2,0,0,0,0,0,0.0,0.0,0.0,-0.405999988317,1.40699994564,8.79699993134,0,0.0,-0.0,-0.0,-0.0230982098728,-0.027254153043,0.995675265789,0,0,0,0,0,836734272.0
1405689275420910657,92,1405689275420910657,ardrone_base_link,42.0,2,0,0,0,0,0,0.0,0.0,0.0,-0.407000005245,1.40799999237,8.79699993134,0,0.0,-0.0,-0.0,-0.0230575203896,-0.0270075146109,0.993301987648,0,0,0,0,0,836739200.0
1405689275443853505,93,1405689275443853505,ardrone_base_link,42.0,2,0,0,0,0,0,0.0,0.0,0.0,-0.407000005245,1.4090000391,8.79699993134,0,0.0,-0.0,-0.0,-0.023185685277,-0.0270069167018,0.990947782993,0,0,0,0,0,836745088.0
1405689275444410749,94,1405689275444410749,ardrone_base_link,42.0,2,0,0,0,0,0,0.0,0.0,0.0,-0.405999988317,1.4090000391,8.79699993134,0,0.0,-0.0,-0.0,-0.0208753217012,-0.0270236171782,0.991499006748,0,0,0,0,0,836749248.0
1405689275445671877,95,1405689275445671877,ardrone_base_link,42.0,2,0,0,0,0,0,0.0,0.0,0.0,-0.405999988317,1.4090000391,8.79699993134,0,0.0,-0.0,-0.0,-0.0186313744634,-0.027046488598,0.991750717163,0,0,0,0,0,836754560.0
1405689275446334989,96,1405689275446334989,ardrone_base_link,42.0,2,0,0,0,0,0,0.0,0.0,0.0,-0.405000001192,1.4090000391,8.79699993134,0,0.0,-0.0,-0.0,-0.0191817693412,-0.027047328651,0.991590797901,0,0,0,0,0,836759232.0
1405689275446970529,97,1405689275446970529,ardrone_base_link,42.0,2,0,0,0,0,0,0.0,0.0,0.0,-0.405000001192,1.4090000391,8.79800033569,0,0.0,-0.0,-0.0,-0.0194738227874,-0.0270690377802,0.991645038128,0,0,0,0,0,836764288.0
1405689275450810089,98,1405689275450810089,ardrone_base_link,42.0,2,0,0,0,0,0,0.0,0.0,0.0,-0.405000001192,1.4090000391,8.79800033569,0,0.0,-0.0,-0.0,-0.019304940477,-0.0270961467177,0.991630136967,0,0,0,0,0,836769216.0
1405689275455923173,99,1405689275455923173,ardrone_base_link,42.0,2,0,0,0,0,0,0.0,0.0,0.0,-0.402999997139,1.4090000391,8.79800033569,0,0.0,-0.0,-0.0,-0.0193355809897,-0.0271281078458,0.991649150848,0,0,0,0,0,836774208.0
1405689275461508009,100,1405689275461508009,ardrone_base_link,42.0,2,0,0,0,0,0,0.0,0.0,0.0,-0.402000010014,1.4090000391,8.79899978638,0,0.0,-0.0,-0.0,-0.0192361380905,-0.0272249020636,0.994023680687,0,0,0,0,0,836779264.0
1405689275467635961,101,1405689275467635961,ardrone_base_link,42.0,2,0,0,0,0,0,0.0,0.0,0.0,-0.400999993086,1.40799999237,8.79899978638,0,0.0,-0.0,-0.0,-0.0190787538886,-0.0273772515357,0.998750269413,0,0,0,0,0,836784320.0
1405689275471250762,102,1405689275471250762,ardrone_base_link,42.0,2,0,0,0,0,0,0.0,0.0,0.0,-0.400999993086,1.40799999237,8.79899978638,0,0.0,-0.0,-0.0,-0.0190876573324,-0.0273803621531,0.998110830784,0,0,0,0,0,836789248.0
1405689275476743710,103,1405689275476743710,ardrone_base_link,42.0,2,0,0,0,0,0,0.0,0.0,0.0,-0.402000010014,1.40799999237,8.79899978638,0,0.0,-0.0,-0.0,-0.0192100144923,-0.0273144114763,0.994875967503,0,0,0,0,0,836794240.0
1405689275480940956,104,1405689275480940956,ardrone_base_link,42.0,2,0,0,0,0,0,0.0,0.0,0.0,-0.402000010014,1.40799999237,8.79899978638,0,0.0,-0.0,-0.0,-0.019112303853,-0.0274012833834,0.997718036175,0,0,0,0,0,836799296.0
1405689275487153657,105,1405689275487153657,ardrone_base_link,42.0,2,0,0,0,0,0,0.0,0.0,0.0,-0.400999993086,1.40799999237,8.79899978638,0,0.0,-0.0,-0.0,-0.0190973505378,-0.027382960543,0.998096942902,0,0,0,0,0,836804224.0
1405689275502101396,106,1405689275502101396,ardrone_base_link,42.0,2,0,0,0,0,0,0.0,0.0,0.0,-0.40000000596,1.40799999237,8.79899978638,0,0.0,-0.0,-0.0,-0.0192148890346,-0.0272272937,0.994968235493,0,0,0,0,0,836809472.0
1405689275502798689,107,1405689275502798689,ardrone_base_link,42.0,2,0,0,0,0,0,0.0,0.0,0.0,-0.40000000596,1.40799999237,8.79899978638,0,0.0,-0.0,-0.0,-0.0215053614229,-0.0271817725152,0.995340108871,0,0,0,0,0,836814336.0
1405689275504806602,108,1405689275504806602,ardrone_base_link,42.0,2,0,0,0,0,0,0.0,0.0,0.0,-0.400999993086,1.4090000391,8.79899978638,0,0.0,-0.0,-0.0,-0.0237372089177,-0.027160698548,0.995854496956,0,0,0,0,0,836819968.0
1405689275506362756,109,1405689275506362756,ardrone_base_link,42.0,2,0,0,0,0,0,0.0,0.0,0.0,-0.400999993086,1.40999996662,8.79899978638,0,0.0,-0.0,-0.0,-0.0232637561858,-0.0270574651659,0.993268072605,0,0,0,0,0,836824640.0
1405689275511169665,110,1405689275511169665,ardrone_base_link,42.0,2,0,0,0,0,0,0.0,0.0,0.0,-0.400999993086,1.40999996662,8.79899978638,0,0.0,-0.0,-0.0,-0.0229646917433,-0.0270560830832,0.993348360062,0,0,0,0,0,836829248.0
1405689275516225362,111,1405689275516225362,ardrone_base_link,42.0,2,0,0,0,0,0,0.0,0.0,0.0,-0.400999993086,1.41100001335,8.79899978638,0,0.0,-0.0,-0.0,-0.0231086891145,-0.0270739924163,0.993862330914,0,0,0,0,0,836834304.0
1405689275520987336,112,1405689275520987336,ardrone_base_link,42.0,2,0,0,0,0,0,0.0,0.0,0.0,-0.400999993086,1.41100001335,8.79899978638,0,0.0,-0.0,-0.0,-0.0209462177008,-0.0269012153149,0.988840818405,0,0,0,0,0,836839232.0
1405689275529189937,113,1405689275529189937,ardrone_base_link,42.0,2,0,0,0,0,0,0.0,0.0,0.0,-0.400999993086,1.41100001335,8.79899978638,0,0.0,-0.0,-0.0,-0.0187886916101,-0.0268039796501,0.986545145512,0,0,0,0,0,836844672.0
1405689275530813066,114,1405689275530813066,ardrone_base_link,42.0,2,0,0,0,0,0,0.0,0.0,0.0,-0.400999993086,1.41100001335,8.79899978638,0,0.0,-0.0,-0.0,-0.0193526875228,-0.0291453450918,0.987561523914,0,0,0,0,0,836849280.0
1405689275537270170,115,1405689275537270170,ardrone_base_link,42.0,2,0,0,0,0,0,0.0,0.0,0.0,-0.400999993086,1.41100001335,8.79899978638,0,0.0,-0.0,-0.0,-0.019711971283,-0.0314261987805,0.987556159496,0,0,0,0,0,836855488.0
1405689275550292698,116,1405689275550292698,ardrone_base_link,42.0,2,0,0,0,0,0,0.0,0.0,0.0,-0.40000000596,1.41100001335,8.79899978638,0,0.0,-0.0,-0.0,-0.0195361170918,-0.0309066697955,0.987475097179,0,0,0,0,0,836859456.0
1405689275550704093,117,1405689275550704093,ardrone_base_link,42.0,2,0,0,0,0,0,0.0,0.0,0.0,-0.400999993086,1.41100001335,8.79899978638,0,0.0,-0.0,-0.0,-0.0195678062737,-0.0306811518967,0.98749268055,0,0,0,0,0,836864320.0
1405689275554140430,118,1405689275554140430,ardrone_base_link,42.0,2,0,0,0,0,0,0.0,0.0,0.0,-0.400999993086,1.41100001335,8.79899978638,0,0.0,-0.0,-0.0,-0.0195100940764,-0.0286208540201,0.98761767149,0,0,0,0,0,836870080.0
1405689275555727896,119,1405689275555727896,ardrone_base_link,42.0,2,0,0,0,0,0,0.0,0.0,0.0,-0.400999993086,1.41100001335,8.79899978638,0,0.0,-0.0,-0.0,-0.0195265188813,-0.0286920275539,0.987622320652,0,0,0,0,0,836874240.0
1405689275560929218,120,1405689275560929218,ardrone_base_link,42.0,2,0,0,0,0,0,0.0,0.0,0.0,-0.400999993086,1.41100001335,8.79899978638,0,0.0,-0.0,-0.0,-0.0194937009364,-0.0316099748015,0.989860594273,0,0,0,0,0,836879232.0
1405689275566179376,121,1405689275566179376,ardrone_base_link,42.0,2,0,0,0,0,0,0.0,0.0,0.0,-0.400999993086,1.41100001335,8.79899978638,0,0.0,-0.0,-0.0,-0.0194045193493,-0.0313772670925,0.992220461369,0,0,0,0,0,836884224.0
1405689275571803371,122,1405689275571803371,ardrone_base_link,42.0,2,0,0,0,0,0,0.0,0.0,0.0,-0.402000010014,1.41100001335,8.79899978638,0,0.0,-0.0,-0.0,-0.0193320605904,-0.0309403892606,0.994039773941,0,0,0,0,0,836889216.0
1405689275576381881,123,1405689275576381881,ardrone_base_link,42.0,2,0,0,0,0,0,0.0,0.0,0.0,-0.402000010014,1.41100001335,8.79899978638,0,0.0,-0.0,-0.0,-0.019259609282,-0.0311398617923,0.996055185795,0,0,0,0,0,836894272.0
1405689275581004948,124,1405689275581004948,ardrone_base_link,42.0,2,0,0,0,0,0,0.0,0.0,0.0,-0.402999997139,1.40999996662,8.79899978638,0,0.0,-0.0,-0.0,-0.0192198995501,-0.0287179481238,0.995746314526,0,0,0,0,0,836899264.0
1405689275585944481,125,1405689275585944481,ardrone_base_link,42.0,2,0,0,0,0,0,0.0,0.0,0.0,-0.402000010014,1.4090000391,8.79899978638,0,0.0,-0.0,-0.0,-0.0192366577685,-0.0287450477481,0.995391368866,0,0,0,0,0,836904256.0
1405689275605565971,126,1405689275605565971,ardrone_base_link,42.0,2,0,0,0,0,0,0.0,0.0,0.0,-0.402999997139,1.40799999237,8.79899978638,0,0.0,-0.0,-0.0,-0.0193060245365,-0.0314945727587,0.995441913605,0,0,0,0,0,836909440.0
1405689275606187797,127,1405689275606187797,ardrone_base_link,42.0,2,0,0,0,0,0,0.0,0.0,0.0,-0.402999997139,1.40799999237,8.79899978638,0,0.0,-0.0,-0.0,-0.0193270090967,-0.0312112532556,0.995391368866,0,0,0,0,0,836914240.0
1405689275606785963,128,1405689275606785963,ardrone_base_link,42.0,2,0,0,0,0,0,0.0,0.0,0.0,-0.402000010014,1.40799999237,8.79899978638,0,0.0,-0.0,-0.0,-0.0193527955562,-0.0307445060462,0.995437026024,0,0,0,0,0,836919424.0
1405689275607368341,129,1405689275607368341,ardrone_base_link,42.0,2,0,0,0,0,0,0.0,0.0,0.0,-0.402999997139,1.40799999237,8.79899978638,0,0.0,-0.0,-0.0,-0.0193947274238,-0.0309555586427,0.995406746864,0,0,0,0,0,836924288.0
1405689275611159118,130,1405689275611159118,ardrone_base_link,42.0,2,0,0,0,0,0,0.0,0.0,0.0,-0.402999997139,1.40799999237,8.79899978638,0,0.0,-0.0,-0.0,-0.0194069668651,-0.0309491381049,0.995419204235,0,0,0,0,0,836929216.0
1405689275616018919,131,1405689275616018919,ardrone_base_link,42.0,2,0,0,0,0,0,0.0,0.0,0.0,-0.404000014067,1.4090000391,8.79899978638,0,0.0,-0.0,-0.0,-0.021771453321,-0.0309947896749,0.993083000183,0,0,0,0,0,836934272.0
1405689275622712599,132,1405689275622712599,ardrone_base_link,42.0,2,0,0,0,0,0,0.0,0.0,0.0,-0.404000014067,1.4090000391,8.79899978638,0,0.0,-0.0,-0.0,-0.0217482112348,-0.0309452358633,0.990743160248,0,0,0,0,0,836939200.0
1405689275625878770,133,1405689275625878770,ardrone_base_link,42.0,2,0,0,0,0,0,0.0,0.0,0.0,-0.404000014067,1.4090000391,8.79899978638,0,0.0,-0.0,-0.0,-0.0187564808875,-0.0310293249786,0.993659675121,0,0,0,0,0,836944256.0
1405689275633942613,134,1405689275633942613,ardrone_base_link,42.0,2,0,0,0,0,0,0.0,0.0,0.0,-0.404000014067,1.4090000391,8.79899978638,0,0.0,-0.0,-0.0,-0.0189072806388,-0.0287364143878,0.99402487278,0,0,0,0,0,836949248.0
1405689275636449720,135,1405689275636449720,ardrone_base_link,42.0,2,0,0,0,0,0,0.0,0.0,0.0,-0.402999997139,1.4090000391,8.79899978638,0,0.0,-0.0,-0.0,-0.0193920042366,-0.0263798385859,0.99104565382,0,0,0,0,0,836954240.0
1405689275668076561,136,1405689275668076561,ardrone_base_link,42.0,2,0,0,0,0,0,0.0,0.0,0.0,-0.404000014067,1.4090000391,8.79899978638,0,0.0,-0.0,-0.0,-0.0191479809582,-0.029293153435,0.993623018265,0,0,0,0,0,836959808.0
1405689275669384429,137,1405689275669384429,ardrone_base_link,42.0,2,0,0,0,0,0,0.0,0.0,0.0,-0.405000001192,1.4090000391,8.79899978638,0,0.0,-0.0,-0.0,-0.019170306623,-0.0318845622241,0.996308088303,0,0,0,0,0,836964288.0
1405689275671038429,138,1405689275671038429,ardrone_base_link,42.0,2,0,0,0,0,0,0.0,0.0,0.0,-0.405999988317,1.4090000391,8.79899978638,0,0.0,-0.0,-0.0,-0.0191792715341,-0.0311036836356,0.995556890965,0,0,0,0,0,836969216.0
1405689275672160180,139,1405689275672160180,ardrone_base_link,42.0,2,0,0,0,0,0,0.0,0.0,0.0,-0.407000005245,1.40799999237,8.79899978638,0,0.0,-0.0,-0.0,-0.0215455871075,-0.0308388825506,0.995354235172,0,0,0,0,0,836974208.0
1405689275676016976,140,1405689275676016976,ardrone_base_link,42.0,2,0,0,0,0,0,0.0,0.0,0.0,-0.407000005245,1.40799999237,8.79899978638,0,0.0,-0.0,-0.0,-0.0238085202873,-0.0309845991433,0.995542943478,0,0,0,0,0,836980736.0
1405689275677359831,141,1405689275677359831,ardrone_base_link,42.0,2,0,0,0,0,0,0.0,0.0,0.0,-0.407999992371,1.40799999237,8.79899978638,0,0.0,-0.0,-0.0,-0.0232751630247,-0.0309172030538,0.995522677898,0,0,0,0,0,836984192.0
1405689275678817221,142,1405689275678817221,ardrone_base_link,42.0,2,0,0,0,0,0,0.0,0.0,0.0,-0.407999992371,1.40799999237,8.79899978638,0,0.0,-0.0,-0.0,-0.0230287760496,-0.0308934655041,0.995505392551,0,0,0,0,0,836989184.0
1405689275680221864,143,1405689275680221864,ardrone_base_link,42.0,2,0,0,0,0,0,0.0,0.0,0.0,-0.407999992371,1.4090000391,8.79899978638,0,0.0,-0.0,-0.0,-0.0231457278132,-0.0309566874057,0.997881114483,0,0,0,0,0,836994368.0
1405689275681406326,144,1405689275681406326,ardrone_base_link,42.0,2,0,0,0,0,0,0.0,0.0,0.0,-0.407999992371,1.40999996662,8.79899978638,0,0.0,-0.0,-0.0,-0.0230554137379,-0.0310757160187,1.00023603439,0,0,0,0,0,836999232.0
1405689275686546953,145,1405689275686546953,ardrone_base_link,42.0,2,0,0,0,0,0,0.0,0.0,0.0,-0.407999992371,1.40999996662,8.79899978638,0,0.0,-0.0,-0.0,-0.0207955632359,-0.0310844928026,0.999586105347,0,0,0,0,0,837004224.0
1405689275691813904,146,1405689275691813904,ardrone_base_link,42.0,2,0,0,0,0,0,0.0,0.0,0.0,-0.409000009298,1.40999996662,8.79899978638,0,0.0,-0.0,-0.0,-0.0208967104554,-0.0310858897865,0.996888637543,0,0,0,0,0,837009216.0
1405689275696502585,147,1405689275696502585,ardrone_base_link,42.0,2,0,0,0,0,0,0.0,0.0,0.0,-0.407999992371,1.40999996662,8.79899978638,0,0.0,-0.0,-0.0,-0.0214409511536,-0.0311175975949,0.994739949703,0,0,0,0,0,837014208.0
1405689275701857589,148,1405689275701857589,ardrone_base_link,42.0,2,0,0,0,0,0,0.0,0.0,0.0,-0.407999992371,1.40999996662,8.79899978638,0,0.0,-0.0,-0.0,-0.0187683068216,-0.0288645550609,0.995331764221,0,0,0,0,0,837019264.0
1405689275706620922,149,1405689275706620922,ardrone_base_link,42.0,2,0,0,0,0,0,0.0,0.0,0.0,-0.407999992371,1.40999996662,8.79899978638,0,0.0,-0.0,-0.0,-0.0188008155674,-0.0289584677666,0.995649158955,0,0,0,0,0,837024256.0
1405689275758656425,150,1405689275758656425,ardrone_base_link,42.0,2,0,0,0,0,0,0.0,0.0,0.0,-0.407999992371,1.40999996662,8.79899978638,0,0.0,-0.0,-0.0,-0.0192892923951,-0.0294719170779,0.995449244976,0,0,0,0,0,837029184.0
1405689275782071011,151,1405689275782071011,ardrone_base_link,42.0,2,0,0,0,0,0,0.0,0.0,0.0,-0.407999992371,1.40999996662,8.79899978638,0,0.0,-0.0,-0.0,-0.019002314657,-0.0269213933498,0.995619356632,0,0,0,0,0,837034176.0
1405689275783296427,152,1405689275783296427,ardrone_base_link,42.0,2,0,0,0,0,0,0.0,0.0,0.0,-0.407999992371,1.40999996662,8.79899978638,0,0.0,-0.0,-0.0,-0.0213879141957,-0.0270100943744,0.995656251907,0,0,0,0,0,837039168.0
1405689275784485408,153,1405689275784485408,ardrone_base_link,42.0,2,0,0,0,0,0,0.0,0.0,0.0,-0.407000005245,1.41100001335,8.79899978638,0,0.0,-0.0,-0.0,-0.0236343536526,-0.0274782553315,0.995697975159,0,0,0,0,0,837044224.0
1405689275786092310,154,1405689275786092310,ardrone_base_link,42.0,2,0,0,0,0,0,0.0,0.0,0.0,-0.407000005245,1.41100001335,8.79899978638,0,0.0,-0.0,-0.0,-0.0231293812394,-0.0271864812821,0.995685279369,0,0,0,0,0,837049280.0
1405689275787257382,155,1405689275787257382,ardrone_base_link,42.0,2,0,0,0,0,0,0.0,0.0,0.0,-0.405999988317,1.41199994087,8.79899978638,0,0.0,-0.0,-0.0,-0.0228556003422,-0.027185222134,0.995676279068,0,0,0,0,0,837054272.0
1405689275788495198,156,1405689275788495198,ardrone_base_link,42.0,2,0,0,0,0,0,0.0,0.0,0.0,-0.405000001192,1.4129999876,8.79899978638,0,0.0,-0.0,-0.0,-0.0230401940644,-0.0271044932306,0.995685815811,0,0,0,0,0,837059392.0
1405689275789777607,157,1405689275789777607,ardrone_base_link,42.0,2,0,0,0,0,0,0.0,0.0,0.0,-0.404000014067,1.4129999876,8.79899978638,0,0.0,-0.0,-0.0,-0.023024816066,-0.0271390434355,0.99568015337,0,0,0,0,0,837064256.0
1405689275790963732,158,1405689275790963732,ardrone_base_link,42.0,2,0,0,0,0,0,0.0,0.0,0.0,-0.402000010014,1.41400003433,8.80000019073,0,0.0,-0.0,-0.0,-0.023037340492,-0.0271756090224,0.995682120323,0,0,0,0,0,837069248.0
1405689275820819666,159,1405689275820819666,ardrone_base_link,42.0,2,0,0,0,0,0,0.0,0.0,0.0,-0.402000010014,1.41400003433,8.80000019073,0,0.0,-0.0,-0.0,-0.0230752173811,-0.0295518431813,0.995574474335,0,0,0,0,0,837074240.0
1405689275822006245,160,1405689275822006245,ardrone_base_link,42.0,2,0,0,0,0,0,0.0,0.0,0.0,-0.402000010014,1.41499996185,8.80000019073,0,0.0,-0.0,-0.0,-0.0254381038249,-0.0319277271628,0.995522677898,0,0,0,0,0,837079232.0
1405689275823434345,161,1405689275823434345,ardrone_base_link,42.0,2,0,0,0,0,0,0.0,0.0,0.0,-0.402999997139,1.41600000858,8.80000019073,0,0.0,-0.0,-0.0,-0.025360558182,-0.031429477036,0.9955483675,0,0,0,0,0,837084352.0
1405689275824477229,162,1405689275824477229,ardrone_base_link,42.0,2,0,0,0,0,0,0.0,0.0,0.0,-0.404000014067,1.41600000858,8.80000019073,0,0.0,-0.0,-0.0,-0.0225253272802,-0.0311338212341,0.99549728632,0,0,0,0,0,837089216.0
1405689275826079678,163,1405689275826079678,ardrone_base_link,42.0,2,0,0,0,0,0,0.0,0.0,0.0,-0.405000001192,1.41700005531,8.80000019073,0,0.0,-0.0,-0.0,-0.0227971505374,-0.031282749027,0.995495855808,0,0,0,0,0,837094208.0
1405689275826594567,164,1405689275826594567,ardrone_base_link,42.0,2,0,0,0,0,0,0.0,0.0,0.0,-0.405999988317,1.41799998283,8.80000019073,0,0.0,-0.0,-0.0,-0.0233030747622,-0.0334638915956,0.995401620865,0,0,0,0,0,837099200.0
1405689275827102526,165,1405689275827102526,ardrone_base_link,42.0,2,0,0,0,0,0,0.0,0.0,0.0,-0.405999988317,1.41799998283,8.80000019073,0,0.0,-0.0,-0.0,-0.0230935458094,-0.0332906320691,0.995399177074,0,0,0,0,0,837105472.0
1405689275827837122,166,1405689275827837122,ardrone_base_link,42.0,2,0,0,0,0,0,0.0,0.0,0.0,-0.405999988317,1.41799998283,8.80000019073,0,0.0,-0.0,-0.0,-0.0207780022174,-0.0302910245955,0.995478510857,0,0,0,0,0,837109440.0
1405689275828513484,167,1405689275828513484,ardrone_base_link,42.0,2,0,0,0,0,0,0.0,0.0,0.0,-0.405999988317,1.41799998283,8.80000019073,0,0.0,-0.0,-0.0,-0.0185108110309,-0.0304419379681,0.995413303375,0,0,0,0,0,837114304.0
1405689275828989579,168,1405689275828989579,ardrone_base_link,42.0,2,0,0,0,0,0,0.0,0.0,0.0,-0.407000005245,1.41799998283,8.80099964142,0,0.0,-0.0,-0.0,-0.0191226210445,-0.0308708865196,0.995406031609,0,0,0,0,0,837119488.0
1405689275829851371,169,1405689275829851371,ardrone_base_link,42.0,2,0,0,0,0,0,0.0,0.0,0.0,-0.407000005245,1.41799998283,8.80099964142,0,0.0,-0.0,-0.0,-0.0193992760032,-0.0307049490511,0.995422363281,0,0,0,0,0,837124544.0
1405689275830394942,170,1405689275830394942,ardrone_base_link,42.0,2,0,0,0,0,0,0.0,0.0,0.0,-0.405999988317,1.41799998283,8.80099964142,0,0.0,-0.0,-0.0,-0.0190966818482,-0.0286136511713,0.997911393642,0,0,0,0,0,837129600.0
1405689275847344469,171,1405689275847344469,ardrone_base_link,42.0,2,0,0,0,0,0,0.0,0.0,0.0,-0.405000001192,1.41799998283,8.80099964142,0,0.0,-0.0,-0.0,-0.0190085638314,-0.0265062376857,1.00035297871,0,0,0,0,0,837134208.0
1405689275847841495,172,1405689275847841495,ardrone_base_link,42.0,2,0,0,0,0,0,0.0,0.0,0.0,-0.402999997139,1.41900002956,8.80099964142,0,0.0,-0.0,-0.0,-0.0213292930275,-0.0272137373686,0.999788582325,0,0,0,0,0,837139200.0
1405689275848491529,173,1405689275848491529,ardrone_base_link,42.0,2,0,0,0,0,0,0.0,0.0,0.0,-0.402999997139,1.41999995708,8.80200004578,0,0.0,-0.0,-0.0,-0.0213037561625,-0.0275708958507,0.999467551708,0,0,0,0,0,837144192.0
1405689275849055198,174,1405689275849055198,ardrone_base_link,42.0,2,0,0,0,0,0,0.0,0.0,0.0,-0.402000010014,1.42100000381,8.80300045013,0,0.0,-0.0,-0.0,-0.0208271536976,-0.02741635032,0.997244119644,0,0,0,0,0,837150016.0
1405689275849627291,175,1405689275849627291,ardrone_base_link,42.0,2,0,0,0,0,0,0.0,0.0,0.0,-0.402000010014,1.42100000381,8.80300045013,0,0.0,-0.0,-0.0,-0.0233121998608,-0.027555231005,0.997309565544,0,0,0,0,0,837154304.0
1405689275850335261,176,1405689275850335261,ardrone_base_link,42.0,2,0,0,0,0,0,0.0,0.0,0.0,-0.402000010014,1.42100000381,8.80300045013,0,0.0,-0.0,-0.0,-0.0230627395213,-0.0276320539415,1.00024199486,0,0,0,0,0,837159872.0
1405689275851006008,177,1405689275851006008,ardrone_base_link,42.0,2,0,0,0,0,0,0.0,0.0,0.0,-0.400999993086,1.42200005054,8.80300045013,0,0.0,-0.0,-0.0,-0.0226097647101,-0.0298890210688,0.999822258949,0,0,0,0,0,837164736.0
1405689275851486610,178,1405689275851486610,ardrone_base_link,42.0,2,0,0,0,0,0,0.0,0.0,0.0,-0.402000010014,1.42100000381,8.80300045013,0,0.0,-0.0,-0.0,-0.0229194182903,-0.0320222564042,0.999261498451,0,0,0,0,0,837169280.0
1405689275855936136,179,1405689275855936136,ardrone_base_link,42.0,2,0,0,0,0,0,0.0,0.0,0.0,-0.402999997139,1.42200005054,8.80300045013,0,0.0,-0.0,-0.0,-0.0229734312743,-0.0312887467444,0.997107923031,0,0,0,0,0,837174208.0
1405689275860958193,180,1405689275860958193,ardrone_base_link,42.0,2,0,0,0,0,0,0.0,0.0,0.0,-0.402999997139,1.42100000381,8.80300045013,0,0.0,-0.0,-0.0,-0.0231716986746,-0.0308338087052,0.994729220867,0,0,0,0,0,837179264.0
1405689275866064092,181,1405689275866064092,ardrone_base_link,42.0,2,0,0,0,0,0,0.0,0.0,0.0,-0.402999997139,1.42100000381,8.80300045013,0,0.0,-0.0,-0.0,-0.0232010185719,-0.0309382025152,0.99534201622,0,0,0,0,0,837184256.0
1405689275915338335,182,1405689275915338335,ardrone_base_link,42.0,2,0,0,0,0,0,0.0,0.0,0.0,-0.402999997139,1.42200005054,8.80300045013,0,0.0,-0.0,-0.0,-0.0232736505568,-0.0308663733304,0.995617687702,0,0,0,0,0,837189440.0
1405689275916405497,183,1405689275916405497,ardrone_base_link,42.0,2,0,0,0,0,0,0.0,0.0,0.0,-0.402999997139,1.42299997807,8.80300045013,0,0.0,-0.0,-0.0,-0.0233285240829,-0.0308692660183,0.995464622974,0,0,0,0,0,837194432.0
1405689275917829181,184,1405689275917829181,ardrone_base_link,42.0,2,0,0,0,0,0,0.0,0.0,0.0,-0.404000014067,1.4240000248,8.80300045013,0,0.0,-0.0,-0.0,-0.0233201906085,-0.0308796986938,0.995511233807,0,0,0,0,0,837199232.0
1405689275919110235,185,1405689275919110235,ardrone_base_link,42.0,2,0,0,0,0,0,0.0,0.0,0.0,-0.404000014067,1.4240000248,8.80300045013,0,0.0,-0.0,-0.0,-0.0232228301466,-0.028640171513,0.995599627495,0,0,0,0,0,837204224.0
1405689275920394583,186,1405689275920394583,ardrone_base_link,42.0,2,0,0,0,0,0,0.0,0.0,0.0,-0.402999997139,1.4240000248,8.80300045013,0,0.0,-0.0,-0.0,-0.0232227947563,-0.0286749843508,0.993231415749,0,0,0,0,0,837209408.0
1405689275921772071,187,1405689275921772071,ardrone_base_link,42.0,2,0,0,0,0,0,0.0,0.0,0.0,-0.402999997139,1.42499995232,8.80300045013,0,0.0,-0.0,-0.0,-0.0231891032308,-0.031533062458,0.993139386177,0,0,0,0,0,837214208.0
1405689275922767331,188,1405689275922767331,ardrone_base_link,42.0,2,0,0,0,0,0,0.0,0.0,0.0,-0.402999997139,1.42599999905,8.80300045013,0,0.0,-0.0,-0.0,-0.0229941233993,-0.0313884206116,0.996078372002,0,0,0,0,0,837219200.0
1405689275924218907,189,1405689275924218907,ardrone_base_link,42.0,2,0,0,0,0,0,0.0,0.0,0.0,-0.404000014067,1.42599999905,8.80300045013,0,0.0,-0.0,-0.0,-0.0229432899505,-0.0309573598206,0.995822012424,0,0,0,0,0,837224192.0
1405689275925711133,190,1405689275925711133,ardrone_base_link,42.0,2,0,0,0,0,0,0.0,0.0,0.0,-0.405000001192,1.42700004578,8.80399990082,0,0.0,-0.0,-0.0,-0.0229498967528,-0.0311705507338,0.99533200264,0,0,0,0,0,837230528.0
1405689275959519282,191,1405689275959519282,ardrone_base_link,42.0,2,0,0,0,0,0,0.0,0.0,0.0,-0.405000001192,1.42700004578,8.80500030518,0,0.0,-0.0,-0.0,-0.0229522772133,-0.0311210602522,0.995548844337,0,0,0,0,0,837234752.0
1405689275960761151,192,1405689275960761151,ardrone_base_link,42.0,2,0,0,0,0,0,0.0,0.0,0.0,-0.407000005245,1.4279999733,8.80500030518,0,0.0,-0.0,-0.0,-0.0229846853763,-0.0311117470264,0.995494365692,0,0,0,0,0,837239616.0
1405689275962065383,193,1405689275962065383,ardrone_base_link,42.0,2,0,0,0,0,0,0.0,0.0,0.0,-0.407000005245,1.4279999733,8.80500030518,0,0.0,-0.0,-0.0,-0.0230218563229,-0.0310208629817,0.99552321434,0,0,0,0,0,837244544.0
1405689275963488164,194,1405689275963488164,ardrone_base_link,42.0,2,0,0,0,0,0,0.0,0.0,0.0,-0.407999992371,1.42900002003,8.80500030518,0,0.0,-0.0,-0.0,-0.0230626389384,-0.0309664867818,0.995490252972,0,0,0,0,0,837249536.0
1405689275964653386,195,1405689275964653386,ardrone_base_link,42.0,2,0,0,0,0,0,0.0,0.0,0.0,-0.407999992371,1.42900002003,8.80500030518,0,0.0,-0.0,-0.0,-0.0207393895835,-0.0285798795521,0.99556106329,0,0,0,0,0,837254656.0
1405689275965980870,196,1405689275965980870,ardrone_base_link,42.0,2,0,0,0,0,0,0.0,0.0,0.0,-0.407999992371,1.42900002003,8.80500030518,0,0.0,-0.0,-0.0,-0.0184590779245,-0.0262629557401,0.995615243912,0,0,0,0,0,837259328.0
1405689275967251562,197,1405689275967251562,ardrone_base_link,42.0,2,0,0,0,0,0,0.0,0.0,0.0,-0.407999992371,1.4279999733,8.80500030518,0,0.0,-0.0,-0.0,-0.0190508216619,-0.0268396064639,0.995594501495,0,0,0,0,0,837264192.0
1405689275968454364,198,1405689275968454364,ardrone_base_link,42.0,2,0,0,0,0,0,0.0,0.0,0.0,-0.407999992371,1.4279999733,8.80500030518,0,0.0,-0.0,-0.0,-0.0194407571107,-0.0270967148244,0.993203639984,0,0,0,0,0,837269312.0
1405689275969684235,199,1405689275969684235,ardrone_base_link,42.0,2,0,0,0,0,0,0.0,0.0,0.0,-0.407999992371,1.4279999733,8.80500030518,0,0.0,-0.0,-0.0,-0.0193523615599,-0.0269073676318,0.990871250629,0,0,0,0,0,837274560.0
1405689275971091636,200,1405689275971091636,ardrone_base_link,42.0,2,0,0,0,0,0,0.0,0.0,0.0,-0.407999992371,1.4279999733,8.80599975586,0,0.0,-0.0,-0.0,-0.019364438951,-0.0270135980099,0.991458952427,0,0,0,0,0,837279168.0
1405689275972280069,201,1405689275972280069,ardrone_base_link,42.0,2,0,0,0,0,0,0.0,0.0,0.0,-0.407000005245,1.42900002003,8.80599975586,0,0.0,-0.0,-0.0,-0.0193327255547,-0.0270578060299,0.991766810417,0,0,0,0,0,837284224.0
1405689275973882063,202,1405689275973882063,ardrone_base_link,42.0,2,0,0,0,0,0,0.0,0.0,0.0,-0.407000005245,1.42900002003,8.80599975586,0,0.0,-0.0,-0.0,-0.0216459650546,-0.0271455477923,0.991649866104,0,0,0,0,0,837289280.0
1405689275976386860,203,1405689275976386860,ardrone_base_link,42.0,2,0,0,0,0,0,0.0,0.0,0.0,-0.405999988317,1.42999994755,8.80599975586,0,0.0,-0.0,-0.0,-0.0237769763917,-0.0272754840553,0.994134485722,0,0,0,0,0,837294208.0
1405689276021338189,204,1405689276021338189,ardrone_base_link,42.0,2,0,0,0,0,0,0.0,0.0,0.0,-0.405999988317,1.42999994755,8.80599975586,0,0.0,-0.0,-0.0,-0.0208640899509,-0.029652742669,0.996287107468,0,0,0,0,0,837299776.0
1405689276022511435,205,1405689276022511435,ardrone_base_link,42.0,2,0,0,0,0,0,0.0,0.0,0.0,-0.405999988317,1.4279999733,8.80599975586,0,0.0,-0.0,-0.0,-0.0206305347383,-0.0296321064234,0.995712161064,0,0,0,0,0,837304256.0
1405689276023899091,206,1405689276023899091,ardrone_base_link,42.0,2,0,0,0,0,0,0.0,0.0,0.0,-0.405999988317,1.42900002003,8.80599975586,0,0.0,-0.0,-0.0,-0.0235550142825,-0.026876764372,0.99559032917,0,0,0,0,0,837309184.0
1405689276025348767,207,1405689276025348767,ardrone_base_link,42.0,2,0,0,0,0,0,0.0,0.0,0.0,-0.405999988317,1.4279999733,8.80599975586,0,0.0,-0.0,-0.0,-0.0209772288799,-0.0271234549582,0.995689690113,0,0,0,0,0,837314240.0
1405689276026539377,208,1405689276026539377,ardrone_base_link,42.0,2,0,0,0,0,0,0.0,0.0,0.0,-0.405999988317,1.4279999733,8.80599975586,0,0.0,-0.0,-0.0,-0.0206576306373,-0.0275446679443,0.995619654655,0,0,0,0,0,837319296.0
1405689276027999396,209,1405689276027999396,ardrone_base_link,42.0,2,0,0,0,0,0,0.0,0.0,0.0,-0.405999988317,1.42900002003,8.80599975586,0,0.0,-0.0,-0.0,-0.0214284341782,-0.0272838082165,0.995651125908,0,0,0,0,0,837324544.0
1405689276029269037,210,1405689276029269037,ardrone_base_link,42.0,2,0,0,0,0,0,0.0,0.0,0.0,-0.405999988317,1.4279999733,8.80599975586,0,0.0,-0.0,-0.0,-0.021277571097,-0.0295438431203,0.995519280434,0,0,0,0,0,837329216.0
1405689276034517732,211,1405689276034517732,ardrone_base_link,42.0,2,0,0,0,0,0,0.0,0.0,0.0,-0.405999988317,1.4279999733,8.80599975586,0,0.0,-0.0,-0.0,-0.0215039439499,-0.031615998596,0.993043720722,0,0,0,0,0,837334208.0
1405689276035455890,212,1405689276035455890,ardrone_base_link,42.0,2,0,0,0,0,0,0.0,0.0,0.0,-0.405999988317,1.42700004578,8.80599975586,0,0.0,-0.0,-0.0,-0.0214028339833,-0.0310292970389,0.993118405342,0,0,0,0,0,837339200.0
1405689276036657689,213,1405689276036657689,ardrone_base_link,42.0,2,0,0,0,0,0,0.0,0.0,0.0,-0.407000005245,1.42700004578,8.80599975586,0,0.0,-0.0,-0.0,-0.0235576927662,-0.0308220796287,0.996106445789,0,0,0,0,0,837344192.0
1405689276117923402,214,1405689276117923402,ardrone_base_link,42.0,2,0,0,0,0,0,0.0,0.0,0.0,-0.407999992371,1.4279999733,8.80599975586,0,0.0,-0.0,-0.0,-0.0234816577286,-0.0310077611357,0.995819330215,0,0,0,0,0,837349312.0
1405689276123076696,215,1405689276123076696,ardrone_base_link,42.0,2,0,0,0,0,0,0.0,0.0,0.0,-0.409000009298,1.42900002003,8.80599975586,0,0.0,-0.0,-0.0,-0.0229141563177,-0.0309929847717,0.995330512524,0,0,0,0,0,837355392.0
1405689276124083206,216,1405689276124083206,ardrone_base_link,42.0,2,0,0,0,0,0,0.0,0.0,0.0,-0.409999996424,1.42900002003,8.80599975586,0,0.0,-0.0,-0.0,-0.0231345687062,-0.0310290157795,0.995549499989,0,0,0,0,0,837359488.0
1405689276125284695,217,1405689276125284695,ardrone_base_link,42.0,2,0,0,0,0,0,0.0,0.0,0.0,-0.409999996424,1.42999994755,8.80599975586,0,0.0,-0.0,-0.0,-0.0231079254299,-0.0309409424663,0.993106126785,0,0,0,0,0,837364224.0
1405689276126569924,218,1405689276126569924,ardrone_base_link,42.0,2,0,0,0,0,0,0.0,0.0,0.0,-0.411000013351,1.42999994755,8.80599975586,0,0.0,-0.0,-0.0,-0.0231890007854,-0.0308734383434,0.990799307823,0,0,0,0,0,837369216.0
1405689276127793389,219,1405689276127793389,ardrone_base_link,42.0,2,0,0,0,0,0,0.0,0.0,0.0,-0.412000000477,1.42900002003,8.80599975586,0,0.0,-0.0,-0.0,-0.0208108518273,-0.0308366138488,0.99130320549,0,0,0,0,0,837374208.0
1405689276129326599,220,1405689276129326599,ardrone_base_link,42.0,2,0,0,0,0,0,0.0,0.0,0.0,-0.412000000477,1.4279999733,8.80599975586,0,0.0,-0.0,-0.0,-0.0185517501086,-0.0308048855513,0.991575658321,0,0,0,0,0,837379200.0
1405689276130432698,221,1405689276130432698,ardrone_base_link,42.0,2,0,0,0,0,0,0.0,0.0,0.0,-0.412000000477,1.4279999733,8.80599975586,0,0.0,-0.0,-0.0,-0.0191061124206,-0.0285182856023,0.991527080536,0,0,0,0,0,837384192.0
1405689276134272289,222,1405689276134272289,ardrone_base_link,42.0,2,0,0,0,0,0,0.0,0.0,0.0,-0.411000013351,1.4279999733,8.80599975586,0,0.0,-0.0,-0.0,-0.0194544568658,-0.0285945981741,0.991567850113,0,0,0,0,0,837389184.0
1405689276187738056,223,1405689276187738056,ardrone_base_link,42.0,2,0,0,0,0,0,0.0,0.0,0.0,-0.411000013351,1.4279999733,8.80599975586,0,0.0,-0.0,-0.0,-0.0193757358938,-0.0291480291635,0.991535067558,0,0,0,0,0,837394240.0
1405689276188488730,224,1405689276188488730,ardrone_base_link,42.0,2,0,0,0,0,0,0.0,0.0,0.0,-0.412000000477,1.4279999733,8.80599975586,0,0.0,-0.0,-0.0,-0.0194588657469,-0.0289862453938,0.991563200951,0,0,0,0,0,837399168.0
1405689276189718293,225,1405689276189718293,ardrone_base_link,42.0,2,0,0,0,0,0,0.0,0.0,0.0,-0.412999987602,1.4279999733,8.80599975586,0,0.0,-0.0,-0.0,-0.0195120926946,-0.0313948430121,0.991438448429,0,0,0,0,0,837404160.0
1405689276191297043,226,1405689276191297043,ardrone_base_link,42.0,2,0,0,0,0,0,0.0,0.0,0.0,-0.41400000453,1.42700004578,8.80599975586,0,0.0,-0.0,-0.0,-0.0194093193859,-0.031423125416,0.993834733963,0,0,0,0,0,837409216.0
1405689276192608496,227,1405689276192608496,ardrone_base_link,42.0,2,0,0,0,0,0,0.0,0.0,0.0,-0.41400000453,1.42700004578,8.80599975586,0,0.0,-0.0,-0.0,-0.0192472767085,-0.0309627912939,0.996196806431,0,0,0,0,0,837414208.0
1405689276194734457,228,1405689276194734457,ardrone_base_link,42.0,2,0,0,0,0,0,0.0,0.0,0.0,-0.41400000453,1.42599999905,8.80599975586,0,0.0,-0.0,-0.0,-0.0192362591624,-0.0311289168894,0.995592772961,0,0,0,0,0,837419200.0
1405689276198789562,229,1405689276198789562,ardrone_base_link,42.0,2,0,0,0,0,0,0.0,0.0,0.0,-0.41400000453,1.42599999905,8.80599975586,0,0.0,-0.0,-0.0,-0.0192398447543,-0.0309792794287,0.995291233063,0,0,0,0,0,837424192.0
1405689276199630283,230,1405689276199630283,ardrone_base_link,42.0,2,0,0,0,0,0,0.0,0.0,0.0,-0.41400000453,1.42599999905,8.80599975586,0,0.0,-0.0,-0.0,-0.0192532353103,-0.0309917964041,0.995458960533,0,0,0,0,0,837429376.0
1405689276200943195,231,1405689276200943195,ardrone_base_link,42.0,2,0,0,0,0,0,0.0,0.0,0.0,-0.414999991655,1.42599999905,8.80599975586,0,0.0,-0.0,-0.0,-0.0192875601351,-0.0309607796371,0.995415747166,0,0,0,0,0,837434624.0
1405689276202226423,232,1405689276202226423,ardrone_base_link,42.0,2,0,0,0,0,0,0.0,0.0,0.0,-0.414999991655,1.42599999905,8.80599975586,0,0.0,-0.0,-0.0,-0.019335642457,-0.0286310147494,0.993143320084,0,0,0,0,0,837439232.0
1405689276275266413,233,1405689276275266413,ardrone_base_link,42.0,2,0,0,0,0,0,0.0,0.0,0.0,-0.41400000453,1.42499995232,8.80599975586,0,0.0,-0.0,-0.0,-0.0192687138915,-0.0264153257012,0.993283450603,0,0,0,0,0,837444352.0
1405689276276396587,234,1405689276276396587,ardrone_base_link,42.0,2,0,0,0,0,0,0.0,0.0,0.0,-0.41400000453,1.42499995232,8.80599975586,0,0.0,-0.0,-0.0,-0.0192341841757,-0.0269976314157,0.993806660175,0,0,0,0,0,837449344.0
1405689276277844657,235,1405689276277844657,ardrone_base_link,42.0,2,0,0,0,0,0,0.0,0.0,0.0,-0.412000000477,1.42499995232,8.80599975586,0,0.0,-0.0,-0.0,-0.0193152409047,-0.0272238329053,0.991172611713,0,0,0,0,0,837454144.0
1405689276279175115,236,1405689276279175115,ardrone_base_link,42.0,2,0,0,0,0,0,0.0,0.0,0.0,-0.412000000477,1.42499995232,8.80599975586,0,0.0,-0.0,-0.0,-0.0193043220788,-0.0270657204092,0.991289556026,0,0,0,0,0,837459200.0
1405689276280431543,237,1405689276280431543,ardrone_base_link,42.0,2,0,0,0,0,0,0.0,0.0,0.0,-0.411000013351,1.42499995232,8.80599975586,0,0.0,-0.0,-0.0,-0.0169945470989,-0.0271092243493,0.991759061813,0,0,0,0,0,837464256.0
1405689276281748813,238,1405689276281748813,ardrone_base_link,42.0,2,0,0,0,0,0,0.0,0.0,0.0,-0.409999996424,1.4240000248,8.80599975586,0,0.0,-0.0,-0.0,-0.0147608695552,-0.0270985290408,0.991482913494,0,0,0,0,0,837469376.0
1405689276283129192,239,1405689276283129192,ardrone_base_link,42.0,2,0,0,0,0,0,0.0,0.0,0.0,-0.409999996424,1.42299997807,8.80599975586,0,0.0,-0.0,-0.0,-0.0153244016692,-0.027165627107,0.991566896439,0,0,0,0,0,837474688.0
1405689276284437796,240,1405689276284437796,ardrone_base_link,42.0,2,0,0,0,0,0,0.0,0.0,0.0,-0.409000009298,1.42200005054,8.80599975586,0,0.0,-0.0,-0.0,-0.015615821816,-0.0271863359958,0.991532981396,0,0,0,0,0,837480576.0
1405689276285877958,241,1405689276285877958,ardrone_base_link,42.0,2,0,0,0,0,0,0.0,0.0,0.0,-0.409000009298,1.42100000381,8.80700016022,0,0.0,-0.0,-0.0,-0.017665438354,-0.0272885542363,0.994005382061,0,0,0,0,0,837484224.0
1405689276287261289,242,1405689276287261289,ardrone_base_link,42.0,2,0,0,0,0,0,0.0,0.0,0.0,-0.409000009298,1.41999995708,8.80700016022,0,0.0,-0.0,-0.0,-0.0198863968253,-0.0273524355143,0.996378660202,0,0,0,0,0,837489280.0
1405689276289703090,243,1405689276289703090,ardrone_base_link,42.0,2,0,0,0,0,0,0.0,0.0,0.0,-0.407000005245,1.41999995708,8.80700016022,0,0.0,-0.0,-0.0,-0.0193629804999,-0.0272595770657,0.995772719383,0,0,0,0,0,837494208.0
1405689276292144894,244,1405689276292144894,ardrone_base_link,42.0,2,0,0,0,0,0,0.0,0.0,0.0,-0.407000005245,1.41999995708,8.80700016022,0,0.0,-0.0,-0.0,-0.0191409457475,-0.0271744318306,0.995467543602,0,0,0,0,0,837499200.0
1405689276293291091,245,1405689276293291091,ardrone_base_link,42.0,2,0,0,0,0,0,0.0,0.0,0.0,-0.405999988317,1.41999995708,8.80700016022,0,0.0,-0.0,-0.0,-0.0192957501858,-0.0294908434153,0.997917711735,0,0,0,0,0,837504192.0
1405689276327126283,246,1405689276327126283,ardrone_base_link,42.0,2,0,0,0,0,0,0.0,0.0,0.0,-0.405999988317,1.41900002956,8.80700016022,0,0.0,-0.0,-0.0,-0.0191912725568,-0.0294888373464,1.00021123886,0,0,0,0,0,837509504.0
1405689276327877142,247,1405689276327877142,ardrone_base_link,42.0,2,0,0,0,0,0,0.0,0.0,0.0,-0.405999988317,1.41799998283,8.80700016022,0,0.0,-0.0,-0.0,-0.0191968046129,-0.0289872586727,0.999656736851,0,0,0,0,0,837514176.0
1405689276328293027,248,1405689276328293027,ardrone_base_link,42.0,2,0,0,0,0,0,0.0,0.0,0.0,-0.405999988317,1.41700005531,8.80700016022,0,0.0,-0.0,-0.0,-0.0192052889615,-0.0315451696515,0.99921387434,0,0,0,0,0,837519168.0
1405689276328949517,249,1405689276328949517,ardrone_base_link,42.0,2,0,0,0,0,0,0.0,0.0,0.0,-0.405999988317,1.41600000858,8.80700016022,0,0.0,-0.0,-0.0,-0.0191690996289,-0.0314825959504,0.999402582645,0,0,0,0,0,837524160.0
1405689276329746353,250,1405689276329746353,ardrone_base_link,42.0,2,0,0,0,0,0,0.0,0.0,0.0,-0.405999988317,1.41600000858,8.80700016022,0,0.0,-0.0,-0.0,-0.0192253161222,-0.0309266597033,0.996989965439,0,0,0,0,0,837529216.0
1405689276330263189,251,1405689276330263189,ardrone_base_link,42.0,2,0,0,0,0,0,0.0,0.0,0.0,-0.405000001192,1.41499996185,8.80700016022,0,0.0,-0.0,-0.0,-0.0193234868348,-0.0310648195446,0.994651377201,0,0,0,0,0,837534208.0
1405689276330951953,252,1405689276330951953,ardrone_base_link,42.0,2,0,0,0,0,0,0.0,0.0,0.0,-0.405999988317,1.41499996185,8.80700016022,0,0.0,-0.0,-0.0,-0.0193334743381,-0.0309952348471,0.995230197906,0,0,0,0,0,837539200.0
1405689276331488535,253,1405689276331488535,ardrone_base_link,42.0,2,0,0,0,0,0,0.0,0.0,0.0,-0.405999988317,1.41499996185,8.80700016022,0,0.0,-0.0,-0.0,-0.019345710054,-0.031041091308,0.99554759264,0,0,0,0,0,837544192.0
1405689276332326352,254,1405689276332326352,ardrone_base_link,42.0,2,0,0,0,0,0,0.0,0.0,0.0,-0.405999988317,1.41499996185,8.80700016022,0,0.0,-0.0,-0.0,-0.0194422286004,-0.030940387398,0.992988049984,0,0,0,0,0,837549184.0
1405689276332879704,255,1405689276332879704,ardrone_base_link,42.0,2,0,0,0,0,0,0.0,0.0,0.0,-0.405999988317,1.41499996185,8.80700016022,0,0.0,-0.0,-0.0,-0.0195027776062,-0.0308812595904,0.990693330765,0,0,0,0,0,837554176.0
1405689276352905155,256,1405689276352905155,ardrone_base_link,42.0,2,0,0,0,0,0,0.0,0.0,0.0,-0.407000005245,1.41499996185,8.80700016022,0,0.0,-0.0,-0.0,-0.0194314010441,-0.0308712236583,0.991275906563,0,0,0,0,0,837559232.0
1405689276354415846,257,1405689276354415846,ardrone_base_link,42.0,2,0,0,0,0,0,0.0,0.0,0.0,-0.407999992371,1.41499996185,8.80700016022,0,0.0,-0.0,-0.0,-0.0194433350116,-0.0307654216886,0.989211440086,0,0,0,0,0,837564160.0
1405689276354451238,258,1405689276354451238,ardrone_base_link,42.0,2,0,0,0,0,0,0.0,0.0,0.0,-0.407999992371,1.41499996185,8.80700016022,0,0.0,-0.0,-0.0,-0.019389776513,-0.0307332929224,0.989080786705,0,0,0,0,0,837569152.0
1405689276354514449,259,1405689276354514449,ardrone_base_link,42.0,2,0,0,0,0,0,0.0,0.0,0.0,-0.407000005245,1.41499996185,8.80700016022,0,0.0,-0.0,-0.0,-0.019244113937,-0.0307945404202,0.99205249548,0,0,0,0,0,837574144.0
1405689276355295778,260,1405689276355295778,ardrone_base_link,42.0,2,0,0,0,0,0,0.0,0.0,0.0,-0.405999988317,1.41499996185,8.80700016022,0,0.0,-0.0,-0.0,-0.0191922560334,-0.0284814480692,0.991870820522,0,0,0,0,0,837579200.0
1405689276355650440,261,1405689276355650440,ardrone_base_link,42.0,2,0,0,0,0,0,0.0,0.0,0.0,-0.405000001192,1.41499996185,8.8079996109,0,0.0,-0.0,-0.0,-0.0192289147526,-0.0285361036658,0.991406023502,0,0,0,0,0,837584320.0
1405689276356202736,262,1405689276356202736,ardrone_base_link,42.0,2,0,0,0,0,0,0.0,0.0,0.0,-0.405999988317,1.41499996185,8.80900001526,0,0.0,-0.0,-0.0,-0.019323701039,-0.0314019322395,0.991475820541,0,0,0,0,0,837589312.0
1405689276356856298,263,1405689276356856298,ardrone_base_link,42.0,2,0,0,0,0,0,0.0,0.0,0.0,-0.407000005245,1.41499996185,8.80900001526,0,0.0,-0.0,-0.0,-0.0193610284477,-0.0312047172338,0.991437733173,0,0,0,0,0,837594496.0
1405689276357454819,264,1405689276357454819,ardrone_base_link,42.0,2,0,0,0,0,0,0.0,0.0,0.0,-0.407999992371,1.41400003433,8.81000041962,0,0.0,-0.0,-0.0,-0.0193897224963,-0.0308197401464,0.991490244865,0,0,0,0,0,837599296.0
1405689276358245959,265,1405689276358245959,ardrone_base_link,42.0,2,0,0,0,0,0,0.0,0.0,0.0,-0.409000009298,1.41400003433,8.81000041962,0,0.0,-0.0,-0.0,-0.0194313693792,-0.0310502219945,0.991445064545,0,0,0,0,0,837605440.0
1405689276358967978,266,1405689276358967978,ardrone_base_link,42.0,2,0,0,0,0,0,0.0,0.0,0.0,-0.409000009298,1.4129999876,8.81000041962,0,0.0,-0.0,-0.0,-0.019375372678,-0.0310243461281,0.993854761124,0,0,0,0,0,837609216.0
1405689276359388441,267,1405689276359388441,ardrone_base_link,42.0,2,0,0,0,0,0,0.0,0.0,0.0,-0.409999996424,1.41199994087,8.81000041962,0,0.0,-0.0,-0.0,-0.0193269718438,-0.0310278534889,0.996189713478,0,0,0,0,0,837614208.0
1405689276373551193,268,1405689276373551193,ardrone_base_link,42.0,2,0,0,0,0,0,0.0,0.0,0.0,-0.411000013351,1.4129999876,8.81000041962,0,0.0,-0.0,-0.0,-0.0194737203419,-0.0308187901974,0.993204832077,0,0,0,0,0,837619136.0
