%time,field.header.seq,field.header.stamp,field.header.frame_id,field.orientation.x,field.orientation.y,field.orientation.z,field.orientation.w,field.orientation_covariance0,field.orientation_covariance1,field.orientation_covariance2,field.orientation_covariance3,field.orientation_covariance4,field.orientation_covariance5,field.orientation_covariance6,field.orientation_covariance7,field.orientation_covariance8,field.angular_velocity.x,field.angular_velocity.y,field.angular_velocity.z,field.angular_velocity_covariance0,field.angular_velocity_covariance1,field.angular_velocity_covariance2,field.angular_velocity_covariance3,field.angular_velocity_covariance4,field.angular_velocity_covariance5,field.angular_velocity_covariance6,field.angular_velocity_covariance7,field.angular_velocity_covariance8,field.linear_acceleration.x,field.linear_acceleration.y,field.linear_acceleration.z,field.linear_acceleration_covariance0,field.linear_acceleration_covariance1,field.linear_acceleration_covariance2,field.linear_acceleration_covariance3,field.linear_acceleration_covariance4,field.linear_acceleration_covariance5,field.linear_acceleration_covariance6,field.linear_acceleration_covariance7,field.linear_acceleration_covariance8
1405689220826860390,34,1405689220826860390,ardrone_base_link,0.0715227851857,0.00988013069845,-0.00447876315357,0.997379975184,1.0,0.0,0.0,0.0,1.0,0.0,0.0,0.0,100000.0,-7.49826431274e-05,-0.00374253094196,-0.00286559760571,1.0,0.0,0.0,0.0,1.0,0.0,0.0,0.0,1.0,-0.153973515332,-0.302996183559,9.71544783115,0.1,0.0,0.0,0.0,0.1,0.0,0.0,0.0,0.1
1405689220828100877,35,1405689220828100877,ardrone_base_link,0.0715227851857,0.00988013069845,-0.00447876315357,0.997379975184,1.0,0.0,0.0,0.0,1.0,0.0,0.0,0.0,100000.0,-0.000938609300647,-0.00422919169068,-0.00283052190207,1.0,0.0,0.0,0.0,1.0,0.0,0.0,0.0,1.0,-0.155081747472,-0.30205623433,9.71550565958,0.1,0.0,0.0,0.0,0.1,0.0,0.0,0.0,0.1
1405689220829389569,36,1405689220829389569,ardrone_base_link,0.071522871405,0.0098795065328,-0.00448746709223,0.99737993606,1.0,0.0,0.0,0.0,1.0,0.0,0.0,0.0,100000.0,-0.00277677178383,-0.000455696135759,-0.00160838570446,1.0,0.0,0.0,0.0,1.0,0.0,0.0,0.0,1.0,-0.155304226279,-0.30222097598,9.71545308828,0.1,0.0,0.0,0.0,0.1,0.0,0.0,0.0,0.1
1405689220830733725,37,1405689220830733725,ardrone_base_link,0.0715141376219,0.00987084145727,-0.00448675740115,0.997380651315,1.0,0.0,0.0,0.0,1.0,0.0,0.0,0.0,100000.0,-0.00169705599546,-0.00281742960215,-0.00434048799798,1.0,0.0,0.0,0.0,1.0,0.0,0.0,0.0,1.0,-0.155038832501,-0.302295634523,9.71548404694,0.1,0.0,0.0,0.0,0.1,0.0,0.0,0.0,0.1
1405689220832156480,38,1405689220832156480,ardrone_base_link,0.0715140778721,0.0098801697985,-0.00447867689803,0.997380599553,1.0,0.0,0.0,0.0,1.0,0.0,0.0,0.0,100000.0,0.00149705633521,-0.00173958390951,-0.0029356572777,1.0,0.0,0.0,0.0,1.0,0.0,0.0,0.0,1.0,-0.176785077155,-0.303402461112,9.71599340439,0.1,0.0,0.0,0.0,0.1,0.0,0.0,0.0,0.1
1405689220833373661,39,1405689220833373661,ardrone_base_link,0.0715053969421,0.00988891315429,-0.00447921400762,0.997381132891,1.0,0.0,0.0,0.0,1.0,0.0,0.0,0.0,100000.0,0.000287622213364,-4.65922057629e-05,-0.00256033521146,1.0,0.0,0.0,0.0,1.0,0.0,0.0,0.0,1.0,-0.17504536882,-0.303899843991,9.71597471237,0.1,0.0,0.0,0.0,0.1,0.0,0.0,0.0,0.1
1405689220834885088,40,1405689220834885088,ardrone_base_link,0.0715052843301,0.00988083289213,-0.00446988695165,0.99738126289,1.0,0.0,0.0,0.0,1.0,0.0,0.0,0.0,100000.0,0.00136283424217,-0.00368444249034,-0.00244198413566,1.0,0.0,0.0,0.0,1.0,0.0,0.0,0.0,1.0,-0.146200666577,-0.303788312525,9.71534969807,0.1,0.0,0.0,0.0,0.1,0.0,0.0,0.0,0.1
1405689220837448029,41,1405689220837448029,ardrone_base_link,0.0715052843301,0.00988083289213,-0.00446988695165,0.99738126289,1.0,0.0,0.0,0.0,1.0,0.0,0.0,0.0,100000.0,-0.000210594385862,-0.00102985650301,-4.2459461838e-05,1.0,0.0,0.0,0.0,1.0,0.0,0.0,0.0,1.0,-0.14781681411,-0.304092057794,9.71540752649,0.1,0.0,0.0,0.0,0.1,0.0,0.0,0.0,0.1
1405689220838537225,42,1405689220838537225,ardrone_base_link,0.0715051718566,0.0098727526466,-0.00446055963402,0.997381392728,1.0,0.0,0.0,0.0,1.0,0.0,0.0,0.0,100000.0,-0.000397469877498,-0.00359220430255,-0.00177369872108,1.0,0.0,0.0,0.0,1.0,0.0,0.0,0.0,1.0,-0.151669815555,-0.304300316796,9.71551033258,0.1,0.0,0.0,0.0,0.1,0.0,0.0,0.0,0.1
1405689220839891139,43,1405689220839891139,ardrone_base_link,0.0715051456116,0.00986404942572,-0.0044599363406,0.99738148351,1.0,0.0,0.0,0.0,1.0,0.0,0.0,0.0,100000.0,0.000547200499568,-0.00509610027075,-0.00270380428992,1.0,0.0,0.0,0.0,1.0,0.0,0.0,0.0,1.0,-0.149548773654,-0.304317256436,9.71546769142,0.1,0.0,0.0,0.0,0.1,0.0,0.0,0.0,0.1
1405689220876490277,44,1405689220876490277,ardrone_base_link,0.0714963605033,0.00986471224075,-0.00445114660934,0.997382146011,1.0,0.0,0.0,0.0,1.0,0.0,0.0,0.0,100000.0,0.000479385256767,-0.000727482198272,-0.00379727128893,1.0,0.0,0.0,0.0,1.0,0.0,0.0,0.0,1.0,-0.150491223671,-0.304182232171,9.71547762156,0.1,0.0,0.0,0.0,0.1,0.0,0.0,0.0,0.1
1405689220877545243,45,1405689220877545243,ardrone_base_link,0.0714876531707,0.00986475109971,-0.00445106048841,0.997382770149,1.0,0.0,0.0,0.0,1.0,0.0,0.0,0.0,100000.0,0.000213123857975,-0.00356428325176,-0.00550089031458,1.0,0.0,0.0,0.0,1.0,0.0,0.0,0.0,1.0,-0.15109934397,-0.303823725134,9.71547528505,0.1,0.0,0.0,0.0,0.1,0.0,0.0,0.0,0.1
1405689220878259592,46,1405689220878259592,ardrone_base_link,0.0714789541332,0.00986478992087,-0.00445097444925,0.997383393617,1.0,0.0,0.0,0.0,1.0,0.0,0.0,0.0,100000.0,0.000301454216242,-0.00108183175325,-0.00448361411691,1.0,0.0,0.0,0.0,1.0,0.0,0.0,0.0,1.0,-0.152485482953,-0.303359838203,9.71547528505,0.1,0.0,0.0,0.0,0.1,0.0,0.0,0.0,0.1
1405689220878816077,47,1405689220878816077,ardrone_base_link,0.0714788680424,0.00986541370326,-0.00444227048041,0.997383432421,1.0,0.0,0.0,0.0,1.0,0.0,0.0,0.0,100000.0,0.000195939093828,-0.00209246575832,-0.00283115170896,1.0,0.0,0.0,0.0,1.0,0.0,0.0,0.0,1.0,-0.175834777951,-0.30318116881,9.71599632502,0.1,0.0,0.0,0.0,0.1,0.0,0.0,0.0,0.1
1405689220879456600,48,1405689220879456600,ardrone_base_link,0.0714702467897,0.00986482877832,-0.00445088832764,0.997384017603,1.0,0.0,0.0,0.0,1.0,0.0,0.0,0.0,100000.0,-0.00231524929404,-0.00319771468639,-0.00170048326254,1.0,0.0,0.0,0.0,1.0,0.0,0.0,0.0,1.0,-0.198476815596,-0.303063942119,9.71649692059,0.1,0.0,0.0,0.0,0.1,0.0,0.0,0.0,0.1
1405689220880173764,49,1405689220880173764,ardrone_base_link,0.0714702729619,0.00987353202117,-0.00445151131808,0.997383926828,1.0,0.0,0.0,0.0,1.0,0.0,0.0,0.0,100000.0,-0.00388199090958,-0.00225355476141,-0.00177635066211,1.0,0.0,0.0,0.0,1.0,0.0,0.0,0.0,1.0,-0.193189639971,-0.302671281993,9.71637250185,0.1,0.0,0.0,0.0,0.1,0.0,0.0,0.0,0.1
1405689220881510830,50,1405689220881510830,ardrone_base_link,0.0714704452772,0.00987228462423,-0.00446891900465,0.997383848982,1.0,0.0,0.0,0.0,1.0,0.0,0.0,0.0,100000.0,-0.00674805045128,-0.00207422673702,-0.00221012625843,1.0,0.0,0.0,0.0,1.0,0.0,0.0,0.0,1.0,-0.190124167502,-0.302326191589,9.71630299091,0.1,0.0,0.0,0.0,0.1,0.0,0.0,0.0,0.1
1405689220882841905,51,1405689220882841905,ardrone_base_link,0.0714705578232,0.00988036521292,-0.00447824577971,0.997383719068,1.0,0.0,0.0,0.0,1.0,0.0,0.0,0.0,100000.0,-0.00555724650621,6.13629817963e-05,-0.00300676329061,1.0,0.0,0.0,0.0,1.0,0.0,0.0,0.0,1.0,-0.190911367908,-0.279385994375,9.71738888025,0.1,0.0,0.0,0.0,0.1,0.0,0.0,0.0,0.1
1405689220884151386,52,1405689220884151386,ardrone_base_link,0.0714617988701,0.00988973216972,-0.00447007887316,0.997384290479,1.0,0.0,0.0,0.0,1.0,0.0,0.0,0.0,100000.0,-0.0025223530829,-0.000591069459915,-0.00252133794129,1.0,0.0,0.0,0.0,1.0,0.0,0.0,0.0,1.0,-0.189627295732,-0.256666779146,9.71839883327,0.1,0.0,0.0,0.0,0.1,0.0,0.0,0.0,0.1
1405689220906705016,53,1405689220906705016,ardrone_base_link,0.0714617387943,0.0098990590482,-0.00446199780921,0.997384238443,1.0,0.0,0.0,0.0,1.0,0.0,0.0,0.0,100000.0,-2.12714076042e-05,0.000412117718952,-0.00217940611765,1.0,0.0,0.0,0.0,1.0,0.0,0.0,0.0,1.0,-0.189440211281,-0.261319594458,9.7181453228,0.1,0.0,0.0,0.0,0.1,0.0,0.0,0.0,0.1
1405689220907816873,54,1405689220907816873,ardrone_base_link,0.0714616785614,0.00990838694464,-0.00445391707982,0.997384186253,1.0,0.0,0.0,0.0,1.0,0.0,0.0,0.0,100000.0,0.00224566087127,-0.00111555308104,-0.00233390880749,1.0,0.0,0.0,0.0,1.0,0.0,0.0,0.0,1.0,-0.18885807544,-0.263442762941,9.71800863743,0.1,0.0,0.0,0.0,0.1,0.0,0.0,0.0,0.1
1405689220909225771,55,1405689220909225771,ardrone_base_link,0.07145291081,0.00991775263361,-0.00444574943405,0.99738475777,1.0,0.0,0.0,0.0,1.0,0.0,0.0,0.0,100000.0,0.000540684908628,-0.00106291845441,-0.00378222577274,1.0,0.0,0.0,0.0,1.0,0.0,0.0,0.0,1.0,-0.187593096867,-0.262325403839,9.74149165154,0.1,0.0,0.0,0.0,0.1,0.0,0.0,0.0,0.1
1405689220910601769,56,1405689220910601769,ardrone_base_link,0.0714441169038,0.00991841490599,-0.00443695912328,0.997385420286,1.0,0.0,0.0,0.0,1.0,0.0,0.0,0.0,100000.0,0.000231757760048,-0.00289973244071,-0.00334399100393,1.0,0.0,0.0,0.0,1.0,0.0,0.0,0.0,1.0,-0.186328592896,-0.264098699391,9.76435315609,0.1,0.0,0.0,0.0,0.1,0.0,0.0,0.0,0.1
1405689220911151653,57,1405689220911151653,ardrone_base_link,0.0714440562648,0.00992774265869,-0.00442887823332,0.997385367743,1.0,0.0,0.0,0.0,1.0,0.0,0.0,0.0,100000.0,-0.000406537204981,0.000357810407877,-0.00397638231516,1.0,0.0,0.0,0.0,1.0,0.0,0.0,0.0,1.0,-0.18633149527,-0.265353364497,9.75858666897,0.1,0.0,0.0,0.0,0.1,0.0,0.0,0.0,0.1
1405689220911685583,58,1405689220911685583,ardrone_base_link,0.0714352447221,0.00991970038975,-0.00441946489121,0.99738612066,1.0,0.0,0.0,0.0,1.0,0.0,0.0,0.0,100000.0,0.000151675194502,-0.0042677745223,-0.00447799265385,1.0,0.0,0.0,0.0,1.0,0.0,0.0,0.0,1.0,-0.186642870679,-0.267252575606,9.75556498766,0.1,0.0,0.0,0.0,0.1,0.0,0.0,0.0,0.1
1405689220912424429,59,1405689220912424429,ardrone_base_link,0.0714264507871,0.0099203622785,-0.00441067455154,0.997386782793,1.0,0.0,0.0,0.0,1.0,0.0,0.0,0.0,100000.0,0.000642295926809,-0.00328683853149,-0.00254119094461,1.0,0.0,0.0,0.0,1.0,0.0,0.0,0.0,1.0,-0.187017149106,-0.268724444136,9.75723266602,0.1,0.0,0.0,0.0,0.1,0.0,0.0,0.0,0.1
1405689220912969620,60,1405689220912969620,ardrone_base_link,0.0714176651385,0.00992102399571,-0.0044018840235,0.997387444179,1.0,0.0,0.0,0.0,1.0,0.0,0.0,0.0,100000.0,0.000396579504013,-0.00499829277396,-0.00546646490693,1.0,0.0,0.0,0.0,1.0,0.0,0.0,0.0,1.0,-0.187347764149,-0.292854267731,9.7791724205,0.1,0.0,0.0,0.0,0.1,0.0,0.0,0.0,0.1
1405689220914109967,61,1405689220914109967,ardrone_base_link,0.0714176394444,0.00991232072266,-0.00440126148566,0.9973875353,1.0,0.0,0.0,0.0,1.0,0.0,0.0,0.0,100000.0,0.000170022249222,-0.00545981898904,-0.00354788638651,1.0,0.0,0.0,0.0,1.0,0.0,0.0,0.0,1.0,-0.187792867795,-0.315793698281,9.80112268925,0.1,0.0,0.0,0.0,0.1,0.0,0.0,0.0,0.1
1405689220915524948,62,1405689220915524948,ardrone_base_link,0.0714089577596,0.00992106242459,-0.00440179741096,0.99738806763,1.0,0.0,0.0,0.0,1.0,0.0,0.0,0.0,100000.0,-0.00232823938131,-0.000459510833025,-0.00340021308511,1.0,0.0,0.0,0.0,1.0,0.0,0.0,0.0,1.0,-0.188701018691,-0.309727919847,9.79542804956,0.1,0.0,0.0,0.0,0.1,0.0,0.0,0.0,0.1
1405689220916839362,63,1405689220916839362,ardrone_base_link,0.0714002843693,0.00992980513683,-0.00440233334047,0.997388599204,1.0,0.0,0.0,0.0,1.0,0.0,0.0,0.0,100000.0,-0.00141768530011,-0.0019310824573,-0.00358560890891,1.0,0.0,0.0,0.0,1.0,0.0,0.0,0.0,1.0,-0.190368112922,-0.305412820354,9.76928142309,0.1,0.0,0.0,0.0,0.1,0.0,0.0,0.0,0.1
1405689220939279224,64,1405689220939279224,ardrone_base_link,0.0714002843693,0.00992980513683,-0.00440233334047,0.997388599204,1.0,0.0,0.0,0.0,1.0,0.0,0.0,0.0,100000.0,-0.00248376652598,-0.00173173099756,-0.00240231025964,1.0,0.0,0.0,0.0,1.0,0.0,0.0,0.0,1.0,-0.191130542755,-0.28293483071,9.74900467396,0.1,0.0,0.0,0.0,0.1,0.0,0.0,0.0,0.1
1405689220940570779,65,1405689220940570779,ardrone_base_link,0.0714002843693,0.00992980513683,-0.00440233334047,0.997388599204,1.0,0.0,0.0,0.0,1.0,0.0,0.0,0.0,100000.0,-0.0010155364871,-0.00271199643612,-0.00220086984336,1.0,0.0,0.0,0.0,1.0,0.0,0.0,0.0,1.0,-0.190353108197,-0.259532736242,9.75535470247,0.1,0.0,0.0,0.0,0.1,0.0,0.0,0.0,0.1
1405689220941871204,66,1405689220941871204,ardrone_base_link,0.0713914291972,0.00993979391592,-0.00438546125601,0.997389207914,1.0,0.0,0.0,0.0,1.0,0.0,0.0,0.0,100000.0,0.00159489375073,-0.00291033112444,-0.00287746405229,1.0,0.0,0.0,0.0,1.0,0.0,0.0,0.0,1.0,-0.189775243774,-0.264173613489,9.7582326889,0.1,0.0,0.0,0.0,0.1,0.0,0.0,0.0,0.1
1405689220943046928,67,1405689220943046928,ardrone_base_link,0.0713914291972,0.00993979391592,-0.00438546125601,0.997389207914,1.0,0.0,0.0,0.0,1.0,0.0,0.0,0.0,100000.0,-2.57603824139e-05,-0.00219479203224,-0.00162933953106,1.0,0.0,0.0,0.0,1.0,0.0,0.0,0.0,1.0,-0.18954305388,-0.28851381354,9.7552110076,0.1,0.0,0.0,0.0,0.1,0.0,0.0,0.0,0.1
1405689220943793061,68,1405689220943793061,ardrone_base_link,0.0713913424544,0.00994041691593,-0.00437675749584,0.997389246146,1.0,0.0,0.0,0.0,1.0,0.0,0.0,0.0,100000.0,0.00121126323938,-0.00204188004136,-0.00120871933177,1.0,0.0,0.0,0.0,1.0,0.0,0.0,0.0,1.0,-0.189122209698,-0.308701793849,9.75483307838,0.1,0.0,0.0,0.0,0.1,0.0,0.0,0.0,0.1
1405689220944512932,69,1405689220944512932,ardrone_base_link,0.0713913679067,0.00994912020368,-0.00437737980719,0.997389154815,1.0,0.0,0.0,0.0,1.0,0.0,0.0,0.0,100000.0,-9.51625406742e-05,-0.00235772505403,-0.00320054357871,1.0,0.0,0.0,0.0,1.0,0.0,0.0,0.0,1.0,-0.188338514045,-0.303743170574,9.75494523048,0.1,0.0,0.0,0.0,0.1,0.0,0.0,0.0,0.1
1405689220945150550,70,1405689220945150550,ardrone_base_link,0.0713913424544,0.00994041691593,-0.00437675749584,0.997389246146,1.0,0.0,0.0,0.0,1.0,0.0,0.0,0.0,100000.0,-0.000299584120512,-0.00488540157676,-0.00159333506599,1.0,0.0,0.0,0.0,1.0,0.0,0.0,0.0,1.0,-0.188738603517,-0.300765243918,9.73181385994,0.1,0.0,0.0,0.0,0.1,0.0,0.0,0.0,0.1
1405689220946685197,71,1405689220946685197,ardrone_base_link,0.0713825483113,0.00994107804872,-0.00436796694805,0.997389907523,1.0,0.0,0.0,0.0,1.0,0.0,0.0,0.0,100000.0,0.000568248331547,-0.00405058637261,-0.00317705050111,1.0,0.0,0.0,0.0,1.0,0.0,0.0,0.0,1.0,-0.188673966378,-0.303465966508,9.73215615749,0.1,0.0,0.0,0.0,0.1,0.0,0.0,0.0,0.1
1405689220949471834,72,1405689220949471834,ardrone_base_link,0.0713738492116,0.00994111614514,-0.00436788024317,0.997390530074,1.0,0.0,0.0,0.0,1.0,0.0,0.0,0.0,100000.0,0.00044933333993,-0.00260805338621,-0.00390490563586,1.0,0.0,0.0,0.0,1.0,0.0,0.0,0.0,1.0,-0.187818058208,-0.304490431398,9.76085482836,0.1,0.0,0.0,0.0,0.1,0.0,0.0,0.0,0.1
1405689220961953140,73,1405689220961953140,ardrone_base_link,0.0713737624547,0.00994173901031,-0.00435917621206,0.997390568153,1.0,0.0,0.0,0.0,1.0,0.0,0.0,0.0,100000.0,0.000189777463675,-0.00445033609867,-0.00145116634667,1.0,0.0,0.0,0.0,1.0,0.0,0.0,0.0,1.0,-0.165853660926,-0.30477068387,9.75759657621,0.1,0.0,0.0,0.0,0.1,0.0,0.0,0.0,0.1
1405689220962504913,74,1405689220962504913,ardrone_base_link,0.0713650550486,0.00994177706634,-0.00435908941868,0.997391191221,1.0,0.0,0.0,0.0,1.0,0.0,0.0,0.0,100000.0,0.000324115157127,0.000137403607368,-0.00447350554168,1.0,0.0,0.0,0.0,1.0,0.0,0.0,0.0,1.0,-0.144599122182,-0.30444711484,9.75239961147,0.1,0.0,0.0,0.0,0.1,0.0,0.0,0.0,0.1
1405689220964607146,75,1405689220964607146,ardrone_base_link,0.0713649430532,0.00993369549315,-0.00434976348082,0.997391320473,1.0,0.0,0.0,0.0,1.0,0.0,0.0,0.0,100000.0,0.000227078795433,-0.00410474091768,-0.00262509472668,1.0,0.0,0.0,0.0,1.0,0.0,0.0,0.0,1.0,-0.1500759013,-0.282114718482,9.75567013025,0.1,0.0,0.0,0.0,0.1,0.0,0.0,0.0,0.1
1405689220969797447,76,1405689220969797447,ardrone_base_link,0.0713648311963,0.00992561393656,-0.00434043728132,0.997391449563,1.0,0.0,0.0,0.0,1.0,0.0,0.0,0.0,100000.0,0.000250041484833,-0.00407585129142,-0.00238962774165,1.0,0.0,0.0,0.0,1.0,0.0,0.0,0.0,1.0,-0.130179819465,-0.259586092457,9.75572036505,0.1,0.0,0.0,0.0,0.1,0.0,0.0,0.0,0.1
1405689220974860317,77,1405689220974860317,ardrone_base_link,0.0713560203718,0.00991757117204,-0.0043310249136,0.997392200873,1.0,0.0,0.0,0.0,1.0,0.0,0.0,0.0,100000.0,0.000350214570062,-0.00361027591862,-0.00269513064995,1.0,0.0,0.0,0.0,1.0,0.0,0.0,0.0,1.0,-0.129148034751,-0.264760002494,9.75570400953,0.1,0.0,0.0,0.0,0.1,0.0,0.0,0.0,0.1
1405689221017754658,78,1405689221017754658,ardrone_base_link,0.0713646692842,0.00990012574238,-0.00432986716105,0.997391760412,1.0,0.0,0.0,0.0,1.0,0.0,0.0,0.0,100000.0,-0.00227117910981,-0.00827223807573,-0.000101271551102,1.0,0.0,0.0,0.0,1.0,0.0,0.0,0.0,1.0,-0.157853185758,-0.267032269016,9.73248852491,0.1,0.0,0.0,0.0,0.1,0.0,0.0,0.0,0.1
1405689221017974130,79,1405689221017974130,ardrone_base_link,0.0713558837689,0.00990078621564,-0.00432107676608,0.997392420554,1.0,0.0,0.0,0.0,1.0,0.0,0.0,0.0,100000.0,-0.00141214579344,-0.00266038253903,-0.00306375091895,1.0,0.0,0.0,0.0,1.0,0.0,0.0,0.0,1.0,-0.155693034828,-0.264427178726,9.70978298187,0.1,0.0,0.0,0.0,0.1,0.0,0.0,0.0,0.1
1405689221018117499,80,1405689221018117499,ardrone_base_link,0.071355945057,0.00989145915382,-0.00432915872566,0.997392473666,1.0,0.0,0.0,0.0,1.0,0.0,0.0,0.0,100000.0,-0.00250231102109,-0.00441345199943,-0.00361303146929,1.0,0.0,0.0,0.0,1.0,0.0,0.0,0.0,1.0,-0.151721729711,-0.287138891593,9.71440341473,0.1,0.0,0.0,0.0,0.1,0.0,0.0,0.0,0.1
1405689221019587472,81,1405689221019587472,ardrone_base_link,0.0713385133884,0.00988283034069,-0.00432836416269,0.997393809604,1.0,0.0,0.0,0.0,1.0,0.0,0.0,0.0,100000.0,-0.0036094263196,-0.00303144007921,-0.00529777631164,1.0,0.0,0.0,0.0,1.0,0.0,0.0,0.0,1.0,-0.154241154343,-0.30880003646,9.71636023521,0.1,0.0,0.0,0.0,0.1,0.0,0.0,0.0,0.1
1405689221021153358,82,1405689221021153358,ardrone_base_link,0.0713298921945,0.00988224566472,-0.00433698168903,0.997394394555,1.0,0.0,0.0,0.0,1.0,0.0,0.0,0.0,100000.0,-0.00261219590902,-0.00398342683911,-0.00484313257039,1.0,0.0,0.0,0.0,1.0,0.0,0.0,0.0,1.0,-0.153922203556,-0.302945857495,9.71499162912,0.1,0.0,0.0,0.0,0.1,0.0,0.0,0.0,0.1
1405689221022186876,83,1405689221022186876,ardrone_base_link,0.0713299278768,0.00986421547916,-0.0043444421096,0.997394538016,1.0,0.0,0.0,0.0,1.0,0.0,0.0,0.0,100000.0,-0.00701900944114,-0.00725121423602,-0.00427273288369,1.0,0.0,0.0,0.0,1.0,0.0,0.0,0.0,1.0,-0.154180825129,-0.299499425665,9.71555589437,0.1,0.0,0.0,0.0,0.1,0.0,0.0,0.0,0.1
1405689221023562937,84,1405689221023562937,ardrone_base_link,0.0713213065141,0.00986363101848,-0.00435305980481,0.997395122753,1.0,0.0,0.0,0.0,1.0,0.0,0.0,0.0,100000.0,-0.00459835352376,-0.00324779748917,-0.00236770603806,1.0,0.0,0.0,0.0,1.0,0.0,0.0,0.0,1.0,-0.176261883229,-0.300999094918,9.7158882618,0.1,0.0,0.0,0.0,0.1,0.0,0.0,0.0,0.1
1405689221024762615,85,1405689221024762615,ardrone_base_link,0.0713213925893,0.00986300861109,-0.00436176387567,0.997395084726,1.0,0.0,0.0,0.0,1.0,0.0,0.0,0.0,100000.0,-0.00289967283607,-0.00489777326584,-0.00197547115386,1.0,0.0,0.0,0.0,1.0,0.0,0.0,0.0,1.0,-0.198225276545,-0.300528746098,9.71659680605,0.1,0.0,0.0,0.0,0.1,0.0,0.0,0.0,0.1
1405689221064956748,86,1405689221064956748,ardrone_base_link,0.0713213925893,0.00986300861109,-0.00436176387567,0.997395084726,1.0,0.0,0.0,0.0,1.0,0.0,0.0,0.0,100000.0,-0.000588960945606,-0.00263246521354,-0.00205045752227,1.0,0.0,0.0,0.0,1.0,0.0,0.0,0.0,1.0,-0.192522842437,-0.300174145401,9.71632869244,0.1,0.0,0.0,0.0,0.1,0.0,0.0,0.0,0.1
1405689221067380049,87,1405689221067380049,ardrone_base_link,0.0713213065141,0.00986363101848,-0.00435305980481,0.997395122753,1.0,0.0,0.0,0.0,1.0,0.0,0.0,0.0,100000.0,0.0025401674211,-0.00390687584877,-0.000745391938835,1.0,0.0,0.0,0.0,1.0,0.0,0.0,0.0,1.0,-0.166895923391,-0.299552508071,9.7157761097,0.1,0.0,0.0,0.0,0.1,0.0,0.0,0.0,0.1
1405689221068590996,88,1405689221068590996,ardrone_base_link,0.07132128115,0.00985492664173,-0.00435243802206,0.997395213323,1.0,0.0,0.0,0.0,1.0,0.0,0.0,0.0,100000.0,-0.00184243917465,-0.00481578707695,-0.00199455395341,1.0,0.0,0.0,0.0,1.0,0.0,0.0,0.0,1.0,-0.14689969141,-0.322282383591,9.71429243088,0.1,0.0,0.0,0.0,0.1,0.0,0.0,0.0,0.1
1405689221076960084,89,1405689221076960084,ardrone_base_link,0.0713213417068,0.00984560089488,-0.00436052038554,0.997395265791,1.0,0.0,0.0,0.0,1.0,0.0,0.0,0.0,100000.0,-0.001519292593,-0.00405557826161,-0.00238388590515,1.0,0.0,0.0,0.0,1.0,0.0,0.0,0.0,1.0,-0.17433777377,-0.323067484796,9.71491919756,0.1,0.0,0.0,0.0,0.1,0.0,0.0,0.0,0.1
1405689221078120816,90,1405689221078120816,ardrone_base_link,0.0713126425603,0.00984563892636,-0.0043604345134,0.997395887808,1.0,0.0,0.0,0.0,1.0,0.0,0.0,0.0,100000.0,-0.00315202400088,-0.00385981798172,-0.0023591928184,1.0,0.0,0.0,0.0,1.0,0.0,0.0,0.0,1.0,-0.198463344201,-0.297217028216,9.71678080559,0.1,0.0,0.0,0.0,0.1,0.0,0.0,0.0,0.1
1405689221079464236,91,1405689221079464236,ardrone_base_link,0.0713040210238,0.00984505475613,-0.00436905238256,0.997396472254,1.0,0.0,0.0,0.0,1.0,0.0,0.0,0.0,100000.0,-0.00379103794694,-0.00409329682589,-0.00462004682049,1.0,0.0,0.0,0.0,1.0,0.0,0.0,0.0,1.0,-0.191063423082,-0.301223034039,9.71650100946,0.1,0.0,0.0,0.0,0.1,0.0,0.0,0.0,0.1
1405689221080865034,92,1405689221080865034,ardrone_base_link,0.0713040210238,0.00984505475613,-0.00436905238256,0.997396472254,1.0,0.0,0.0,0.0,1.0,0.0,0.0,0.0,100000.0,0.000275705009699,-0.00394377112389,-0.00298484228551,1.0,0.0,0.0,0.0,1.0,0.0,0.0,0.0,1.0,-0.166258952767,-0.306276030093,9.71570893526,0.1,0.0,0.0,0.0,0.1,0.0,0.0,0.0,0.1
1405689221082076236,93,1405689221082076236,ardrone_base_link,0.0713039954953,0.00983635036748,-0.00436843075264,0.997396562682,1.0,0.0,0.0,0.0,1.0,0.0,0.0,0.0,100000.0,-0.00261328369379,-0.00410126894712,-0.00217665173113,1.0,0.0,0.0,0.0,1.0,0.0,0.0,0.0,1.0,-0.145713898353,-0.304168760777,9.71533801556,0.1,0.0,0.0,0.0,0.1,0.0,0.0,0.0,0.1
1405689221083297984,94,1405689221083297984,ardrone_base_link,0.0712952708059,0.00982768511072,-0.00436772348093,0.99739727489,1.0,0.0,0.0,0.0,1.0,0.0,0.0,0.0,100000.0,-0.000234093517065,-0.0041623339057,-0.00239677494392,1.0,0.0,0.0,0.0,1.0,0.0,0.0,0.0,1.0,-0.151103679277,-0.304333593696,9.71543381214,0.1,0.0,0.0,0.0,0.1,0.0,0.0,0.0,0.1
1405689221086241932,95,1405689221086241932,ardrone_base_link,0.0712952708059,0.00982768511072,-0.00436772348093,0.99739727489,1.0,0.0,0.0,0.0,1.0,0.0,0.0,0.0,100000.0,-0.001394379884,-0.00399753451347,-0.00157359428704,1.0,0.0,0.0,0.0,1.0,0.0,0.0,0.0,1.0,-0.177498148382,-0.303069984168,9.69262020588,0.1,0.0,0.0,0.0,0.1,0.0,0.0,0.0,0.1
1405689221087109469,96,1405689221087109469,ardrone_base_link,0.0712952452657,0.00981898071514,-0.00436710192626,0.997397365166,1.0,0.0,0.0,0.0,1.0,0.0,0.0,0.0,100000.0,-0.0022738724947,-0.0065368488431,-0.00272878725082,1.0,0.0,0.0,0.0,1.0,0.0,0.0,0.0,1.0,-0.198730563372,-0.302342382818,9.67018511295,0.1,0.0,0.0,0.0,0.1,0.0,0.0,0.0,0.1
1405689221120858184,97,1405689221120858184,ardrone_base_link,0.0712865378003,0.00981901884037,-0.00436701620458,0.997397987549,1.0,0.0,0.0,0.0,1.0,0.0,0.0,0.0,100000.0,-0.00126860663295,-0.00319946557283,-0.00281163258478,1.0,0.0,0.0,0.0,1.0,0.0,0.0,0.0,1.0,-0.193655607849,-0.301776419953,9.67585813999,0.1,0.0,0.0,0.0,0.1,0.0,0.0,0.0,0.1
1405689221121988470,98,1405689221121988470,ardrone_base_link,0.0712865633412,0.00982772324137,-0.00436763768327,0.997397897273,1.0,0.0,0.0,0.0,1.0,0.0,0.0,0.0,100000.0,-0.00121856108308,-0.0026479139924,-0.00220177345909,1.0,0.0,0.0,0.0,1.0,0.0,0.0,0.0,1.0,-0.190644769371,-0.301502939686,9.67879395485,0.1,0.0,0.0,0.0,0.1,0.0,0.0,0.0,0.1
1405689221123660019,99,1405689221123660019,ardrone_base_link,0.0712865888736,0.00983642660403,-0.00436825908753,0.997397806931,1.0,0.0,0.0,0.0,1.0,0.0,0.0,0.0,100000.0,0.000932324677706,0.00157546624541,-0.000952268950641,1.0,0.0,0.0,0.0,1.0,0.0,0.0,0.0,1.0,-0.192609347776,-0.30139080584,9.67716950178,0.1,0.0,0.0,0.0,0.1,0.0,0.0,0.0,0.1
1405689221124817965,100,1405689221124817965,ardrone_base_link,0.071286528487,0.00984575308888,-0.00436017673112,0.99739775459,1.0,0.0,0.0,0.0,1.0,0.0,0.0,0.0,100000.0,0.000302080065012,0.00050001963973,-0.00151493912563,1.0,0.0,0.0,0.0,1.0,0.0,0.0,0.0,1.0,-0.191236506775,-0.301969418675,9.70099948645,0.1,0.0,0.0,0.0,0.1,0.0,0.0,0.0,0.1
1405689221126065455,101,1405689221126065455,ardrone_base_link,0.0712864425623,0.00984637519202,-0.00435147263696,0.997397792602,1.0,0.0,0.0,0.0,1.0,0.0,0.0,0.0,100000.0,0.00133021920919,-0.00320589914918,-0.000830997305457,1.0,0.0,0.0,0.0,1.0,0.0,0.0,0.0,1.0,-0.19015952535,-0.302763738111,9.72378855944,0.1,0.0,0.0,0.0,0.1,0.0,0.0,0.0,0.1
1405689221127514248,102,1405689221127514248,ardrone_base_link,0.0712864425623,0.00984637519202,-0.00435147263696,0.997397792602,1.0,0.0,0.0,0.0,1.0,0.0,0.0,0.0,100000.0,-0.00021131336689,-0.00563102588058,-0.00312408292666,1.0,0.0,0.0,0.0,1.0,0.0,0.0,0.0,1.0,-0.189465200901,-0.302973457426,9.71818737984,0.1,0.0,0.0,0.0,0.1,0.0,0.0,0.0,0.1
1405689221128497212,103,1405689221128497212,ardrone_base_link,0.0712777097142,0.00983770877543,-0.00435076527252,0.997398505325,1.0,0.0,0.0,0.0,1.0,0.0,0.0,0.0,100000.0,-0.000187527388334,-0.00770195573568,-0.00267412001267,1.0,0.0,0.0,0.0,1.0,0.0,0.0,0.0,1.0,-0.188803496212,-0.303380866721,9.71504186392,0.1,0.0,0.0,0.0,0.1,0.0,0.0,0.0,0.1
1405689221130228113,104,1405689221130228113,ardrone_base_link,0.0712776843329,0.0098290054069,-0.00435014394266,0.997398595656,1.0,0.0,0.0,0.0,1.0,0.0,0.0,0.0,100000.0,-0.00203689187765,-0.00607141107321,-0.00418685283512,1.0,0.0,0.0,0.0,1.0,0.0,0.0,0.0,1.0,-0.188258251548,-0.303912621737,9.71673115492,0.1,0.0,0.0,0.0,0.1,0.0,0.0,0.0,0.1
1405689221131196765,105,1405689221131196765,ardrone_base_link,0.0712689597668,0.00982033893559,-0.00434943688692,0.997399307557,1.0,0.0,0.0,0.0,1.0,0.0,0.0,0.0,100000.0,-0.00127425417304,-0.00566433742642,-0.00300821848214,1.0,0.0,0.0,0.0,1.0,0.0,0.0,0.0,1.0,-0.187720034644,-0.304828037694,9.73974511623,0.1,0.0,0.0,0.0,0.1,0.0,0.0,0.0,0.1
1405689221173819858,106,1405689221173819858,ardrone_base_link,0.0712691566962,0.00982779946409,-0.00436746616872,0.997399141217,1.0,0.0,0.0,0.0,1.0,0.0,0.0,0.0,100000.0,-0.00508205965161,-0.00254510343075,-0.00227483198978,1.0,0.0,0.0,0.0,1.0,0.0,0.0,0.0,1.0,-0.188018468022,-0.305399458483,9.76269248724,0.1,0.0,0.0,0.0,0.1,0.0,0.0,0.0,0.1
1405689221175143444,107,1405689221175143444,ardrone_base_link,0.0712691311537,0.00981909505224,-0.00436684484195,0.997399231493,1.0,0.0,0.0,0.0,1.0,0.0,0.0,0.0,100000.0,-0.00268093496561,-0.00405324995518,-0.0023046368733,1.0,0.0,0.0,0.0,1.0,0.0,0.0,0.0,1.0,-0.167119187117,-0.304496856779,9.75622797012,0.1,0.0,0.0,0.0,0.1,0.0,0.0,0.0,0.1
1405689221176495901,108,1405689221176495901,ardrone_base_link,0.0712605093563,0.00981851131769,-0.00437546297202,0.997399815503,1.0,0.0,0.0,0.0,1.0,0.0,0.0,0.0,100000.0,-0.00381213799119,-0.00337129086256,-0.00165996327996,1.0,0.0,0.0,0.0,1.0,0.0,0.0,0.0,1.0,-0.14724050127,-0.302700597793,9.72945224047,0.1,0.0,0.0,0.0,0.1,0.0,0.0,0.0,0.1
1405689221178011188,109,1405689221178011188,ardrone_base_link,0.0712604837317,0.00980980689989,-0.0043748417217,0.997399905708,1.0,0.0,0.0,0.0,1.0,0.0,0.0,0.0,100000.0,-0.00302536040545,-0.00455312803388,-0.00411857711151,1.0,0.0,0.0,0.0,1.0,0.0,0.0,0.0,1.0,-0.15413396731,-0.301196438074,9.70832383633,0.1,0.0,0.0,0.0,0.1,0.0,0.0,0.0,0.1
1405689221179043052,110,1405689221179043052,ardrone_base_link,0.0712517332806,0.00979243724521,-0.00437351388598,0.997400707366,1.0,0.0,0.0,0.0,1.0,0.0,0.0,0.0,100000.0,-0.000190291553736,-0.00699007883668,-0.00364933349192,1.0,0.0,0.0,0.0,1.0,0.0,0.0,0.0,1.0,-0.156677596644,-0.300418528914,9.71370363235,0.1,0.0,0.0,0.0,0.1,0.0,0.0,0.0,0.1
1405689221180314006,111,1405689221180314006,ardrone_base_link,0.071243025786,0.00979247542642,-0.00437342839603,0.997401329368,1.0,0.0,0.0,0.0,1.0,0.0,0.0,0.0,100000.0,-0.00171811133623,-0.00290667638183,-0.0051287766546,1.0,0.0,0.0,0.0,1.0,0.0,0.0,0.0,1.0,-0.154327440634,-0.299819745496,9.71680475473,0.1,0.0,0.0,0.0,0.1,0.0,0.0,0.0,0.1
1405689221181689826,112,1405689221181689826,ardrone_base_link,0.0712429147653,0.00978439373789,-0.00436410350391,0.997401457456,1.0,0.0,0.0,0.0,1.0,0.0,0.0,0.0,100000.0,0.00194716081023,-0.00501367868856,-0.00259645842016,1.0,0.0,0.0,0.0,1.0,0.0,0.0,0.0,1.0,-0.154050017521,-0.299619645998,9.71496475935,0.1,0.0,0.0,0.0,0.1,0.0,0.0,0.0,0.1
1405689221182967854,113,1405689221182967854,ardrone_base_link,0.0712343009464,0.0097838101718,-0.00437272203778,0.997402040668,1.0,0.0,0.0,0.0,1.0,0.0,0.0,0.0,100000.0,-0.00264386460185,-0.000139120966196,-0.00229281373322,1.0,0.0,0.0,0.0,1.0,0.0,0.0,0.0,1.0,-0.153295801952,-0.300080247223,9.71553428173,0.1,0.0,0.0,0.0,0.1,0.0,0.0,0.0,0.1
1405689221184267547,114,1405689221184267547,ardrone_base_link,0.0712343009464,0.0097838101718,-0.00437272203778,0.997402040668,1.0,0.0,0.0,0.0,1.0,0.0,0.0,0.0,100000.0,-0.00343206897378,-0.00225458666682,-0.00310424156487,1.0,0.0,0.0,0.0,1.0,0.0,0.0,0.0,1.0,-0.152443918772,-0.278514734656,9.71645778418,0.1,0.0,0.0,0.0,0.1,0.0,0.0,0.0,0.1
1405689221185670534,115,1405689221185670534,ardrone_base_link,0.0712342752977,0.00977510573476,-0.00437210101395,0.997402130569,1.0,0.0,0.0,0.0,1.0,0.0,0.0,0.0,100000.0,-0.00436298921704,-0.00458822771907,-0.00142228696495,1.0,0.0,0.0,0.0,1.0,0.0,0.0,0.0,1.0,-0.151866236888,-0.280193091556,9.71656759977,0.1,0.0,0.0,0.0,0.1,0.0,0.0,0.0,0.1
1405689221186828976,116,1405689221186828976,ardrone_base_link,0.0712256530936,0.00977452233174,-0.00438071981275,0.997402714228,1.0,0.0,0.0,0.0,1.0,0.0,0.0,0.0,100000.0,-0.00420933589339,-0.00178865343332,-0.00363800348714,1.0,0.0,0.0,0.0,1.0,0.0,0.0,0.0,1.0,-0.1520725701,-0.30869602561,9.71518497467,0.1,0.0,0.0,0.0,0.1,0.0,0.0,0.0,0.1
1405689221188203978,117,1405689221188203978,ardrone_base_link,0.0712257125819,0.00976519633487,-0.00438880274386,0.997402765796,1.0,0.0,0.0,0.0,1.0,0.0,0.0,0.0,100000.0,-0.00213685631752,-0.00626551359892,-0.00321884430014,1.0,0.0,0.0,0.0,1.0,0.0,0.0,0.0,1.0,-0.151626362093,-0.306392015517,9.71532866955,0.1,0.0,0.0,0.0,0.1,0.0,0.0,0.0,0.1
1405689221191130331,118,1405689221191130331,ardrone_base_link,0.0712170050692,0.00976523464956,-0.00438871749173,0.997403387572,1.0,0.0,0.0,0.0,1.0,0.0,0.0,0.0,100000.0,-0.00271825119853,-0.00238781422377,-0.00161613908131,1.0,0.0,0.0,0.0,1.0,0.0,0.0,0.0,1.0,-0.151307940669,-0.301628362387,9.71557224989,0.1,0.0,0.0,0.0,0.1,0.0,0.0,0.0,0.1
1405689221194623229,119,1405689221194623229,ardrone_base_link,0.0712171495325,0.00975528826214,-0.00440550472259,0.997403400581,1.0,0.0,0.0,0.0,1.0,0.0,0.0,0.0,100000.0,-0.00617629662156,-0.00473587587476,-0.00337293138728,1.0,0.0,0.0,0.0,1.0,0.0,0.0,0.0,1.0,-0.151534864306,-0.302986928821,9.71544315815,0.1,0.0,0.0,0.0,0.1,0.0,0.0,0.0,0.1
1405689221232552738,120,1405689221232552738,ardrone_base_link,0.0712172086159,0.00974596231473,-0.00441358799676,0.997403451797,1.0,0.0,0.0,0.0,1.0,0.0,0.0,0.0,100000.0,-0.0049644485116,-0.00443362817168,-0.00154538173229,1.0,0.0,0.0,0.0,1.0,0.0,0.0,0.0,1.0,-0.151993010379,-0.301769173145,9.71547995806,0.1,0.0,0.0,0.0,0.1,0.0,0.0,0.0,0.1
1405689221233808438,121,1405689221233808438,ardrone_base_link,0.0712172086159,0.00974596231473,-0.00441358799676,0.997403451797,1.0,0.0,0.0,0.0,1.0,0.0,0.0,0.0,100000.0,-0.00349066779017,-0.000954460352659,-0.000869396608323,1.0,0.0,0.0,0.0,1.0,0.0,0.0,0.0,1.0,-0.152625682205,-0.301430690661,9.71546769142,0.1,0.0,0.0,0.0,0.1,0.0,0.0,0.0,0.1
1405689221235272833,122,1405689221235272833,ardrone_base_link,0.0712172086159,0.00974596231473,-0.00441358799676,0.997403451797,1.0,0.0,0.0,0.0,1.0,0.0,0.0,0.0,100000.0,-0.000325195491314,7.4427574873e-05,-0.00201886892319,1.0,0.0,0.0,0.0,1.0,0.0,0.0,0.0,1.0,-0.153234505281,-0.300638214871,9.71547937393,0.1,0.0,0.0,0.0,0.1,0.0,0.0,0.0,0.1
1405689221236909723,123,1405689221236909723,ardrone_base_link,0.0712172346623,0.00975466676372,-0.00441420886569,0.997403362098,1.0,0.0,0.0,0.0,1.0,0.0,0.0,0.0,100000.0,0.000199276953936,0.000166613608599,-0.000755831133574,1.0,0.0,0.0,0.0,1.0,0.0,0.0,0.0,1.0,-0.153628370166,-0.300505746156,9.7154741168,0.1,0.0,0.0,0.0,0.1,0.0,0.0,0.0,0.1
1405689221237952701,124,1405689221237952701,ardrone_base_link,0.0712172346623,0.00975466676372,-0.00441420886569,0.997403362098,1.0,0.0,0.0,0.0,1.0,0.0,0.0,0.0,100000.0,-0.00103740394115,-0.00228089466691,-0.00156299211085,1.0,0.0,0.0,0.0,1.0,0.0,0.0,0.0,1.0,-0.153578518704,-0.300622425228,9.7154717803,0.1,0.0,0.0,0.0,0.1,0.0,0.0,0.0,0.1
1405689221239056942,125,1405689221239056942,ardrone_base_link,0.0712172086159,0.00974596231473,-0.00441358799676,0.997403451797,1.0,0.0,0.0,0.0,1.0,0.0,0.0,0.0,100000.0,-0.00261720642447,-0.00576764345169,-0.00184778426774,1.0,0.0,0.0,0.0,1.0,0.0,0.0,0.0,1.0,-0.153044509329,-0.301202662662,9.71547937393,0.1,0.0,0.0,0.0,0.1,0.0,0.0,0.0,0.1
1405689221240489596,126,1405689221240489596,ardrone_base_link,0.07121715651,0.00972855445214,-0.0044123463319,0.997403630957,1.0,0.0,0.0,0.0,1.0,0.0,0.0,0.0,100000.0,-0.00173749774694,-0.00789913907647,-0.00125050731003,1.0,0.0,0.0,0.0,1.0,0.0,0.0,0.0,1.0,-0.152296089381,-0.302313906699,9.7154741168,0.1,0.0,0.0,0.0,0.1,0.0,0.0,0.0,0.1
1405689221241931154,127,1405689221241931154,ardrone_base_link,0.0712170456214,0.00972047149845,-0.00440302131573,0.997403758891,1.0,0.0,0.0,0.0,1.0,0.0,0.0,0.0,100000.0,0.00140799954534,-0.0059082582593,-0.00138867227361,1.0,0.0,0.0,0.0,1.0,0.0,0.0,0.0,1.0,-0.150955457427,-0.304047244415,9.73888119459,0.1,0.0,0.0,0.0,0.1,0.0,0.0,0.0,0.1
1405689221243161595,128,1405689221243161595,ardrone_base_link,0.0712083204111,0.00971180648064,-0.00440231581382,0.997404469378,1.0,0.0,0.0,0.0,1.0,0.0,0.0,0.0,100000.0,0.000401109457016,-0.00327679887414,-0.00291810906492,1.0,0.0,0.0,0.0,1.0,0.0,0.0,0.0,1.0,-0.150303472951,-0.305462069437,9.76177073717,0.1,0.0,0.0,0.0,0.1,0.0,0.0,0.0,0.1
1405689221244380846,129,1405689221244380846,ardrone_base_link,0.0712082356579,0.00971242788275,-0.00439361192046,0.997404507757,1.0,0.0,0.0,0.0,1.0,0.0,0.0,0.0,100000.0,0.00140704214573,-0.000860650092363,-0.00229267263785,1.0,0.0,0.0,0.0,1.0,0.0,0.0,0.0,1.0,-0.15138293691,-0.305714868009,9.75599315166,0.1,0.0,0.0,0.0,0.1,0.0,0.0,0.0,0.1
1405689221278532702,130,1405689221278532702,ardrone_base_link,0.0711995281301,0.00971246623942,-0.00439352712901,0.99740512938,1.0,0.0,0.0,0.0,1.0,0.0,0.0,0.0,100000.0,-0.000222522765398,-0.00116128474474,-0.0029965126887,1.0,0.0,0.0,0.0,1.0,0.0,0.0,0.0,1.0,-0.153463592008,-0.305132221058,9.7295719862,0.1,0.0,0.0,0.0,0.1,0.0,0.0,0.0,0.1
1405689221279773760,131,1405689221279773760,ardrone_base_link,0.0711995540447,0.00972116966505,-0.00439414777494,0.997405040006,1.0,0.0,0.0,0.0,1.0,0.0,0.0,0.0,100000.0,-0.000360395759344,0.000418547570007,-0.00221084337682,1.0,0.0,0.0,0.0,1.0,0.0,0.0,0.0,1.0,-0.176688933745,-0.305478753522,9.73227590322,0.1,0.0,0.0,0.0,0.1,0.0,0.0,0.0,0.1
1405689221281202433,132,1405689221281202433,ardrone_base_link,0.0711994950436,0.00973049547191,-0.00438606433757,0.99740498886,1.0,0.0,0.0,0.0,1.0,0.0,0.0,0.0,100000.0,0.000563163310289,-0.00169932469726,-0.000687243416905,1.0,0.0,0.0,0.0,1.0,0.0,0.0,0.0,1.0,-0.176024618745,-0.305452924222,9.73708734512,0.1,0.0,0.0,0.0,0.1,0.0,0.0,0.0,0.1
1405689221282633180,133,1405689221282633180,ardrone_base_link,0.0711994692073,0.00972179100919,-0.0043854436172,0.997405078315,1.0,0.0,0.0,0.0,1.0,0.0,0.0,0.0,100000.0,0.0004957690835,-0.00224211812019,-0.0029937881045,1.0,0.0,0.0,0.0,1.0,0.0,0.0,0.0,1.0,-0.148641380295,-0.304055659473,9.71090041399,0.1,0.0,0.0,0.0,0.1,0.0,0.0,0.0,0.1
1405689221283808226,134,1405689221283808226,ardrone_base_link,0.0711994950436,0.00973049547191,-0.00438606433757,0.99740498886,1.0,0.0,0.0,0.0,1.0,0.0,0.0,0.0,100000.0,0.000250652432442,0.000259604305029,-0.00187212228775,1.0,0.0,0.0,0.0,1.0,0.0,0.0,0.0,1.0,-0.150128180534,-0.303616762161,9.71189109087,0.1,0.0,0.0,0.0,0.1,0.0,0.0,0.0,0.1
1405689221285109404,135,1405689221285109404,ardrone_base_link,0.0711907108957,0.00973115497537,-0.00437727556606,0.997405648051,1.0,0.0,0.0,0.0,1.0,0.0,0.0,0.0,100000.0,0.000322114676237,-0.00208809226751,-0.00316268298775,1.0,0.0,0.0,0.0,1.0,0.0,0.0,0.0,1.0,-0.1533034686,-0.303263347968,9.71723350286,0.1,0.0,0.0,0.0,0.1,0.0,0.0,0.0,0.1
1405689221286463011,136,1405689221286463011,ardrone_base_link,0.0711907108957,0.00973115497537,-0.00437727556606,0.997405648051,1.0,0.0,0.0,0.0,1.0,0.0,0.0,0.0,100000.0,0.000213351115235,-0.00145029276609,-0.00249595195055,1.0,0.0,0.0,0.0,1.0,0.0,0.0,0.0,1.0,-0.150572526641,-0.302673508972,9.71497001648,0.1,0.0,0.0,0.0,0.1,0.0,0.0,0.0,0.1
1405689221287524129,137,1405689221287524129,ardrone_base_link,0.0711906259711,0.00973177624233,-0.00436857140301,0.997405686212,1.0,0.0,0.0,0.0,1.0,0.0,0.0,0.0,100000.0,0.000267319381237,0.000468723475933,-0.000578668434173,1.0,0.0,0.0,0.0,1.0,0.0,0.0,0.0,1.0,-0.15071441438,-0.302309032902,9.71564993858,0.1,0.0,0.0,0.0,0.1,0.0,0.0,0.0,0.1
1405689221288818934,138,1405689221288818934,ardrone_base_link,0.0711906002859,0.00972307177374,-0.004367950757,0.997405775656,1.0,0.0,0.0,0.0,1.0,0.0,0.0,0.0,100000.0,0.000369612127542,-0.0050763450563,-0.00150895211846,1.0,0.0,0.0,0.0,1.0,0.0,0.0,0.0,1.0,-0.150558617152,-0.302036063746,9.71526675224,0.1,0.0,0.0,0.0,0.1,0.0,0.0,0.0,0.1
1405689221290213069,139,1405689221290213069,ardrone_base_link,0.0711905410436,0.00973239749003,-0.00435986749903,0.997405724297,1.0,0.0,0.0,0.0,1.0,0.0,0.0,0.0,100000.0,0.000299859791994,-0.000600878149271,-0.00100307585672,1.0,0.0,0.0,0.0,1.0,0.0,0.0,0.0,1.0,-0.15043028295,-0.302558837831,9.73901320696,0.1,0.0,0.0,0.0,0.1,0.0,0.0,0.0,0.1
1405689221322493044,140,1405689221322493044,ardrone_base_link,0.0711905410436,0.00973239749003,-0.00435986749903,0.997405724297,1.0,0.0,0.0,0.0,1.0,0.0,0.0,0.0,100000.0,0.000273458659649,-0.000547785311937,-0.00163873983547,1.0,0.0,0.0,0.0,1.0,0.0,0.0,0.0,1.0,-0.150101703219,-0.303156471252,9.76175963879,0.1,0.0,0.0,0.0,0.1,0.0,0.0,0.0,0.1
1405689221323930551,141,1405689221323930551,ardrone_base_link,0.0711905154344,0.00972369302122,-0.00435924685224,0.997405813735,1.0,0.0,0.0,0.0,1.0,0.0,0.0,0.0,100000.0,0.000301577150822,-0.0036374591291,-0.00179698504508,1.0,0.0,0.0,0.0,1.0,0.0,0.0,0.0,1.0,-0.15194044821,-0.302409338206,9.7325340867,0.1,0.0,0.0,0.0,0.1,0.0,0.0,0.0,0.1
1405689221325182845,142,1405689221325182845,ardrone_base_link,0.071181748572,0.00973305672308,-0.00435107862351,0.997406383773,1.0,0.0,0.0,0.0,1.0,0.0,0.0,0.0,100000.0,0.000293932855129,-0.000425904989243,-0.00270009506494,1.0,0.0,0.0,0.0,1.0,0.0,0.0,0.0,1.0,-0.176207632571,-0.302096557245,9.70724203587,0.1,0.0,0.0,0.0,0.1,0.0,0.0,0.0,0.1
1405689221326881281,143,1405689221326881281,ardrone_base_link,0.0711818078952,0.00972373107788,-0.00435916196244,0.997406435204,1.0,0.0,0.0,0.0,1.0,0.0,0.0,0.0,100000.0,-0.00225583836436,-0.00636084750295,-0.00222965329885,1.0,0.0,0.0,0.0,1.0,0.0,0.0,0.0,1.0,-0.198415062577,-0.302698608115,9.71514233351,0.1,0.0,0.0,0.0,0.1,0.0,0.0,0.0,0.1
1405689221328122869,144,1405689221328122869,ardrone_base_link,0.0711731086513,0.00972376909752,-0.00435907715324,0.997407056004,1.0,0.0,0.0,0.0,1.0,0.0,0.0,0.0,100000.0,-0.00136677920818,-0.00691644847393,-0.0043995315209,1.0,0.0,0.0,0.0,1.0,0.0,0.0,0.0,1.0,-0.193043261766,-0.302777592838,9.71759974957,0.1,0.0,0.0,0.0,0.1,0.0,0.0,0.0,0.1
1405689221329074273,145,1405689221329074273,ardrone_base_link,0.0711644602639,0.00971448268514,-0.00436707583931,0.9974077286,1.0,0.0,0.0,0.0,1.0,0.0,0.0,0.0,100000.0,-0.00505794584751,-0.00578055903316,-0.00445852754638,1.0,0.0,0.0,0.0,1.0,0.0,0.0,0.0,1.0,-0.167861263826,-0.302374820039,9.71545600891,0.1,0.0,0.0,0.0,0.1,0.0,0.0,0.0,0.1
1405689221330511026,146,1405689221330511026,ardrone_base_link,0.0711557270088,0.00970581631841,-0.00436637068713,0.997408439131,1.0,0.0,0.0,0.0,1.0,0.0,0.0,0.0,100000.0,-0.00271401926875,-0.00402051955462,-0.00456172972918,1.0,0.0,0.0,0.0,1.0,0.0,0.0,0.0,1.0,-0.147729313932,-0.301890141889,9.71523579359,0.1,0.0,0.0,0.0,0.1,0.0,0.0,0.0,0.1
1405689221331698493,147,1405689221331698493,ardrone_base_link,0.0711470020452,0.00969715094066,-0.00436566584092,0.997409148908,1.0,0.0,0.0,0.0,1.0,0.0,0.0,0.0,100000.0,-0.00116426497698,-0.00337491184473,-0.00477098254487,1.0,0.0,0.0,0.0,1.0,0.0,0.0,0.0,1.0,-0.153367302567,-0.301494707167,9.71539818048,0.1,0.0,0.0,0.0,0.1,0.0,0.0,0.0,0.1
1405689221332209158,148,1405689221332209158,ardrone_base_link,0.0711471124458,0.00970523351444,-0.00437499022666,0.997409021562,1.0,0.0,0.0,0.0,1.0,0.0,0.0,0.0,100000.0,-0.00388127565384,3.92012298107e-05,-0.003817233257,1.0,0.0,0.0,0.0,1.0,0.0,0.0,0.0,1.0,-0.156810539961,-0.300917007029,9.71561839581,0.1,0.0,0.0,0.0,0.1,0.0,0.0,0.0,0.1
1405689221334758780,149,1405689221334758780,ardrone_base_link,0.0711383201799,0.00970589251904,-0.00436620130012,0.997409680793,1.0,0.0,0.0,0.0,1.0,0.0,0.0,0.0,100000.0,0.000882185995579,-0.00329715013504,-0.00271911732852,1.0,0.0,0.0,0.0,1.0,0.0,0.0,0.0,1.0,-0.155146530643,-0.300334396586,9.71539584398,0.1,0.0,0.0,0.0,0.1,0.0,0.0,0.0,0.1
1405689221339740133,150,1405689221339740133,ardrone_base_link,0.0711383790996,0.00969656824308,-0.00437428538152,0.997409731861,1.0,0.0,0.0,0.0,1.0,0.0,0.0,0.0,100000.0,-0.00316536426544,-0.00187892839313,-0.00361660961062,1.0,0.0,0.0,0.0,1.0,0.0,0.0,0.0,1.0,-0.155226428062,-0.300083514675,9.7154717803,0.1,0.0,0.0,0.0,0.1,0.0,0.0,0.0,0.1
1405689221356178433,151,1405689221356178433,ardrone_base_link,0.071129679827,0.00969660639463,-0.00437420080923,0.997410352282,1.0,0.0,0.0,0.0,1.0,0.0,0.0,0.0,100000.0,-0.00069809705019,-0.00237994268537,-0.00278597604483,1.0,0.0,0.0,0.0,1.0,0.0,0.0,0.0,1.0,-0.154118834808,-0.300224471465,9.71550098658,0.1,0.0,0.0,0.0,0.1,0.0,0.0,0.0,0.1
1405689221356798569,152,1405689221356798569,ardrone_base_link,0.0711295952039,0.00969722712898,-0.00436549660513,0.997410390417,1.0,0.0,0.0,0.0,1.0,0.0,0.0,0.0,100000.0,0.00153445824981,-0.0027365128044,-0.00217539723963,1.0,0.0,0.0,0.0,1.0,0.0,0.0,0.0,1.0,-0.153048780747,-0.300734577328,9.71546009779,0.1,0.0,0.0,0.0,0.1,0.0,0.0,0.0,0.1
1405689221357344908,153,1405689221357344908,ardrone_base_link,0.0711295952039,0.00969722712898,-0.00436549660513,0.997410390417,1.0,0.0,0.0,0.0,1.0,0.0,0.0,0.0,100000.0,-0.00295732170343,-0.0020439773798,-0.002750759013,1.0,0.0,0.0,0.0,1.0,0.0,0.0,0.0,1.0,-0.151869796403,-0.301477731019,9.7154741168,0.1,0.0,0.0,0.0,0.1,0.0,0.0,0.0,0.1
1405689221359655612,154,1405689221359655612,ardrone_base_link,0.0711208876247,0.0096972652402,-0.00436541194638,0.997411011353,1.0,0.0,0.0,0.0,1.0,0.0,0.0,0.0,100000.0,-0.000255402177572,-0.00211608782411,-0.00165925873443,1.0,0.0,0.0,0.0,1.0,0.0,0.0,0.0,1.0,-0.151167093404,-0.302317356691,9.71547937393,0.1,0.0,0.0,0.0,0.1,0.0,0.0,0.0,0.1
1405689221364488128,155,1405689221364488128,ardrone_base_link,0.0711209722481,0.00969664458184,-0.0043741161559,0.997410973219,1.0,0.0,0.0,0.0,1.0,0.0,0.0,0.0,100000.0,-0.00266765803099,4.64208424091e-05,-0.0039396006614,1.0,0.0,0.0,0.0,1.0,0.0,0.0,0.0,1.0,-0.150927601941,-0.303098770604,9.71547703743,0.1,0.0,0.0,0.0,0.1,0.0,0.0,0.0,0.1
1405689221368808913,156,1405689221368808913,ardrone_base_link,0.0711122729647,0.00969668273191,-0.00437403158294,0.997411593489,1.0,0.0,0.0,0.0,1.0,0.0,0.0,0.0,100000.0,-0.00177019461989,-0.0031402297318,-0.00502886390314,1.0,0.0,0.0,0.0,1.0,0.0,0.0,0.0,1.0,-0.150997879542,-0.30362373516,9.71547528505,0.1,0.0,0.0,0.0,0.1,0.0,0.0,0.0,0.1
1405689221374933678,157,1405689221374933678,ardrone_base_link,0.0711034807509,0.0096973414241,-0.0043652427086,0.997412252406,1.0,0.0,0.0,0.0,1.0,0.0,0.0,0.0,100000.0,0.00192204490304,-0.00117465108633,-0.00467077223584,1.0,0.0,0.0,0.0,1.0,0.0,0.0,0.0,1.0,-0.15217778571,-0.303121022135,9.69206587076,0.1,0.0,0.0,0.0,0.1,0.0,0.0,0.0,0.1
1405689221378827521,158,1405689221378827521,ardrone_base_link,0.0710947474401,0.00968867500202,-0.00436453823713,0.997412962252,1.0,0.0,0.0,0.0,1.0,0.0,0.0,0.0,100000.0,0.000193383544683,-0.00631393119693,-0.00460544135422,1.0,0.0,0.0,0.0,1.0,0.0,0.0,0.0,1.0,-0.15341129452,-0.30228170678,9.66918333769,0.1,0.0,0.0,0.0,0.1,0.0,0.0,0.0,0.1
1405689221383988700,159,1405689221383988700,ardrone_base_link,0.0710860224177,0.00968000853132,-0.00436383399755,0.997413671354,1.0,0.0,0.0,0.0,1.0,0.0,0.0,0.0,100000.0,-0.00145617127419,-0.00654819980264,-0.00243934523314,1.0,0.0,0.0,0.0,1.0,0.0,0.0,0.0,1.0,-0.176193777844,-0.30237929225,9.6754761219,0.1,0.0,0.0,0.0,0.1,0.0,0.0,0.0,0.1
1405689221389028155,160,1405689221389028155,ardrone_base_link,0.0710859966937,0.00967130503097,-0.00436321433495,0.997413760329,1.0,0.0,0.0,0.0,1.0,0.0,0.0,0.0,100000.0,-0.00167331472039,-0.00599010288715,-0.00176478829235,1.0,0.0,0.0,0.0,1.0,0.0,0.0,0.0,1.0,-0.198710301518,-0.302485493571,9.67898554802,0.1,0.0,0.0,0.0,0.1,0.0,0.0,0.0,0.1
1405689221393932384,161,1405689221393932384,ardrone_base_link,0.0710860810906,0.00967068467709,-0.00437191856846,0.997413722214,1.0,0.0,0.0,0.0,1.0,0.0,0.0,0.0,100000.0,-0.00568454712629,-0.00397547706962,-0.0034817410633,1.0,0.0,0.0,0.0,1.0,0.0,0.0,0.0,1.0,-0.193182064593,-0.302876583859,9.70061221123,0.1,0.0,0.0,0.0,0.1,0.0,0.0,0.0,0.1
1405689221399492468,162,1405689221399492468,ardrone_base_link,0.0710861913554,0.00967876784087,-0.00438124220327,0.997413595039,1.0,0.0,0.0,0.0,1.0,0.0,0.0,0.0,100000.0,-0.00504031777382,-0.000784944742918,-0.0016663299175,1.0,0.0,0.0,0.0,1.0,0.0,0.0,0.0,1.0,-0.191285226494,-0.302668908983,9.70044982433,0.1,0.0,0.0,0.0,0.1,0.0,0.0,0.0,0.1
1405689221413302208,163,1405689221413302208,ardrone_base_link,0.0710775941608,0.00968689035192,-0.00439048160097,0.997414088248,1.0,0.0,0.0,0.0,1.0,0.0,0.0,0.0,100000.0,-0.00259265303612,-0.000929430127144,-0.00349239981733,1.0,0.0,0.0,0.0,1.0,0.0,0.0,0.0,1.0,-0.193936261907,-0.302140549198,9.69514070749,0.1,0.0,0.0,0.0,0.1,0.0,0.0,0.0,0.1
1405689221413929550,164,1405689221413929550,ardrone_base_link,0.0710689793809,0.00968630845858,-0.00439910109545,0.997414669788,1.0,0.0,0.0,0.0,1.0,0.0,0.0,0.0,100000.0,-0.00420661270618,-0.00213484838605,-0.00314680254087,1.0,0.0,0.0,0.0,1.0,0.0,0.0,0.0,1.0,-0.192888486758,-0.302130655572,9.72095905542,0.1,0.0,0.0,0.0,0.1,0.0,0.0,0.0,0.1
1405689221414592469,165,1405689221414592469,ardrone_base_link,0.0710688948502,0.00968692864473,-0.00439039711308,0.997414708139,1.0,0.0,0.0,0.0,1.0,0.0,0.0,0.0,100000.0,0.00123101845384,-0.00581089779735,-0.00162408314645,1.0,0.0,0.0,0.0,1.0,0.0,0.0,0.0,1.0,-0.192570941523,-0.30124453716,9.71971194744,0.1,0.0,0.0,0.0,0.1,0.0,0.0,0.0,0.1
1405689221418814124,166,1405689221418814124,ardrone_base_link,0.0710688688992,0.00967822409736,-0.00438977753119,0.997414797216,1.0,0.0,0.0,0.0,1.0,0.0,0.0,0.0,100000.0,-0.00163546204567,-0.00671150209382,-0.00336785241961,1.0,0.0,0.0,0.0,1.0,0.0,0.0,0.0,1.0,-0.190991064534,-0.277930590883,9.71568264961,0.1,0.0,0.0,0.0,0.1,0.0,0.0,0.0,0.1
1405689221425341177,167,1405689221425341177,ardrone_base_link,0.0710687585591,0.00967014079032,-0.00438045377915,0.997414924472,1.0,0.0,0.0,0.0,1.0,0.0,0.0,0.0,100000.0,-0.00135513022542,-0.00641602650285,-0.00159476790577,1.0,0.0,0.0,0.0,1.0,0.0,0.0,0.0,1.0,-0.189907420427,-0.278363446146,9.71788597107,0.1,0.0,0.0,0.0,0.1,0.0,0.0,0.0,0.1
1405689221429017494,168,1405689221429017494,ardrone_base_link,0.0710687585591,0.00967014079032,-0.00438045377915,0.997414924472,1.0,0.0,0.0,0.0,1.0,0.0,0.0,0.0,100000.0,-0.00160241127014,-0.00367761030793,-0.000871052034199,1.0,0.0,0.0,0.0,1.0,0.0,0.0,0.0,1.0,-0.189864030853,-0.306398112327,9.71586664915,0.1,0.0,0.0,0.0,0.1,0.0,0.0,0.0,0.1
1405689221433980279,169,1405689221433980279,ardrone_base_link,0.0710688688992,0.00967822409736,-0.00438977753119,0.997414797216,1.0,0.0,0.0,0.0,1.0,0.0,0.0,0.0,100000.0,-0.00181949883699,-0.00062173610786,-0.00198501674458,1.0,0.0,0.0,0.0,1.0,0.0,0.0,0.0,1.0,-0.167180209979,-0.304398796707,9.7158976078,0.1,0.0,0.0,0.0,0.1,0.0,0.0,0.0,0.1
1405689221438591924,170,1405689221438591924,ardrone_base_link,0.0710687844365,0.00967884430103,-0.0043810732883,0.997414835486,1.0,0.0,0.0,0.0,1.0,0.0,0.0,0.0,100000.0,0.00121375918388,-0.00110609456897,-0.000759496819228,1.0,0.0,0.0,0.0,1.0,0.0,0.0,0.0,1.0,-0.145522296056,-0.300667037815,9.71525915861,0.1,0.0,0.0,0.0,0.1,0.0,0.0,0.0,0.1
1405689221443849012,171,1405689221443849012,ardrone_base_link,0.0710687844365,0.00967884430103,-0.0043810732883,0.997414835486,1.0,0.0,0.0,0.0,1.0,0.0,0.0,0.0,100000.0,0.000515166670084,-0.00209119915962,-0.00157192745246,1.0,0.0,0.0,0.0,1.0,0.0,0.0,0.0,1.0,-0.174073858559,-0.303932080418,9.71593382359,0.1,0.0,0.0,0.0,0.1,0.0,0.0,0.0,0.1
1405689221455771378,172,1405689221455771378,ardrone_base_link,0.0710600768185,0.00967888254824,-0.00438098879004,0.997415455892,1.0,0.0,0.0,0.0,1.0,0.0,0.0,0.0,100000.0,-0.00130496546626,-0.00580737367272,-0.00323087349534,1.0,0.0,0.0,0.0,1.0,0.0,0.0,0.0,1.0,-0.199008625373,-0.304365063459,9.71658453941,0.1,0.0,0.0,0.0,0.1,0.0,0.0,0.0,0.1
1405689221455898612,173,1405689221455898612,ardrone_base_link,0.0710600509403,0.00967017903212,-0.00438036935688,0.997415544877,1.0,0.0,0.0,0.0,1.0,0.0,0.0,0.0,100000.0,-0.00439388304949,-0.00674417987466,-0.00215910049155,1.0,0.0,0.0,0.0,1.0,0.0,0.0,0.0,1.0,-0.169256739691,-0.281461885199,9.69343389273,0.1,0.0,0.0,0.0,0.1,0.0,0.0,0.0,0.1
1405689221458501106,174,1405689221458501106,ardrone_base_link,0.0710513840752,0.00965218910277,-0.00438775048144,0.997416304114,1.0,0.0,0.0,0.0,1.0,0.0,0.0,0.0,100000.0,-0.00469436123967,-0.00636233761907,-0.00428477395326,1.0,0.0,0.0,0.0,1.0,0.0,0.0,0.0,1.0,-0.144289161451,-0.281485432759,9.69343856573,0.1,0.0,0.0,0.0,0.1,0.0,0.0,0.0,0.1
1405689221463812994,175,1405689221463812994,ardrone_base_link,0.0710427606723,0.00965160745092,-0.0043963702176,0.99741688604,1.0,0.0,0.0,0.0,1.0,0.0,0.0,0.0,100000.0,-0.00363610312343,-0.00367624685168,-0.00454501528293,1.0,0.0,0.0,0.0,1.0,0.0,0.0,0.0,1.0,-0.17342662923,-0.31008920148,9.72148009539,0.1,0.0,0.0,0.0,0.1,0.0,0.0,0.0,0.1
1405689221468892226,176,1405689221468892226,ardrone_base_link,0.0710339688082,0.00965226571304,-0.00438758194999,0.997417544545,1.0,0.0,0.0,0.0,1.0,0.0,0.0,0.0,100000.0,0.000473324209452,-0.00317743420601,-0.0044730566442,1.0,0.0,0.0,0.0,1.0,0.0,0.0,0.0,1.0,-0.19855543524,-0.306865485758,9.71939184666,0.1,0.0,0.0,0.0,0.1,0.0,0.0,0.0,0.1
1405689221473989429,177,1405689221473989429,ardrone_base_link,0.0710252954355,0.00966100751954,-0.00438811689336,0.997418075218,1.0,0.0,0.0,0.0,1.0,0.0,0.0,0.0,100000.0,0.00133202970028,-0.000215250998735,-0.00478312000632,1.0,0.0,0.0,0.0,1.0,0.0,0.0,0.0,1.0,-0.192097781599,-0.300926060975,9.71477608681,0.1,0.0,0.0,0.0,0.1,0.0,0.0,0.0,0.1
1405689221478536840,178,1405689221478536840,ardrone_base_link,0.0710253214013,0.0096697120954,-0.00438873609611,0.997417986294,1.0,0.0,0.0,0.0,1.0,0.0,0.0,0.0,100000.0,-0.0016016587615,-0.000667214393616,-0.00250274315476,1.0,0.0,0.0,0.0,1.0,0.0,0.0,0.0,1.0,-0.189991370216,-0.301977888495,9.71671363115,0.1,0.0,0.0,0.0,0.1,0.0,0.0,0.0,0.1
1405689221484486107,179,1405689221484486107,ardrone_base_link,0.0710166397138,0.00967845395243,-0.00438927073018,0.997418517331,1.0,0.0,0.0,0.0,1.0,0.0,0.0,0.0,100000.0,-0.000898391008377,-0.00270704901777,-0.00315784756094,1.0,0.0,0.0,0.0,1.0,0.0,0.0,0.0,1.0,-0.192588666081,-0.300373058394,9.6928357482,0.1,0.0,0.0,0.0,0.1,0.0,0.0,0.0,0.1
1405689221488679507,180,1405689221488679507,ardrone_base_link,0.0710166656695,0.00968715853222,-0.00438988985627,0.997418428256,1.0,0.0,0.0,0.0,1.0,0.0,0.0,0.0,100000.0,-0.00347752124071,0.001205150038,-0.00161072984338,1.0,0.0,0.0,0.0,1.0,0.0,0.0,0.0,1.0,-0.192593284324,-0.300249734893,9.6702067256,0.1,0.0,0.0,0.0,0.1,0.0,0.0,0.0,0.1
1405689221494359077,181,1405689221494359077,ardrone_base_link,0.0710166656695,0.00968715853222,-0.00438988985627,0.997418428256,1.0,0.0,0.0,0.0,1.0,0.0,0.0,0.0,100000.0,-0.00127218663692,-0.00245288014412,-0.00268842885271,1.0,0.0,0.0,0.0,1.0,0.0,0.0,0.0,1.0,-0.168879613653,-0.300465003401,9.67516419888,0.1,0.0,0.0,0.0,0.1,0.0,0.0,0.0,0.1
1405689221508061112,182,1405689221508061112,ardrone_base_link,0.0710166070032,0.00969648285961,-0.00438180470822,0.997418377381,1.0,0.0,0.0,0.0,1.0,0.0,0.0,0.0,100000.0,0.00209680944681,0.00063219293952,-0.00209629815072,1.0,0.0,0.0,0.0,1.0,0.0,0.0,0.0,1.0,-0.145660396107,-0.301101262122,9.67782255411,0.1,0.0,0.0,0.0,0.1,0.0,0.0,0.0,0.1
1405689221508373644,183,1405689221508373644,ardrone_base_link,0.0710166070032,0.00969648285961,-0.00438180470822,0.997418377381,1.0,0.0,0.0,0.0,1.0,0.0,0.0,0.0,100000.0,7.87936151028e-05,-8.74735414982e-05,-0.00115353940055,1.0,0.0,0.0,0.0,1.0,0.0,0.0,0.0,1.0,-0.150654048659,-0.301604979113,9.67630149126,0.1,0.0,0.0,0.0,0.1,0.0,0.0,0.0,0.1
1405689221508941571,184,1405689221508941571,ardrone_base_link,0.0710166070032,0.00969648285961,-0.00438180470822,0.997418377381,1.0,0.0,0.0,0.0,1.0,0.0,0.0,0.0,100000.0,-0.00137673702557,-0.00385373458266,-0.00165837444365,1.0,0.0,0.0,0.0,1.0,0.0,0.0,0.0,1.0,-0.153021901846,-0.301882712543,9.67672965527,0.1,0.0,0.0,0.0,0.1,0.0,0.0,0.0,0.1
1405689221514114204,185,1405689221514114204,ardrone_base_link,0.0710165811289,0.00968777828033,-0.00438118558169,0.997418466527,1.0,0.0,0.0,0.0,1.0,0.0,0.0,0.0,100000.0,-0.00176810473204,-0.00464547052979,-0.000778867863119,1.0,0.0,0.0,0.0,1.0,0.0,0.0,0.0,1.0,-0.15133337751,-0.302179740369,9.67664320469,0.1,0.0,0.0,0.0,0.1,0.0,0.0,0.0,0.1
1405689221518711424,186,1405689221518711424,ardrone_base_link,0.0710166397138,0.00967845395243,-0.00438927073018,0.997418517331,1.0,0.0,0.0,0.0,1.0,0.0,0.0,0.0,100000.0,-0.00316188111901,-0.00476287305355,-0.00161524303257,1.0,0.0,0.0,0.0,1.0,0.0,0.0,0.0,1.0,-0.151278086379,-0.303033512831,9.70022960901,0.1,0.0,0.0,0.0,0.1,0.0,0.0,0.0,0.1
1405689221523585450,187,1405689221523585450,ardrone_base_link,0.0710166137558,0.00966975040951,-0.00438865167757,0.99741860632,1.0,0.0,0.0,0.0,1.0,0.0,0.0,0.0,100000.0,-0.000706072896719,-0.00483964383602,-0.00179420993663,1.0,0.0,0.0,0.0,1.0,0.0,0.0,0.0,1.0,-0.151183905266,-0.303635180369,9.7229637742,0.1,0.0,0.0,0.0,0.1,0.0,0.0,0.0,0.1
1405689221529070336,188,1405689221529070336,ardrone_base_link,0.0710165552491,0.0096790737003,-0.00438056645483,0.997418555598,1.0,0.0,0.0,0.0,1.0,0.0,0.0,0.0,100000.0,0.00187160086352,-0.000426445156336,-0.00132306711748,1.0,0.0,0.0,0.0,1.0,0.0,0.0,0.0,1.0,-0.175372588634,-0.303444791958,9.71774344444,0.1,0.0,0.0,0.0,0.1,0.0,0.0,0.0,0.1
1405689221535364469,189,1405689221535364469,ardrone_base_link,0.0710164965854,0.00968839800922,-0.00437248156618,0.997418504722,1.0,0.0,0.0,0.0,1.0,0.0,0.0,0.0,100000.0,-9.98564064503e-05,0.00051724165678,-0.00138650927693,1.0,0.0,0.0,0.0,1.0,0.0,0.0,0.0,1.0,-0.198770941049,-0.303107441217,9.71527142525,0.1,0.0,0.0,0.0,0.1,0.0,0.0,0.0,0.1
1405689221538674803,190,1405689221538674803,ardrone_base_link,0.0710077972362,0.00968843614503,-0.00437239706515,0.99741912408,1.0,0.0,0.0,0.0,1.0,0.0,0.0,0.0,100000.0,-0.00129966437817,-0.00256195291877,-0.00286448770203,1.0,0.0,0.0,0.0,1.0,0.0,0.0,0.0,1.0,-0.193375209346,-0.303266232088,9.74017853737,0.1,0.0,0.0,0.0,0.1,0.0,0.0,0.0,0.1
1405689221544101333,191,1405689221544101333,ardrone_base_link,0.0710079335219,0.00970522462307,-0.00438233911314,0.997418907529,1.0,0.0,0.0,0.0,1.0,0.0,0.0,0.0,100000.0,-0.00179735571146,0.000897131860256,-0.00231525255367,1.0,0.0,0.0,0.0,1.0,0.0,0.0,0.0,1.0,-0.190015684441,-0.303693811968,9.76257741451,0.1,0.0,0.0,0.0,0.1,0.0,0.0,0.0,0.1
1405689221553914505,192,1405689221553914505,ardrone_base_link,0.0709992258683,0.00970526288133,-0.00438225438458,0.997419527403,1.0,0.0,0.0,0.0,1.0,0.0,0.0,0.0,100000.0,-0.00310973450541,-0.00259094685316,-0.00300667248666,1.0,0.0,0.0,0.0,1.0,0.0,0.0,0.0,1.0,-0.191307551041,-0.303660681099,9.75693826675,0.1,0.0,0.0,0.0,0.1,0.0,0.0,0.0,0.1
1405689221555293769,193,1405689221555293769,ardrone_base_link,0.0709992517334,0.00971396746994,-0.00438287335852,0.997419438105,1.0,0.0,0.0,0.0,1.0,0.0,0.0,0.0,100000.0,-0.000670187175274,-0.00194098439533,-0.00358483940363,1.0,0.0,0.0,0.0,1.0,0.0,0.0,0.0,1.0,-0.190012325719,-0.303700146079,9.75373959541,0.1,0.0,0.0,0.0,0.1,0.0,0.0,0.0,0.1
1405689221558610202,194,1405689221558610202,ardrone_base_link,0.0709991669614,0.00971458704761,-0.00437416933454,0.997419476315,1.0,0.0,0.0,0.0,1.0,0.0,0.0,0.0,100000.0,0.00181363895535,-0.00162476673722,-0.00160029437393,1.0,0.0,0.0,0.0,1.0,0.0,0.0,0.0,1.0,-0.188363996521,-0.281214179471,9.7565912962,0.1,0.0,0.0,0.0,0.1,0.0,0.0,0.0,0.1
1405689221564625619,195,1405689221564625619,ardrone_base_link,0.0709903745225,0.00971524475394,-0.00436538023511,0.997420134246,1.0,0.0,0.0,0.0,1.0,0.0,0.0,0.0,100000.0,-0.000102341175079,-0.00398562848568,-0.00312117114663,1.0,0.0,0.0,0.0,1.0,0.0,0.0,0.0,1.0,-0.187305907905,-0.281556477025,9.75610355139,0.1,0.0,0.0,0.0,0.1,0.0,0.0,0.0,0.1
1405689221569158918,196,1405689221569158918,ardrone_base_link,0.0709903745225,0.00971524475394,-0.00436538023511,0.997420134246,1.0,0.0,0.0,0.0,1.0,0.0,0.0,0.0,100000.0,0.00128127634525,-0.00437522679567,-0.00306935305707,1.0,0.0,0.0,0.0,1.0,0.0,0.0,0.0,1.0,-0.1876358293,-0.309038542211,9.75489032269,0.1,0.0,0.0,0.0,0.1,0.0,0.0,0.0,0.1
1405689221573965131,197,1405689221573965131,ardrone_base_link,0.0709817008655,0.00972398638932,-0.00436591424941,0.997420664025,1.0,0.0,0.0,0.0,1.0,0.0,0.0,0.0,100000.0,-0.00268426537514,-0.000718124269042,-0.00183867616579,1.0,0.0,0.0,0.0,1.0,0.0,0.0,0.0,1.0,-0.18792017065,-0.283362666145,9.73250546455,0.1,0.0,0.0,0.0,0.1,0.0,0.0,0.0,0.1
1405689221578909749,198,1405689221578909749,ardrone_base_link,0.0709817008655,0.00972398638932,-0.00436591424941,0.997420664025,1.0,0.0,0.0,0.0,1.0,0.0,0.0,0.0,100000.0,-0.00453800335526,-0.00124619528651,-0.00344233354554,1.0,0.0,0.0,0.0,1.0,0.0,0.0,0.0,1.0,-0.187739584595,-0.257240499929,9.73439335823,0.1,0.0,0.0,0.0,0.1,0.0,0.0,0.0,0.1
1405689221584180349,199,1405689221584180349,ardrone_base_link,0.0709818115019,0.00973207154377,-0.00437523736531,0.997420536443,1.0,0.0,0.0,0.0,1.0,0.0,0.0,0.0,100000.0,-0.00635551707819,-0.00168494135141,-0.00152050238103,1.0,0.0,0.0,0.0,1.0,0.0,0.0,0.0,1.0,-0.188497158885,-0.265284072608,9.73925269842,0.1,0.0,0.0,0.0,0.1,0.0,0.0,0.0,0.1
1405689221589268506,200,1405689221589268506,ardrone_base_link,0.070981922277,0.00974015671475,-0.00438456021958,0.997420408699,1.0,0.0,0.0,0.0,1.0,0.0,0.0,0.0,100000.0,-0.00788350403309,-0.000977829098701,-0.000840092543513,1.0,0.0,0.0,0.0,1.0,0.0,0.0,0.0,1.0,-0.190083844587,-0.266937896237,9.71346530914,0.1,0.0,0.0,0.0,0.1,0.0,0.0,0.0,0.1
1405689221593795813,201,1405689221593795813,ardrone_base_link,0.0709733585954,0.00973025166866,-0.0044012647767,0.997421041206,1.0,0.0,0.0,0.0,1.0,0.0,0.0,0.0,100000.0,-0.00684031844139,-0.00715153291821,-0.00336036691442,1.0,0.0,0.0,0.0,1.0,0.0,0.0,0.0,1.0,-0.190813745931,-0.287553821504,9.71361835003,0.1,0.0,0.0,0.0,0.1,0.0,0.0,0.0,0.1
1405689221607323777,202,1405689221607323777,ardrone_base_link,0.0709734174222,0.0097209276951,-0.00440935033071,0.997421092224,1.0,0.0,0.0,0.0,1.0,0.0,0.0,0.0,100000.0,-0.00440087961033,-0.00638795271516,-0.00306680658832,1.0,0.0,0.0,0.0,1.0,0.0,0.0,0.0,1.0,-0.19112809673,-0.308664774895,9.71767860651,0.1,0.0,0.0,0.0,0.1,0.0,0.0,0.0,0.1
1405689221610083470,203,1405689221610083470,ardrone_base_link,0.0709646332149,0.00972158544724,-0.00440056124273,0.997421749647,1.0,0.0,0.0,0.0,1.0,0.0,0.0,0.0,100000.0,-0.00191166996956,-0.00574313849211,-0.00539954472333,1.0,0.0,0.0,0.0,1.0,0.0,0.0,0.0,1.0,-0.190466830134,-0.279201666266,9.71679073572,0.1,0.0,0.0,0.0,0.1,0.0,0.0,0.0,0.1
1405689221610697317,204,1405689221610697317,ardrone_base_link,0.0709558406976,0.00972224306416,-0.00439177232177,0.997422407507,1.0,0.0,0.0,0.0,1.0,0.0,0.0,0.0,100000.0,0.000528443604708,-0.00407914817333,-0.00498139765114,1.0,0.0,0.0,0.0,1.0,0.0,0.0,0.0,1.0,-0.190043503419,-0.253358931094,9.71864533424,0.1,0.0,0.0,0.0,0.1,0.0,0.0,0.0,0.1
1405689221619963908,205,1405689221619963908,ardrone_base_link,0.0709470564673,0.00972290050959,-0.00438298321083,0.997423064623,1.0,0.0,0.0,0.0,1.0,0.0,0.0,0.0,100000.0,0.00138916831929,-0.00317554920912,-0.00275798048824,1.0,0.0,0.0,0.0,1.0,0.0,0.0,0.0,1.0,-0.21327961497,-0.260224906728,9.7184315443,0.1,0.0,0.0,0.0,0.1,0.0,0.0,0.0,0.1
