%time,field.header.seq,field.header.stamp,field.header.frame_id,field.batteryPercent,field.state,field.magX,field.magY,field.magZ,field.pressure,field.temp,field.wind_speed,field.wind_angle,field.wind_comp_angle,field.rotX,field.rotY,field.rotZ,field.altd,field.vx,field.vy,field.vz,field.ax,field.ay,field.az,field.motor1,field.motor2,field.motor3,field.motor4,field.tags_count,field.tm
1405448445332087744,0,1405448445332087744,ardrone_base_link,75.0,2,0,0,0,0,0,0.0,0.0,0.0,-0.625,0.944000005722,-4.53900003433,233,0.0,-0.0,-0.0,0.00785328168422,-0.0308236591518,0.993223071098,0,0,0,0,0,49416680.0
1405448445333336357,1,1405448445333336357,ardrone_base_link,75.0,2,0,0,0,0,0,0.0,0.0,0.0,-0.625,0.944000005722,-4.53900003433,233,0.0,-0.0,-0.0,0.0055378107354,-0.0306642893702,0.995623707771,0,0,0,0,0,49421640.0
1405448445334670726,2,1405448445334670726,ardrone_base_link,75.0,2,0,0,0,0,0,0.0,0.0,0.0,-0.625,0.944000005722,-4.53900003433,233,0.0,-0.0,-0.0,0.00272518419661,-0.0308797098696,0.995090782642,0,0,0,0,0,49426612.0
1405448445336188922,3,1405448445336188922,ardrone_base_link,75.0,2,0,0,0,0,0,0.0,0.0,0.0,-0.625,0.943000018597,-4.53900003433,233,0.0,-0.0,-0.0,0.00343970907852,-0.030838785693,0.994768261909,0,0,0,0,0,49431640.0
1405448445337195188,4,1405448445337195188,ardrone_base_link,75.0,2,0,0,0,0,0,0.0,0.0,0.0,-0.625,0.943000018597,-4.53900003433,233,0.0,-0.0,-0.0,0.00370453670621,-0.0309002809227,0.997320473194,0,0,0,0,0,49436648.0
1405448445338481068,5,1405448445338481068,ardrone_base_link,75.0,2,0,0,0,0,0,0.0,0.0,0.0,-0.625,0.943000018597,-4.53900003433,233,0.0,-0.0,-0.0,0.00357530266047,-0.0332209393382,0.999508500099,0,0,0,0,0,49441688.0
1405448445339829100,6,1405448445339829100,ardrone_base_link,75.0,2,0,0,0,0,0,0.0,0.0,0.0,-0.625999987125,0.944000005722,-4.53900003433,233,0.0,-0.0,-0.0,0.00340954982676,-0.0353674888611,0.996434509754,0,0,0,0,0,49446640.0
1405448445341251643,7,1405448445341251643,ardrone_base_link,75.0,2,0,0,0,0,0,0.0,0.0,0.0,-0.625999987125,0.944999992847,-4.53900003433,233,0.0,-0.0,-0.0,0.00339851155877,-0.0323930904269,0.993908166885,0,0,0,0,0,49451664.0
1405448445342746204,8,1405448445342746204,ardrone_base_link,75.0,2,0,0,0,0,0,0.0,0.0,0.0,-0.625999987125,0.944999992847,-4.53900003433,233,0.0,-0.0,-0.0,0.0035536410287,-0.0298405177891,0.994799017906,0,0,0,0,0,49456684.0
1405448445343857922,9,1405448445343857922,ardrone_base_link,75.0,2,0,0,0,0,0,0.0,0.0,0.0,-0.625999987125,0.944999992847,-4.53900003433,233,0.0,-0.0,-0.0,0.00359685136937,-0.0305607002228,0.99502581358,0,0,0,0,0,49461636.0
1405448445346394582,10,1405448445346394582,ardrone_base_link,75.0,2,0,0,0,0,0,0.0,0.0,0.0,-0.623000025749,0.945999979973,-4.53800010681,235,0.0,-0.0,-0.0,0.00704638613388,-0.0298930536956,0.990419447422,0,0,0,0,0,49586524.0
1405448445347693011,11,1405448445347693011,ardrone_base_link,75.0,2,0,0,0,0,0,0.0,0.0,0.0,-0.621999979019,0.944999992847,-4.53800010681,235,0.0,-0.0,-0.0,0.00718159787357,-0.0301281698048,0.990506291389,0,0,0,0,0,49591536.0
1405448445350602687,12,1405448445350602687,ardrone_base_link,75.0,2,0,0,0,0,0,0.0,0.0,0.0,-0.620999991894,0.944000005722,-4.53800010681,235,0.0,-0.0,-0.0,0.00490504037589,-0.0306852664798,0.993465781212,0,0,0,0,0,49596936.0
1405448445351747462,13,1405448445351747462,ardrone_base_link,75.0,2,0,0,0,0,0,0.0,0.0,0.0,-0.620000004768,0.944000005722,-4.53800010681,235,0.0,-0.0,-0.0,0.00273803435266,-0.0306002590805,0.995624184608,0,0,0,0,0,49601520.0
1405448445353075700,14,1405448445353075700,ardrone_base_link,75.0,2,0,0,0,0,0,0.0,0.0,0.0,-0.620000004768,0.944000005722,-4.53800010681,235,0.0,-0.0,-0.0,0.00337108969688,-0.0307777132839,0.997483313084,0,0,0,0,0,49606504.0
1405448445354434628,15,1405448445354434628,ardrone_base_link,75.0,2,0,0,0,0,0,0.0,0.0,0.0,-0.620999991894,0.944000005722,-4.53800010681,233,0.0,-0.0,-0.0,0.00377552350983,-0.0309078581631,0.999466955662,0,0,0,0,0,49611512.0
1405448445355569322,16,1405448445355569322,ardrone_base_link,75.0,2,0,0,0,0,0,0.0,0.0,0.0,-0.620999991894,0.943000018597,-4.53800010681,233,0.0,-0.0,-0.0,0.00362259033136,-0.0310231614858,0.999081015587,0,0,0,0,0,49616576.0
1405448445356941470,17,1405448445356941470,ardrone_base_link,75.0,2,0,0,0,0,0,0.0,0.0,0.0,-0.621999979019,0.943000018597,-4.53800010681,233,0.0,-0.0,-0.0,0.00367739214562,-0.0310333240777,0.998717963696,0,0,0,0,0,49621976.0
1405448445358235509,18,1405448445358235509,ardrone_base_link,75.0,2,0,0,0,0,0,0.0,0.0,0.0,-0.621999979019,0.943000018597,-4.53700017929,233,0.0,-0.0,-0.0,0.00370220444165,-0.0309966672212,0.998892784119,0,0,0,0,0,49626480.0
1405448445359669114,19,1405448445359669114,ardrone_base_link,75.0,2,0,0,0,0,0,0.0,0.0,0.0,-0.621999979019,0.943000018597,-4.53700017929,233,0.0,-0.0,-0.0,0.00373567943461,-0.0308962613344,0.998838543892,0,0,0,0,0,49631536.0
1405448445397998865,20,1405448445397998865,ardrone_base_link,75.0,2,0,0,0,0,0,0.0,0.0,0.0,-0.621999979019,0.944000005722,-4.53700017929,233,0.0,-0.0,-0.0,0.00365492934361,-0.0306961946189,0.996469914913,0,0,0,0,0,49636556.0
1405448445401079618,21,1405448445401079618,ardrone_base_link,75.0,2,0,0,0,0,0,0.0,0.0,0.0,-0.620999991894,0.944000005722,-4.53700017929,233,0.0,-0.0,-0.0,0.00359898270108,-0.0305294170976,0.994114458561,0,0,0,0,0,49641500.0
1405448445402411888,22,1405448445402411888,ardrone_base_link,75.0,2,0,0,0,0,0,0.0,0.0,0.0,-0.620999991894,0.943000018597,-4.53700017929,233,0.0,-0.0,-0.0,0.00357175176032,-0.0304401014,0.992326378822,0,0,0,0,0,49647704.0
1405448445403676462,23,1405448445403676462,ardrone_base_link,75.0,2,0,0,0,0,0,0.0,0.0,0.0,-0.620999991894,0.943000018597,-4.53700017929,233,0.0,-0.0,-0.0,0.00352455093525,-0.0304065104574,0.990299284458,0,0,0,0,0,49651544.0
1405448445405055098,24,1405448445405055098,ardrone_base_link,75.0,2,0,0,0,0,0,0.0,0.0,0.0,-0.620999991894,0.943000018597,-4.53700017929,233,0.0,-0.0,-0.0,0.00363440974616,-0.0305468495935,0.993102490902,0,0,0,0,0,49656504.0
1405448445406258796,25,1405448445406258796,ardrone_base_link,75.0,2,0,0,0,0,0,0.0,0.0,0.0,-0.620999991894,0.941999971867,-4.53700017929,233,0.0,-0.0,-0.0,0.00361543591134,-0.0306299906224,0.993402779102,0,0,0,0,0,49661476.0
1405448445409308658,26,1405448445409308658,ardrone_base_link,75.0,2,0,0,0,0,0,0.0,0.0,0.0,-0.620999991894,0.941999971867,-4.53700017929,233,0.0,-0.0,-0.0,0.00344127602875,-0.0306092109531,0.990298509598,0,0,0,0,0,49666472.0
1405448445410667775,27,1405448445410667775,ardrone_base_link,75.0,2,0,0,0,0,0,0.0,0.0,0.0,-0.620999991894,0.941999971867,-4.53700017929,233,0.0,-0.0,-0.0,0.00338337849826,-0.0306629426777,0.990642488003,0,0,0,0,0,49671468.0
1405448445413667643,28,1405448445413667643,ardrone_base_link,75.0,2,0,0,0,0,0,0.0,0.0,0.0,-0.620999991894,0.941999971867,-4.53700017929,233,0.0,-0.0,-0.0,0.00342890690081,-0.0307627767324,0.993484079838,0,0,0,0,0,49676468.0
1405448445446686458,29,1405448445446686458,ardrone_base_link,75.0,2,0,0,0,0,0,0.0,0.0,0.0,-0.621999979019,0.940999984741,-4.53700017929,233,0.0,-0.0,-0.0,0.0034746627789,-0.0308220200241,0.995625913143,0,0,0,0,0,49681480.0
1405448445447858875,30,1405448445447858875,ardrone_base_link,75.0,2,0,0,0,0,0,0.0,0.0,0.0,-0.621999979019,0.940999984741,-4.53700017929,233,0.0,-0.0,-0.0,0.00344859459437,-0.0307888388634,0.99508023262,0,0,0,0,0,49686460.0
1405448445449359439,31,1405448445449359439,ardrone_base_link,75.0,2,0,0,0,0,0,0.0,0.0,0.0,-0.623000025749,0.940999984741,-4.53700017929,233,0.0,-0.0,-0.0,0.00345010287128,-0.0307436026633,0.994744300842,0,0,0,0,0,49691492.0
1405448445450799894,32,1405448445450799894,ardrone_base_link,75.0,2,0,0,0,0,0,0.0,0.0,0.0,-0.624000012875,0.940999984741,-4.53700017929,233,0.0,-0.0,-0.0,0.00339734787121,-0.0306286141276,0.992562711239,0,0,0,0,0,49696640.0
1405448445451845139,33,1405448445451845139,ardrone_base_link,75.0,2,0,0,0,0,0,0.0,0.0,0.0,-0.624000012875,0.939999997616,-4.53700017929,233,0.0,-0.0,-0.0,0.00339740980417,-0.0281920917332,0.990269720554,0,0,0,0,0,49701472.0
1405448445453105935,34,1405448445453105935,ardrone_base_link,75.0,2,0,0,0,0,0,0.0,0.0,0.0,-0.624000012875,0.939999997616,-4.53700017929,233,0.0,-0.0,-0.0,0.00359163037501,-0.0259488131851,0.993362009525,0,0,0,0,0,49706456.0
1405448445454420846,35,1405448445454420846,ardrone_base_link,75.0,2,0,0,0,0,0,0.0,0.0,0.0,-0.621999979019,0.939999997616,-4.53700017929,233,0.0,-0.0,-0.0,0.00361264357343,-0.0264608543366,0.993579030037,0,0,0,0,0,49711432.0
1405448445455886201,36,1405448445455886201,ardrone_base_link,75.0,2,0,0,0,0,0,0.0,0.0,0.0,-0.621999979019,0.939999997616,-4.53599977493,233,0.0,-0.0,-0.0,0.00359692098573,-0.0267214737833,0.992868602276,0,0,0,0,0,49716436.0
1405448445457005385,37,1405448445457005385,ardrone_base_link,75.0,2,0,0,0,0,0,0.0,0.0,0.0,-0.620999991894,0.93900001049,-4.53599977493,233,0.0,-0.0,-0.0,0.00361800612882,-0.0266114529222,0.993147671223,0,0,0,0,0,49721424.0
1405448445458502643,38,1405448445458502643,ardrone_base_link,75.0,2,0,0,0,0,0,0.0,0.0,0.0,-0.620000004768,0.93900001049,-4.53499984741,233,0.0,-0.0,-0.0,0.0035269795917,-0.026684993878,0.990684270859,0,0,0,0,0,49726400.0
1405448445459671721,39,1405448445459671721,ardrone_base_link,75.0,2,0,0,0,0,0,0.0,0.0,0.0,-0.620000004768,0.93900001049,-4.53499984741,233,0.0,-0.0,-0.0,0.00352485245094,-0.026799602434,0.990775108337,0,0,0,0,0,49731456.0
1405448445461093618,40,1405448445461093618,ardrone_base_link,75.0,2,0,0,0,0,0,0.0,0.0,0.0,-0.620000004768,0.93900001049,-4.53499984741,233,0.0,-0.0,-0.0,0.00353492191061,-0.0269380696118,0.991289019585,0,0,0,0,0,49736420.0
1405448445462422140,41,1405448445462422140,ardrone_base_link,75.0,2,0,0,0,0,0,0.0,0.0,0.0,-0.620000004768,0.938000023365,-4.53499984741,233,0.0,-0.0,-0.0,0.00360492989421,-0.0270443242043,0.993439853191,0,0,0,0,0,49741428.0
1405448445463680504,42,1405448445463680504,ardrone_base_link,75.0,2,0,0,0,0,0,0.0,0.0,0.0,-0.620000004768,0.938000023365,-4.53499984741,233,0.0,-0.0,-0.0,0.00368592189625,-0.0271133389324,0.995865166187,0,0,0,0,0,49746584.0
1405448445464916942,43,1405448445464916942,ardrone_base_link,75.0,2,0,0,0,0,0,0.0,0.0,0.0,-0.619000017643,0.938000023365,-4.53499984741,233,0.0,-0.0,-0.0,0.00365762016736,-0.0270453915,0.995226264,0,0,0,0,0,49751404.0
1405448445466468838,44,1405448445466468838,ardrone_base_link,75.0,2,0,0,0,0,0,0.0,0.0,0.0,-0.619000017643,0.938000023365,-4.53499984741,233,0.0,-0.0,-0.0,0.00359045946971,-0.0292513687164,0.994845628738,0,0,0,0,0,49756376.0
1405448445470518288,45,1405448445470518288,ardrone_base_link,75.0,2,0,0,0,0,0,0.0,0.0,0.0,-0.619000017643,0.936999976635,-4.53499984741,233,0.0,-0.0,-0.0,0.00362964347005,-0.0314967930317,0.997290194035,0,0,0,0,0,49761368.0
1405448445471464895,46,1405448445471464895,ardrone_base_link,75.0,2,0,0,0,0,0,0.0,0.0,0.0,-0.620000004768,0.936999976635,-4.53499984741,233,0.0,-0.0,-0.0,0.00372795737348,-0.0309554822743,0.999601006508,0,0,0,0,0,49766380.0
1405448445472960287,47,1405448445472960287,ardrone_base_link,75.0,2,0,0,0,0,0,0.0,0.0,0.0,-0.620999991894,0.936999976635,-4.53499984741,234,0.0,-0.0,-0.0,0.00371649418958,-0.0306400675327,0.99904435873,0,0,0,0,0,49773208.0
1405448445474178395,48,1405448445474178395,ardrone_base_link,75.0,2,0,0,0,0,0,0.0,0.0,0.0,-0.620999991894,0.93599998951,-4.53499984741,234,0.0,-0.0,-0.0,0.00370305986144,-0.0308025740087,0.998707234859,0,0,0,0,0,49776368.0
1405448445475429316,49,1405448445475429316,ardrone_base_link,75.0,2,0,0,0,0,0,0.0,0.0,0.0,-0.620000004768,0.93599998951,-4.53499984741,234,0.0,-0.0,-0.0,0.00371293327771,-0.0307667516172,0.998893499374,0,0,0,0,0,49781396.0
1405448445476733384,50,1405448445476733384,ardrone_base_link,75.0,2,0,0,0,0,0,0.0,0.0,0.0,-0.620000004768,0.93599998951,-4.53499984741,234,0.0,-0.0,-0.0,0.00371252559125,-0.0307683404535,0.9988463521,0,0,0,0,0,49786376.0
1405448445478011878,51,1405448445478011878,ardrone_base_link,75.0,2,0,0,0,0,0,0.0,0.0,0.0,-0.620000004768,0.935000002384,-4.53499984741,234,0.0,-0.0,-0.0,0.00371392024681,-0.0307530742139,0.998853206635,0,0,0,0,0,49791368.0
1405448445479336029,52,1405448445479336029,ardrone_base_link,75.0,2,0,0,0,0,0,0.0,0.0,0.0,-0.620000004768,0.935000002384,-4.53499984741,234,0.0,-0.0,-0.0,0.00371319591068,-0.0307923424989,0.998838305473,0,0,0,0,0,49796556.0
1405448445480653252,53,1405448445480653252,ardrone_base_link,75.0,2,0,0,0,0,0,0.0,0.0,0.0,-0.620000004768,0.93599998951,-4.53499984741,234,0.0,-0.0,-0.0,0.00376823078841,-0.0285389851779,0.998957931995,0,0,0,0,0,49801552.0
1405448445481927521,54,1405448445481927521,ardrone_base_link,75.0,2,0,0,0,0,0,0.0,0.0,0.0,-0.619000017643,0.93599998951,-4.53499984741,234,0.0,-0.0,-0.0,0.0036810124293,-0.0285725444555,0.996564149857,0,0,0,0,0,49806416.0
1405448445483271629,55,1405448445483271629,ardrone_base_link,75.0,2,0,0,0,0,0,0.0,0.0,0.0,-0.620000004768,0.93599998951,-4.53399991989,233,0.0,-0.0,-0.0,0.00353774148971,-0.0313614532351,0.994094908237,0,0,0,0,0,49811436.0
1405448445484245540,56,1405448445484245540,ardrone_base_link,75.0,2,0,0,0,0,0,0.0,0.0,0.0,-0.620000004768,0.936999976635,-4.53399991989,233,0.0,-0.0,-0.0,0.00128961564042,-0.031146267429,0.994753599167,0,0,0,0,0,49816588.0
1405448445485633833,57,1405448445485633833,ardrone_base_link,75.0,2,0,0,0,0,0,0.0,0.0,0.0,-0.620999991894,0.936999976635,-4.53399991989,233,0.0,-0.0,-0.0,0.00140089052729,-0.0306777358055,0.995079040527,0,0,0,0,0,49821356.0
1405448445486964648,58,1405448445486964648,ardrone_base_link,75.0,2,0,0,0,0,0,0.0,0.0,0.0,-0.621999979019,0.93599998951,-4.53399991989,233,0.0,-0.0,-0.0,0.00424185628071,-0.0307958330959,0.994835138321,0,0,0,0,0,49826336.0
1405448445488231481,59,1405448445488231481,ardrone_base_link,75.0,2,0,0,0,0,0,0.0,0.0,0.0,-0.623000025749,0.93599998951,-4.53399991989,233,0.0,-0.0,-0.0,0.00163140660152,-0.0330074056983,0.994834423065,0,0,0,0,0,49831352.0
1405448445489449828,60,1405448445489449828,ardrone_base_link,75.0,2,0,0,0,0,0,0.0,0.0,0.0,-0.624000012875,0.93599998951,-4.53399991989,233,0.0,-0.0,-0.0,0.0012014831882,-0.0329096131027,0.994834661484,0,0,0,0,0,49836332.0
1405448445490767211,61,1405448445490767211,ardrone_base_link,75.0,2,0,0,0,0,0,0.0,0.0,0.0,-0.625,0.93599998951,-4.53399991989,233,0.0,-0.0,-0.0,0.00414887676015,-0.029893161729,0.992526531219,0,0,0,0,0,49841696.0
1405448445523010909,62,1405448445523010909,ardrone_base_link,75.0,2,0,0,0,0,0,0.0,0.0,0.0,-0.625,0.93599998951,-4.53399991989,233,0.0,-0.0,-0.0,0.00369724002667,-0.0324398428202,0.992454051971,0,0,0,0,0,49846512.0
1405448445524382676,63,1405448445524382676,ardrone_base_link,75.0,2,0,0,0,0,0,0.0,0.0,0.0,-0.625999987125,0.93599998951,-4.53399991989,233,0.0,-0.0,-0.0,0.00330536998808,-0.0329160057008,0.995371282101,0,0,0,0,0,49851352.0
1405448445525853231,64,1405448445525853231,ardrone_base_link,75.0,2,0,0,0,0,0,0.0,0.0,0.0,-0.625,0.93599998951,-4.53399991989,233,0.0,-0.0,-0.0,0.00351086095907,-0.0298936050385,0.995229899883,0,0,0,0,0,49856348.0
1405448445526934423,65,1405448445526934423,ardrone_base_link,75.0,2,0,0,0,0,0,0.0,0.0,0.0,-0.625,0.936999976635,-4.53399991989,233,0.0,-0.0,-0.0,0.00336518348195,-0.030191058293,0.99234610796,0,0,0,0,0,49861332.0
1405448445528350739,66,1405448445528350739,ardrone_base_link,75.0,2,0,0,0,0,0,0.0,0.0,0.0,-0.625,0.936999976635,-4.53499984741,233,0.0,-0.0,-0.0,0.00334200030193,-0.0306449588388,0.990205764771,0,0,0,0,0,49866324.0
1405448445531630323,67,1405448445531630323,ardrone_base_link,75.0,2,0,0,0,0,0,0.0,0.0,0.0,-0.625,0.936999976635,-4.53499984741,233,0.0,-0.0,-0.0,0.00338964303955,-0.0305931530893,0.990750193596,0,0,0,0,0,49871328.0
1405448445532449131,68,1405448445532449131,ardrone_base_link,75.0,2,0,0,0,0,0,0.0,0.0,0.0,-0.625,0.93599998951,-4.53499984741,233,0.0,-0.0,-0.0,0.00357688916847,-0.0308133773506,0.993471860886,0,0,0,0,0,49876320.0
1405448445534035421,69,1405448445534035421,ardrone_base_link,75.0,2,0,0,0,0,0,0.0,0.0,0.0,-0.625999987125,0.93599998951,-4.53499984741,233,0.0,-0.0,-0.0,0.00364497047849,-0.0332243591547,0.995498716831,0,0,0,0,0,49881556.0
1405448445668079252,70,1405448445668079252,ardrone_base_link,75.0,2,0,0,0,0,0,0.0,0.0,0.0,-0.626999974251,0.93599998951,-4.53499984741,233,0.0,-0.0,-0.0,0.0036200415343,-0.0332322195172,0.994971632957,0,0,0,0,0,49886316.0
1405448445669335005,71,1405448445669335005,ardrone_base_link,75.0,2,0,0,0,0,0,0.0,0.0,0.0,-0.628000020981,0.93599998951,-4.53399991989,232,0.0,-0.0,-0.0,0.003642517142,-0.0303707998246,0.99478751421,0,0,0,0,0,49891308.0
1405448445670823298,72,1405448445670823298,ardrone_base_link,75.0,2,0,0,0,0,0,0.0,0.0,0.0,-0.628000020981,0.935000002384,-4.53399991989,232,0.0,-0.0,-0.0,0.00352671532892,-0.0328772291541,0.994848072529,0,0,0,0,0,49897896.0
1405448445672044930,73,1405448445672044930,ardrone_base_link,75.0,2,0,0,0,0,0,0.0,0.0,0.0,-0.629000008106,0.935000002384,-4.53399991989,232,0.0,-0.0,-0.0,0.00340260658413,-0.0354879535735,0.994668424129,0,0,0,0,0,49901744.0
1405448445675700639,74,1405448445675700639,ardrone_base_link,75.0,2,0,0,0,0,0,0.0,0.0,0.0,-0.629999995232,0.935000002384,-4.53299999237,232,0.0,-0.0,-0.0,0.0034388366621,-0.032307498157,0.994823157787,0,0,0,0,0,49906784.0
1405448445676661046,75,1405448445676661046,ardrone_base_link,75.0,2,0,0,0,0,0,0.0,0.0,0.0,-0.629999995232,0.935000002384,-4.53399991989,232,0.0,-0.0,-0.0,0.00356880691834,-0.0298013631254,0.997312903404,0,0,0,0,0,49911308.0
1405448445677866446,76,1405448445677866446,ardrone_base_link,75.0,2,0,0,0,0,0,0.0,0.0,0.0,-0.630999982357,0.934000015259,-4.53299999237,232,0.0,-0.0,-0.0,0.00585413724184,-0.0304277930409,0.997184276581,0,0,0,0,0,49916304.0
1405448445679332391,77,1405448445679332391,ardrone_base_link,75.0,2,0,0,0,0,0,0.0,0.0,0.0,-0.632000029087,0.933000028133,-4.53399991989,232,0.0,-0.0,-0.0,0.0057062888518,-0.0306210033596,0.994246780872,0,0,0,0,0,49921308.0
1405448445680427428,78,1405448445680427428,ardrone_base_link,75.0,2,0,0,0,0,0,0.0,0.0,0.0,-0.633000016212,0.933000028133,-4.53299999237,232,0.0,-0.0,-0.0,0.0052311741747,-0.0304759256542,0.994545340538,0,0,0,0,0,49926356.0
1405448445681669221,79,1405448445681669221,ardrone_base_link,75.0,2,0,0,0,0,0,0.0,0.0,0.0,-0.634000003338,0.931999981403,-4.53299999237,233,0.0,-0.0,-0.0,0.00549638271332,-0.0305238068104,0.995018959045,0,0,0,0,0,49931296.0
1405448445684121414,80,1405448445684121414,ardrone_base_link,75.0,2,0,0,0,0,0,0.0,0.0,0.0,-0.634000003338,0.931999981403,-4.53299999237,233,0.0,-0.0,-0.0,0.00324347335845,-0.030633026734,0.997246265411,0,0,0,0,0,49936344.0
1405448445832346056,81,1405448445832346056,ardrone_base_link,75.0,2,0,0,0,0,0,0.0,0.0,0.0,-0.634000003338,0.931999981403,-4.53299999237,233,0.0,-0.0,-0.0,0.0033275752794,-0.0306480191648,0.997245073318,0,0,0,0,0,49941256.0
1405448445833584547,82,1405448445833584547,ardrone_base_link,75.0,2,0,0,0,0,0,0.0,0.0,0.0,-0.633000016212,0.931999981403,-4.53299999237,233,0.0,-0.0,-0.0,0.00379590597004,-0.0282678939402,0.994388639927,0,0,0,0,0,49946776.0
1405448445834738631,83,1405448445834738631,ardrone_base_link,75.0,2,0,0,0,0,0,0.0,0.0,0.0,-0.632000029087,0.931999981403,-4.53299999237,233,0.0,-0.0,-0.0,0.00357772293501,-0.0283937286586,0.9947052598,0,0,0,0,0,49951496.0
1405448445836046521,84,1405448445836046521,ardrone_base_link,75.0,2,0,0,0,0,0,0.0,0.0,0.0,-0.632000029087,0.933000028133,-4.53299999237,233,0.0,-0.0,-0.0,0.0036174650304,-0.0313097760081,0.995031654835,0,0,0,0,0,49956680.0
1405448445837269828,85,1405448445837269828,ardrone_base_link,75.0,2,0,0,0,0,0,0.0,0.0,0.0,-0.632000029087,0.933000028133,-4.53299999237,233,0.0,-0.0,-0.0,0.00359112978913,-0.0311337318271,0.994831740856,0,0,0,0,0,49961776.0
1405448445838516700,86,1405448445838516700,ardrone_base_link,75.0,2,0,0,0,0,0,0.0,0.0,0.0,-0.632000029087,0.933000028133,-4.53299999237,233,0.0,-0.0,-0.0,0.00366457086056,-0.0307662617415,0.99491328001,0,0,0,0,0,49966476.0
1405448445839852407,87,1405448445839852407,ardrone_base_link,75.0,2,0,0,0,0,0,0.0,0.0,0.0,-0.632000029087,0.931999981403,-4.53299999237,233,0.0,-0.0,-0.0,0.00376587361097,-0.031082149595,0.997260212898,0,0,0,0,0,49971272.0
1405448445841501122,88,1405448445841501122,ardrone_base_link,75.0,2,0,0,0,0,0,0.0,0.0,0.0,-0.632000029087,0.931999981403,-4.53299999237,233,0.0,-0.0,-0.0,0.00382392830215,-0.0287286248058,0.997348546982,0,0,0,0,0,49976240.0
1405448445842572730,89,1405448445842572730,ardrone_base_link,75.0,2,0,0,0,0,0,0.0,0.0,0.0,-0.632000029087,0.931999981403,-4.53299999237,233,0.0,-0.0,-0.0,0.00375135056674,-0.0263889674097,0.994511425495,0,0,0,0,0,49981232.0
1405448445851748724,90,1405448445851748724,ardrone_base_link,75.0,2,0,0,0,0,0,0.0,0.0,0.0,-0.632000029087,0.931999981403,-4.53299999237,233,0.0,-0.0,-0.0,0.00363303278573,-0.0291674621403,0.994660377502,0,0,0,0,0,49986280.0
1405448445884675619,91,1405448445884675619,ardrone_base_link,75.0,2,0,0,0,0,0,0.0,0.0,0.0,-0.633000016212,0.931999981403,-4.53299999237,233,0.0,-0.0,-0.0,0.00122269033454,-0.0316902622581,0.995078146458,0,0,0,0,0,49991224.0
1405448445887700327,92,1405448445887700327,ardrone_base_link,75.0,2,0,0,0,0,0,0.0,0.0,0.0,-0.634000003338,0.933000028133,-4.53299999237,233,0.0,-0.0,-0.0,-0.00106903444976,-0.0308945011348,0.9949452281,0,0,0,0,0,49996300.0
1405448445889046233,93,1405448445889046233,ardrone_base_link,75.0,2,0,0,0,0,0,0.0,0.0,0.0,-0.634000003338,0.934000015259,-4.53299999237,233,0.0,-0.0,-0.0,-0.000514721730724,-0.0305308029056,0.994999468327,0,0,0,0,0,50001616.0
1405448445890442072,94,1405448445890442072,ardrone_base_link,75.0,2,0,0,0,0,0,0.0,0.0,0.0,-0.634999990463,0.935000002384,-4.53299999237,233,0.0,-0.0,-0.0,-0.000204988959013,-0.0305911377072,0.994957685471,0,0,0,0,0,50006584.0
1405448445891796495,95,1405448445891796495,ardrone_base_link,75.0,2,0,0,0,0,0,0.0,0.0,0.0,-0.634000003338,0.935000002384,-4.53299999237,233,0.0,-0.0,-0.0,-0.000315548677463,-0.0305030494928,0.994994342327,0,0,0,0,0,50011224.0
1405448445893048621,96,1405448445893048621,ardrone_base_link,75.0,2,0,0,0,0,0,0.0,0.0,0.0,-0.634000003338,0.93599998951,-4.53200006485,233,0.0,-0.0,-0.0,-0.000211348262383,-0.0304861385375,0.994977235794,0,0,0,0,0,50016268.0
1405448445901839134,97,1405448445901839134,ardrone_base_link,75.0,2,0,0,0,0,0,0.0,0.0,0.0,-0.634000003338,0.93599998951,-4.53200006485,233,0.0,-0.0,-0.0,-0.000175376815605,-0.0305265691131,0.994976520538,0,0,0,0,0,50022500.0
1405448445903011207,98,1405448445903011207,ardrone_base_link,75.0,2,0,0,0,0,0,0.0,0.0,0.0,-0.634000003338,0.93599998951,-4.53200006485,233,0.0,-0.0,-0.0,-0.000150835243403,-0.0306525658816,0.994983077049,0,0,0,0,0,50026260.0
1405448446060825158,99,1405448446060825158,ardrone_base_link,75.0,2,0,0,0,0,0,0.0,0.0,0.0,-0.633000016212,0.939999997616,-4.53200006485,233,0.0,-0.0,-0.0,0.00287565984763,-0.0305983740836,0.990770459175,0,0,0,0,0,50071196.0
1405448446063040900,100,1405448446063040900,ardrone_base_link,75.0,2,0,0,0,0,0,0.0,0.0,0.0,-0.633000016212,0.940999984741,-4.53200006485,233,0.0,-0.0,-0.0,0.00317584001459,-0.0305674914271,0.991071939468,0,0,0,0,0,50076172.0
1405448446064106166,101,1405448446064106166,ardrone_base_link,75.0,2,0,0,0,0,0,0.0,0.0,0.0,-0.632000029087,0.941999971867,-4.53200006485,233,0.0,-0.0,-0.0,0.00602716580033,-0.0305081065744,0.990838825703,0,0,0,0,0,50081432.0
1405448446065415340,102,1405448446065415340,ardrone_base_link,75.0,2,0,0,0,0,0,0.0,0.0,0.0,-0.632000029087,0.940999984741,-4.53100013733,233,0.0,-0.0,-0.0,0.00821670889854,-0.0281821228564,0.990943551064,0,0,0,0,0,50086296.0
1405448446067591123,103,1405448446067591123,ardrone_base_link,75.0,2,0,0,0,0,0,0.0,0.0,0.0,-0.630999982357,0.939999997616,-4.53100013733,233,0.0,-0.0,-0.0,0.00786037836224,-0.0259509366006,0.991049587727,0,0,0,0,0,50091136.0
1405448446068759967,104,1405448446068759967,ardrone_base_link,75.0,2,0,0,0,0,0,0.0,0.0,0.0,-0.629999995232,0.939999997616,-4.53100013733,233,0.0,-0.0,-0.0,0.0075563150458,-0.0265374090523,0.991048574448,0,0,0,0,0,50096144.0
1405448446070025097,105,1405448446070025097,ardrone_base_link,75.0,2,0,0,0,0,0,0.0,0.0,0.0,-0.629000008106,0.939999997616,-4.53000020981,233,0.0,-0.0,-0.0,0.00778009695932,-0.0269119441509,0.993405044079,0,0,0,0,0,50101144.0
1405448446072055012,106,1405448446072055012,ardrone_base_link,75.0,2,0,0,0,0,0,0.0,0.0,0.0,-0.629999995232,0.93900001049,-4.53100013733,233,0.0,-0.0,-0.0,0.00764284143224,-0.0291264206171,0.995644748211,0,0,0,0,0,50106152.0
1405448446073289364,107,1405448446073289364,ardrone_base_link,75.0,2,0,0,0,0,0,0.0,0.0,0.0,-0.629999995232,0.938000023365,-4.53000020981,233,0.0,-0.0,-0.0,0.0074237594381,-0.0314074233174,0.994952857494,0,0,0,0,0,50111100.0
1405448446074627898,108,1405448446074627898,ardrone_base_link,75.0,2,0,0,0,0,0,0.0,0.0,0.0,-0.630999982357,0.936999976635,-4.53100013733,233,0.0,-0.0,-0.0,0.00717975758016,-0.030752716586,0.992280006409,0,0,0,0,0,50116116.0
1405448446075804020,109,1405448446075804020,ardrone_base_link,75.0,2,0,0,0,0,0,0.0,0.0,0.0,-0.630999982357,0.936999976635,-4.53000020981,233,0.0,-0.0,-0.0,0.00699422555044,-0.0303916409612,0.990128934383,0,0,0,0,0,50121168.0
1405448446077284518,110,1405448446077284518,ardrone_base_link,75.0,2,0,0,0,0,0,0.0,0.0,0.0,-0.630999982357,0.936999976635,-4.53000020981,233,0.0,-0.0,-0.0,0.00701995706186,-0.030581580475,0.993056416512,0,0,0,0,0,50126160.0
1405448446078411894,111,1405448446078411894,ardrone_base_link,75.0,2,0,0,0,0,0,0.0,0.0,0.0,-0.630999982357,0.936999976635,-4.53000020981,233,0.0,-0.0,-0.0,0.00710066314787,-0.0305720176548,0.995709478855,0,0,0,0,0,50131600.0
1405448446079790768,112,1405448446079790768,ardrone_base_link,75.0,2,0,0,0,0,0,0.0,0.0,0.0,-0.630999982357,0.93599998951,-4.53000020981,233,0.0,-0.0,-0.0,0.00491144647822,-0.0306327603757,0.997373461723,0,0,0,0,0,50136116.0
1405448446080959927,113,1405448446080959927,ardrone_base_link,75.0,2,0,0,0,0,0,0.0,0.0,0.0,-0.630999982357,0.936999976635,-4.53000020981,233,0.0,-0.0,-0.0,0.00283087207936,-0.0307030621916,0.99951261282,0,0,0,0,0,50141104.0
1405448446084324801,114,1405448446084324801,ardrone_base_link,75.0,2,0,0,0,0,0,0.0,0.0,0.0,-0.629999995232,0.93599998951,-4.53000020981,233,0.0,-0.0,-0.0,0.00347899599001,-0.03073874861,0.999066352844,0,0,0,0,0,50147428.0
1405448446085245857,115,1405448446085245857,ardrone_base_link,75.0,2,0,0,0,0,0,0.0,0.0,0.0,-0.629999995232,0.936999976635,-4.53000020981,233,0.0,-0.0,-0.0,0.00374828954227,-0.0307250563055,0.996333897114,0,0,0,0,0,50151112.0
1405448446086417700,116,1405448446086417700,ardrone_base_link,75.0,2,0,0,0,0,0,0.0,0.0,0.0,-0.629000008106,0.936999976635,-4.53000020981,233,0.0,-0.0,-0.0,0.0036927042529,-0.0285114310682,0.996667683125,0,0,0,0,0,50156136.0
1405448446087752109,117,1405448446087752109,ardrone_base_link,75.0,2,0,0,0,0,0,0.0,0.0,0.0,-0.629000008106,0.936999976635,-4.53000020981,233,0.0,-0.0,-0.0,0.00153185066301,-0.0263830367476,0.997298061848,0,0,0,0,0,50161080.0
1405448446088916414,118,1405448446088916414,ardrone_base_link,75.0,2,0,0,0,0,0,0.0,0.0,0.0,-0.629000008106,0.938000023365,-4.52899980545,233,0.0,-0.0,-0.0,-0.00087579205865,-0.0292464308441,0.994627594948,0,0,0,0,0,50166284.0
1405448446091681382,119,1405448446091681382,ardrone_base_link,75.0,2,0,0,0,0,0,0.0,0.0,0.0,-0.629000008106,0.938000023365,-4.52899980545,233,0.0,-0.0,-0.0,-0.000442279211711,-0.0317182950675,0.992195785046,0,0,0,0,0,50171080.0
1405448446092838225,120,1405448446092838225,ardrone_base_link,75.0,2,0,0,0,0,0,0.0,0.0,0.0,-0.629000008106,0.938000023365,-4.52899980545,233,0.0,-0.0,-0.0,-0.000157994494657,-0.0309648625553,0.992809593678,0,0,0,0,0,50176044.0
1405448446094082441,121,1405448446094082441,ardrone_base_link,75.0,2,0,0,0,0,0,0.0,0.0,0.0,-0.629999995232,0.93900001049,-4.52899980545,233,0.0,-0.0,-0.0,-0.000361153710401,-0.0306576266885,0.993137955666,0,0,0,0,0,50181076.0
1405448446098703501,122,1405448446098703501,ardrone_base_link,75.0,2,0,0,0,0,0,0.0,0.0,0.0,-0.629999995232,0.93900001049,-4.52899980545,233,0.0,-0.0,-0.0,0.00182512938045,-0.0306296385825,0.990525901318,0,0,0,0,0,50186072.0
1405448446100003483,123,1405448446100003483,ardrone_base_link,75.0,2,0,0,0,0,0,0.0,0.0,0.0,-0.629999995232,0.938000023365,-4.52899980545,233,0.0,-0.0,-0.0,0.00401757843792,-0.0304943434894,0.990550458431,0,0,0,0,0,50191032.0
1405448446101102253,124,1405448446101102253,ardrone_base_link,75.0,2,0,0,0,0,0,0.0,0.0,0.0,-0.629999995232,0.938000023365,-4.52899980545,233,0.0,-0.0,-0.0,0.0012578186579,-0.0305409058928,0.993559241295,0,0,0,0,0,50196052.0
1405448446102511820,125,1405448446102511820,ardrone_base_link,75.0,2,0,0,0,0,0,0.0,0.0,0.0,-0.629000008106,0.93900001049,-4.52799987793,233,0.0,-0.0,-0.0,-0.0012152424315,-0.0305887572467,0.995716273785,0,0,0,0,0,50201056.0
1405448446103800815,126,1405448446103800815,ardrone_base_link,75.0,2,0,0,0,0,0,0.0,0.0,0.0,-0.629000008106,0.93900001049,-4.52799987793,233,0.0,-0.0,-0.0,0.00182338315062,-0.0305757299066,0.995124697685,0,0,0,0,0,50206036.0
1405448446105045328,127,1405448446105045328,ardrone_base_link,75.0,2,0,0,0,0,0,0.0,0.0,0.0,-0.629999995232,0.939999997616,-4.52799987793,233,0.0,-0.0,-0.0,0.00204960047267,-0.0306238941848,0.994779467583,0,0,0,0,0,50211024.0
1405448446106253592,128,1405448446106253592,ardrone_base_link,75.0,2,0,0,0,0,0,0.0,0.0,0.0,-0.630999982357,0.940999984741,-4.52799987793,233,0.0,-0.0,-0.0,-0.000791541999206,-0.0308141279966,0.997436702251,0,0,0,0,0,50216056.0
1405448446107671550,129,1405448446107671550,ardrone_base_link,75.0,2,0,0,0,0,0,0.0,0.0,0.0,-0.630999982357,0.941999971867,-4.52799987793,233,0.0,-0.0,-0.0,-0.000455810019048,-0.0308760255575,0.997318804264,0,0,0,0,0,50221072.0
1405448446108928539,130,1405448446108928539,ardrone_base_link,75.0,2,0,0,0,0,0,0.0,0.0,0.0,-0.630999982357,0.943000018597,-4.52799987793,233,0.0,-0.0,-0.0,-5.09982492076e-05,-0.030811233446,0.994390547276,0,0,0,0,0,50226012.0
1405448446110446067,131,1405448446110446067,ardrone_base_link,75.0,2,0,0,0,0,0,0.0,0.0,0.0,-0.630999982357,0.943000018597,-4.52799987793,233,0.0,-0.0,-0.0,-0.000181768249604,-0.0308015719056,0.994667410851,0,0,0,0,0,50231040.0
1405448446111685389,132,1405448446111685389,ardrone_base_link,75.0,2,0,0,0,0,0,0.0,0.0,0.0,-0.630999982357,0.943000018597,-4.52799987793,233,0.0,-0.0,-0.0,-3.42529274349e-05,-0.0284737497568,0.995259463787,0,0,0,0,0,50236024.0
1405448446113019291,133,1405448446113019291,ardrone_base_link,75.0,2,0,0,0,0,0,0.0,0.0,0.0,-0.629000008106,0.943000018597,-4.52799987793,233,0.0,-0.0,-0.0,1.1942834135e-06,-0.0261839646846,0.995148599148,0,0,0,0,0,50241040.0
1405448446232882503,134,1405448446232882503,ardrone_base_link,75.0,2,0,0,0,0,0,0.0,0.0,0.0,-0.625,0.948000013828,-4.52600002289,233,0.0,-0.0,-0.0,-0.000206959812203,-0.030740218237,0.995106637478,0,0,0,0,0,50310952.0
1405448446234868558,135,1405448446234868558,ardrone_base_link,75.0,2,0,0,0,0,0,0.0,0.0,0.0,-0.625,0.949000000954,-4.52600002289,233,0.0,-0.0,-0.0,-0.00012890205835,-0.0307235140353,0.997324168682,0,0,0,0,0,50315980.0
1405448446238562284,136,1405448446238562284,ardrone_base_link,75.0,2,0,0,0,0,0,0.0,0.0,0.0,-0.625,0.950999975204,-4.52600002289,233,0.0,-0.0,-0.0,-0.000127942956169,-0.0307011734694,0.997317075729,0,0,0,0,0,50320952.0
1405448446289429917,137,1405448446289429917,ardrone_base_link,75.0,2,0,0,0,0,0,0.0,0.0,0.0,-0.624000012875,0.952000021935,-4.52600002289,233,0.0,-0.0,-0.0,-0.000217146996874,-0.0305950790644,0.994383752346,0,0,0,0,0,50326036.0
1405448446605113716,138,1405448446605113716,ardrone_base_link,75.0,2,0,0,0,0,0,0.0,0.0,0.0,-0.617999970913,0.959999978542,-4.52500009537,234,0.0,-0.0,-0.0,0.00361417420208,-0.0283317677677,0.994867146015,0,0,0,0,0,50561008.0
1405448446606501058,139,1405448446606501058,ardrone_base_link,75.0,2,0,0,0,0,0,0.0,0.0,0.0,-0.617999970913,0.959999978542,-4.52500009537,234,0.0,-0.0,-0.0,0.00346236000769,-0.0290173590183,0.995012879372,0,0,0,0,0,50565784.0
1405448446607430399,140,1405448446607430399,ardrone_base_link,75.0,2,0,0,0,0,0,0.0,0.0,0.0,-0.616999983788,0.958999991417,-4.52500009537,234,0.0,-0.0,-0.0,0.00376484706067,-0.0265182424337,0.9974796772,0,0,0,0,0,50570988.0
1405448446608760151,141,1405448446608760151,ardrone_base_link,75.0,2,0,0,0,0,0,0.0,0.0,0.0,-0.615999996662,0.958999991417,-4.52500009537,234,0.0,-0.0,-0.0,0.00383185478859,-0.0266486722976,0.997426450253,0,0,0,0,0,50575772.0
1405448446609986891,142,1405448446609986891,ardrone_base_link,75.0,2,0,0,0,0,0,0.0,0.0,0.0,-0.615999996662,0.958999991417,-4.52400016785,234,0.0,-0.0,-0.0,0.00379648711532,-0.0270819570869,0.99446284771,0,0,0,0,0,50580784.0
1405448446614846762,143,1405448446614846762,ardrone_base_link,75.0,2,0,0,0,0,0,0.0,0.0,0.0,-0.615000009537,0.958000004292,-4.52400016785,234,0.0,-0.0,-0.0,0.00379087589681,-0.0269251018763,0.994768977165,0,0,0,0,0,50586284.0
1405448446616073297,144,1405448446616073297,ardrone_base_link,75.0,2,0,0,0,0,0,0.0,0.0,0.0,-0.614000022411,0.958000004292,-4.52400016785,234,0.0,-0.0,-0.0,0.00376030849293,-0.0270298831165,0.995238959789,0,0,0,0,0,50590772.0
1405448446618239753,145,1405448446618239753,ardrone_base_link,75.0,2,0,0,0,0,0,0.0,0.0,0.0,-0.612999975681,0.958000004292,-4.52400016785,234,0.0,-0.0,-0.0,0.00378836016171,-0.0270514152944,0.997412800789,0,0,0,0,0,50595784.0
1405448446619516879,146,1405448446619516879,ardrone_base_link,75.0,2,0,0,0,0,0,0.0,0.0,0.0,-0.614000022411,0.957000017166,-4.52400016785,234,0.0,-0.0,-0.0,0.00367418769747,-0.0293767172843,0.997308015823,0,0,0,0,0,50600808.0
1405448446620802676,147,1405448446620802676,ardrone_base_link,75.0,2,0,0,0,0,0,0.0,0.0,0.0,-0.614000022411,0.957000017166,-4.52400016785,234,0.0,-0.0,-0.0,0.00577537156641,-0.031475007534,0.994197964668,0,0,0,0,0,50605736.0
1405448446622073121,148,1405448446622073121,ardrone_base_link,75.0,2,0,0,0,0,0,0.0,0.0,0.0,-0.615000009537,0.955999970436,-4.52400016785,233,0.0,-0.0,-0.0,0.00802722759545,-0.0308470204473,0.994487702847,0,0,0,0,0,50610976.0
1405448446629425187,149,1405448446629425187,ardrone_base_link,75.0,2,0,0,0,0,0,0.0,0.0,0.0,-0.615999996662,0.954999983311,-4.52400016785,233,0.0,-0.0,-0.0,0.0074777151458,-0.0305294468999,0.994973301888,0,0,0,0,0,50615728.0
1405448446630613517,150,1405448446630613517,ardrone_base_link,75.0,2,0,0,0,0,0,0.0,0.0,0.0,-0.615999996662,0.953999996185,-4.52400016785,233,0.0,-0.0,-0.0,0.00718033779413,-0.0306227561086,0.994758248329,0,0,0,0,0,50620936.0
1405448446631850714,151,1405448446631850714,ardrone_base_link,75.0,2,0,0,0,0,0,0.0,0.0,0.0,-0.615999996662,0.95300000906,-4.52400016785,233,0.0,-0.0,-0.0,0.00512050418183,-0.028248809278,0.994977712631,0,0,0,0,0,50625776.0
1405448446633276018,152,1405448446633276018,ardrone_base_link,75.0,2,0,0,0,0,0,0.0,0.0,0.0,-0.616999983788,0.95300000906,-4.52400016785,233,0.0,-0.0,-0.0,0.00284944707528,-0.0282918829471,0.994993805885,0,0,0,0,0,50630840.0
1405448446634633731,153,1405448446634633731,ardrone_base_link,75.0,2,0,0,0,0,0,0.0,0.0,0.0,-0.616999983788,0.95300000906,-4.52400016785,233,0.0,-0.0,-0.0,0.00343643384986,-0.0287636686116,0.9949914217,0,0,0,0,0,50635696.0
1405448446636092379,154,1405448446636092379,ardrone_base_link,75.0,2,0,0,0,0,0,0.0,0.0,0.0,-0.616999983788,0.95300000906,-4.52400016785,233,0.0,-0.0,-0.0,0.00378927635029,-0.0262676924467,0.995084643364,0,0,0,0,0,50640700.0
1405448446637115557,155,1405448446637115557,ardrone_base_link,75.0,2,0,0,0,0,0,0.0,0.0,0.0,-0.615999996662,0.95300000906,-4.52400016785,233,0.0,-0.0,-0.0,0.00594684528187,-0.0263805668801,0.99502825737,0,0,0,0,0,50646932.0
1405448446638349383,156,1405448446638349383,ardrone_base_link,75.0,2,0,0,0,0,0,0.0,0.0,0.0,-0.615000009537,0.95300000906,-4.52400016785,233,0.0,-0.0,-0.0,0.00592809729278,-0.0269280355424,0.995013594627,0,0,0,0,0,50650768.0
1405448446639590987,157,1405448446639590987,ardrone_base_link,75.0,2,0,0,0,0,0,0.0,0.0,0.0,-0.615000009537,0.95300000906,-4.52400016785,233,0.0,-0.0,-0.0,0.00305750523694,-0.0291101336479,0.994976997375,0,0,0,0,0,50655704.0
1405448446640982676,158,1405448446640982676,ardrone_base_link,75.0,2,0,0,0,0,0,0.0,0.0,0.0,-0.615000009537,0.953999996185,-4.52400016785,233,0.0,-0.0,-0.0,0.00331526924856,-0.0314876511693,0.994863212109,0,0,0,0,0,50660880.0
1405448446642227921,159,1405448446642227921,ardrone_base_link,75.0,2,0,0,0,0,0,0.0,0.0,0.0,-0.615000009537,0.953999996185,-4.52400016785,233,0.0,-0.0,-0.0,0.00380702898838,-0.0309465937316,0.994882524014,0,0,0,0,0,50665696.0
1405448446643543263,160,1405448446643543263,ardrone_base_link,75.0,2,0,0,0,0,0,0.0,0.0,0.0,-0.615000009537,0.953999996185,-4.52400016785,233,0.0,-0.0,-0.0,0.00365073909052,-0.0307537540793,0.99489814043,0,0,0,0,0,50670688.0
1405448446644775530,161,1405448446644775530,ardrone_base_link,75.0,2,0,0,0,0,0,0.0,0.0,0.0,-0.615000009537,0.953999996185,-4.52400016785,233,0.0,-0.0,-0.0,0.00365015584975,-0.0308818984777,0.992501139641,0,0,0,0,0,50675656.0
1405448446646170574,162,1405448446646170574,ardrone_base_link,75.0,2,0,0,0,0,0,0.0,0.0,0.0,-0.615000009537,0.953999996185,-4.52299976349,233,0.0,-0.0,-0.0,0.00354678626172,-0.0307844560593,0.990170180798,0,0,0,0,0,50680688.0
1405448446647443784,163,1405448446647443784,ardrone_base_link,75.0,2,0,0,0,0,0,0.0,0.0,0.0,-0.615000009537,0.953999996185,-4.52299976349,233,0.0,-0.0,-0.0,0.00357983075082,-0.0307990796864,0.990757107735,0,0,0,0,0,50685664.0
1405448446650345779,164,1405448446650345779,ardrone_base_link,75.0,2,0,0,0,0,0,0.0,0.0,0.0,-0.615999996662,0.95300000906,-4.52299976349,233,0.0,-0.0,-0.0,0.00352154485881,-0.0307415910065,0.991065680981,0,0,0,0,0,50690732.0
1405448446651623090,165,1405448446651623090,ardrone_base_link,75.0,2,0,0,0,0,0,0.0,0.0,0.0,-0.615999996662,0.95300000906,-4.52299976349,233,0.0,-0.0,-0.0,0.00352133368142,-0.0307546015829,0.993284642696,0,0,0,0,0,50695688.0
1405448446660541536,166,1405448446660541536,ardrone_base_link,75.0,2,0,0,0,0,0,0.0,0.0,0.0,-0.616999983788,0.95300000906,-4.52299976349,233,0.0,-0.0,-0.0,0.00352847483009,-0.0307411067188,0.995663106441,0,0,0,0,0,50700672.0
1405448446661914136,167,1405448446661914136,ardrone_base_link,75.0,2,0,0,0,0,0,0.0,0.0,0.0,-0.616999983788,0.952000021935,-4.52299976349,233,0.0,-0.0,-0.0,0.00342798000202,-0.0306369327009,0.995064198971,0,0,0,0,0,50705700.0
1405448446663318690,168,1405448446663318690,ardrone_base_link,75.0,2,0,0,0,0,0,0.0,0.0,0.0,-0.617999970913,0.952000021935,-4.52299976349,233,0.0,-0.0,-0.0,0.00337429298088,-0.0305546931922,0.994775414467,0,0,0,0,0,50710864.0
1405448446664525700,169,1405448446664525700,ardrone_base_link,75.0,2,0,0,0,0,0,0.0,0.0,0.0,-0.617999970913,0.952000021935,-4.52299976349,233,0.0,-0.0,-0.0,0.00567364972085,-0.0304718315601,0.994877636433,0,0,0,0,0,50715684.0
1405448446667539613,170,1405448446667539613,ardrone_base_link,75.0,2,0,0,0,0,0,0.0,0.0,0.0,-0.617999970913,0.950999975204,-4.52299976349,233,0.0,-0.0,-0.0,0.0079435352236,-0.0304227471352,0.994784832001,0,0,0,0,0,50720688.0
1405448446668912986,171,1405448446668912986,ardrone_base_link,75.0,2,0,0,0,0,0,0.0,0.0,0.0,-0.619000017643,0.949999988079,-4.52299976349,233,0.0,-0.0,-0.0,0.00503183575347,-0.0304203238338,0.992475271225,0,0,0,0,0,50725636.0
1405448446670080747,172,1405448446670080747,ardrone_base_link,75.0,2,0,0,0,0,0,0.0,0.0,0.0,-0.619000017643,0.949999988079,-4.52299976349,239,0.0,-0.0,-0.0,0.00253902911209,-0.0305181164294,0.992566585541,0,0,0,0,0,50730728.0
1405448446671707537,173,1405448446671707537,ardrone_base_link,75.0,2,0,0,0,0,0,0.0,0.0,0.0,-0.619000017643,0.949999988079,-4.52400016785,239,0.0,-0.0,-0.0,0.00342428102158,-0.0306736212224,0.995489180088,0,0,0,0,0,50735676.0
1405448446672800247,174,1405448446672800247,ardrone_base_link,75.0,2,0,0,0,0,0,0.0,0.0,0.0,-0.620000004768,0.949999988079,-4.52400016785,239,0.0,-0.0,-0.0,0.00370514160022,-0.0307389069349,0.995198190212,0,0,0,0,0,50740728.0
1405448446674100294,175,1405448446674100294,ardrone_base_link,75.0,2,0,0,0,0,0,0.0,0.0,0.0,-0.619000017643,0.949000000954,-4.52400016785,239,0.0,-0.0,-0.0,0.00355915026739,-0.0307748857886,0.994720876217,0,0,0,0,0,50745880.0
1405448446675452320,176,1405448446675452320,ardrone_base_link,75.0,2,0,0,0,0,0,0.0,0.0,0.0,-0.619000017643,0.949000000954,-4.52400016785,239,0.0,-0.0,-0.0,0.00360365281813,-0.0307946540415,0.994938194752,0,0,0,0,0,50750652.0
1405448446678685725,177,1405448446678685725,ardrone_base_link,75.0,2,0,0,0,0,0,0.0,0.0,0.0,-0.619000017643,0.949000000954,-4.52400016785,239,0.0,-0.0,-0.0,0.0036056288518,-0.0307889599353,0.994882524014,0,0,0,0,0,50755624.0
1405448446679768277,178,1405448446679768277,ardrone_base_link,75.0,2,0,0,0,0,0,0.0,0.0,0.0,-0.619000017643,0.949999988079,-4.52400016785,239,0.0,-0.0,-0.0,0.00131458474789,-0.0308184120804,0.994963049889,0,0,0,0,0,50760820.0
1405448446682807240,179,1405448446682807240,ardrone_base_link,75.0,2,0,0,0,0,0,0.0,0.0,0.0,-0.619000017643,0.950999975204,-4.52400016785,239,0.0,-0.0,-0.0,0.00134585401975,-0.0308273248374,0.99493008852,0,0,0,0,0,50765624.0
1405448446685407630,180,1405448446685407630,ardrone_base_link,75.0,2,0,0,0,0,0,0.0,0.0,0.0,-0.619000017643,0.950999975204,-4.52400016785,239,0.0,-0.0,-0.0,0.00418068887666,-0.0308051202446,0.994882762432,0,0,0,0,0,50771840.0
1405448446691594414,181,1405448446691594414,ardrone_base_link,75.0,2,0,0,0,0,0,0.0,0.0,0.0,-0.619000017643,0.949999988079,-4.52400016785,239,0.0,-0.0,-0.0,0.00402526231483,-0.0308801885694,0.997278034687,0,0,0,0,0,50775596.0
1405448446693079001,182,1405448446693079001,ardrone_base_link,75.0,2,0,0,0,0,0,0.0,0.0,0.0,-0.619000017643,0.949999988079,-4.52400016785,239,0.0,-0.0,-0.0,0.00137637951411,-0.0309717487544,0.999668896198,0,0,0,0,0,50780664.0
1405448446694340980,183,1405448446694340980,ardrone_base_link,75.0,2,0,0,0,0,0,0.0,0.0,0.0,-0.619000017643,0.950999975204,-4.52400016785,239,0.0,-0.0,-0.0,-0.000675765855704,-0.030962811783,0.999131560326,0,0,0,0,0,50785588.0
1405448446696084180,184,1405448446696084180,ardrone_base_link,75.0,2,0,0,0,0,0,0.0,0.0,0.0,-0.619000017643,0.950999975204,-4.52299976349,239,0.0,-0.0,-0.0,0.00201790849678,-0.030827768147,0.996370136738,0,0,0,0,0,50790592.0
1405448446697143823,185,1405448446697143823,ardrone_base_link,75.0,2,0,0,0,0,0,0.0,0.0,0.0,-0.619000017643,0.952000021935,-4.52299976349,239,0.0,-0.0,-0.0,0.00215533026494,-0.0307399965823,0.994198024273,0,0,0,0,0,50795600.0
1405448446709279277,186,1405448446709279277,ardrone_base_link,75.0,2,0,0,0,0,0,0.0,0.0,0.0,-0.617999970913,0.952000021935,-4.52299976349,239,0.0,-0.0,-0.0,0.00131606031209,-0.0306762438267,0.992371320724,0,0,0,0,0,50800664.0
1405448446710245374,187,1405448446710245374,ardrone_base_link,75.0,2,0,0,0,0,0,0.0,0.0,0.0,-0.617999970913,0.952000021935,-4.52299976349,239,0.0,-0.0,-0.0,0.00377833726816,-0.0305694472045,0.99029392004,0,0,0,0,0,50805572.0
1405448446711602001,188,1405448446711602001,ardrone_base_link,75.0,2,0,0,0,0,0,0.0,0.0,0.0,-0.617999970913,0.95300000906,-4.52299976349,233,0.0,-0.0,-0.0,0.00367046729662,-0.030570294708,0.990698695183,0,0,0,0,0,50810796.0
1405448446712997195,189,1405448446712997195,ardrone_base_link,75.0,2,0,0,0,0,0,0.0,0.0,0.0,-0.617999970913,0.952000021935,-4.52299976349,233,0.0,-0.0,-0.0,0.00322457961738,-0.0305814966559,0.991075158119,0,0,0,0,0,50815580.0
1405448446714062274,190,1405448446714062274,ardrone_base_link,75.0,2,0,0,0,0,0,0.0,0.0,0.0,-0.617999970913,0.952000021935,-4.52299976349,233,0.0,-0.0,-0.0,0.0034736613743,-0.0305739995092,0.990888118744,0,0,0,0,0,50820632.0
1405448446715466390,191,1405448446715466390,ardrone_base_link,75.0,2,0,0,0,0,0,0.0,0.0,0.0,-0.617999970913,0.952000021935,-4.52299976349,233,0.0,-0.0,-0.0,0.00344681064598,-0.0305802095681,0.990947663784,0,0,0,0,0,50825556.0
1405448446716804436,192,1405448446716804436,ardrone_base_link,75.0,2,0,0,0,0,0,0.0,0.0,0.0,-0.617999970913,0.952000021935,-4.52299976349,233,0.0,-0.0,-0.0,0.00349879637361,-0.0305845029652,0.99092644453,0,0,0,0,0,50830576.0
1405448446721776384,193,1405448446721776384,ardrone_base_link,75.0,2,0,0,0,0,0,0.0,0.0,0.0,-0.617999970913,0.95300000906,-4.52299976349,233,0.0,-0.0,-0.0,0.00344683299772,-0.0305911377072,0.990946769714,0,0,0,0,0,50836080.0
1405448446722853133,194,1405448446722853133,ardrone_base_link,75.0,2,0,0,0,0,0,0.0,0.0,0.0,-0.617999970913,0.95300000906,-4.52299976349,233,0.0,-0.0,-0.0,0.00338683882728,-0.0328933000565,0.990829348564,0,0,0,0,0,50840564.0
1405448446727842038,195,1405448446727842038,ardrone_base_link,75.0,2,0,0,0,0,0,0.0,0.0,0.0,-0.619000017643,0.95300000906,-4.52299976349,233,0.0,-0.0,-0.0,0.00103388854768,-0.03517235443,0.990776598454,0,0,0,0,0,50845616.0
1405448446731007644,196,1405448446731007644,ardrone_base_link,75.0,2,0,0,0,0,0,0.0,0.0,0.0,-0.619000017643,0.953999996185,-4.52299976349,233,0.0,-0.0,-0.0,-0.00111185072456,-0.0347021743655,0.993249297142,0,0,0,0,0,50850632.0
1405448446731827935,197,1405448446731827935,ardrone_base_link,75.0,2,0,0,0,0,0,0.0,0.0,0.0,-0.620000004768,0.953999996185,-4.52299976349,233,0.0,-0.0,-0.0,-0.000387080479413,-0.0321657322347,0.995687246323,0,0,0,0,0,50855536.0
1405448446737447976,198,1405448446737447976,ardrone_base_link,75.0,2,0,0,0,0,0,0.0,0.0,0.0,-0.620000004768,0.953999996185,-4.52299976349,233,0.0,-0.0,-0.0,-8.10296551208e-05,-0.0300600267947,0.995188951492,0,0,0,0,0,50860708.0
1405448446738516695,199,1405448446738516695,ardrone_base_link,75.0,2,0,0,0,0,0,0.0,0.0,0.0,-0.620999991894,0.954999983311,-4.52299976349,233,0.0,-0.0,-0.0,-0.00030736028566,-0.0305666066706,0.994861841202,0,0,0,0,0,50865544.0
1405448446741699456,200,1405448446741699456,ardrone_base_link,75.0,2,0,0,0,0,0,0.0,0.0,0.0,-0.621999979019,0.954999983311,-4.52299976349,233,0.0,-0.0,-0.0,-0.000310095172608,-0.0308488868177,0.995016098022,0,0,0,0,0,50870592.0
1405448446742841931,201,1405448446742841931,ardrone_base_link,75.0,2,0,0,0,0,0,0.0,0.0,0.0,-0.621999979019,0.954999983311,-4.52299976349,233,0.0,-0.0,-0.0,-0.000437210808741,-0.0305604990572,0.992591738701,0,0,0,0,0,50875524.0
1405448446744413165,202,1405448446744413165,ardrone_base_link,75.0,2,0,0,0,0,0,0.0,0.0,0.0,-0.623000025749,0.955999970436,-4.52299976349,233,0.0,-0.0,-0.0,-0.000431161664892,-0.0305702518672,0.992652773857,0,0,0,0,0,50880548.0
1405448446745420426,203,1405448446745420426,ardrone_base_link,75.0,2,0,0,0,0,0,0.0,0.0,0.0,-0.623000025749,0.957000017166,-4.52299976349,233,0.0,-0.0,-0.0,-0.000332102470566,-0.0305985640734,0.99555927515,0,0,0,0,0,50885528.0
1405448446870215559,204,1405448446870215559,ardrone_base_link,75.0,6,0,0,0,0,0,0.0,0.0,0.0,-0.602999985218,0.967000007629,-4.51999998093,0,181.118438721,41.8481445312,-0.0,0.00348946009763,-0.0291274692863,0.994941353798,70,70,70,70,0,51120444.0
1405448446871566525,205,1405448446871566525,ardrone_base_link,75.0,6,0,0,0,0,0,0.0,0.0,0.0,-0.603999972343,0.967000007629,-4.51999998093,0,184.117614746,43.3499336243,-0.0,0.00343696307391,-0.0313089191914,0.99487298727,70,70,70,70,0,51125432.0
1405448446872912073,206,1405448446872912073,ardrone_base_link,75.0,6,0,0,0,0,0,0.0,0.0,0.0,-0.603999972343,0.967000007629,-4.51999998093,0,187.146133423,44.7543334961,-0.0,0.00350388814695,-0.0307904984802,0.99488055706,70,70,70,70,0,51130576.0
1405448446874164732,207,1405448446874164732,ardrone_base_link,75.0,6,0,0,0,0,0,0.0,0.0,0.0,-0.605000019073,0.967999994755,-4.51999998093,0,190.675674438,46.0611076355,-0.0,0.00123790081125,-0.0305404700339,0.994947910309,70,70,70,70,0,51135856.0
1405448446875465408,208,1405448446875465408,ardrone_base_link,75.0,6,0,0,0,0,0,0.0,0.0,0.0,-0.605000019073,0.96899998188,-4.51999998093,0,194.674621582,47.4045562744,-0.0,-0.000957647105679,-0.0307925753295,0.994998693466,70,70,70,70,0,51140512.0
1405448446876592510,209,1405448446876592510,ardrone_base_link,75.0,6,0,0,0,0,0,0.0,0.0,0.0,-0.606000006199,0.97000002861,-4.51999998093,0,198.450546265,48.7087173462,-0.0,-0.00034626055276,-0.0307630859315,0.994982838631,70,70,70,70,0,51146660.0
1405448446877958176,210,1405448446877958176,ardrone_base_link,74.0,6,0,0,0,0,0,0.0,0.0,0.0,-0.606000006199,0.971000015736,-4.51999998093,0,202.085571289,49.9773406982,-0.0,-6.08295204074e-06,-0.0307559669018,0.994976520538,70,70,70,70,0,51150528.0
1405448446879271077,211,1405448446879271077,ardrone_base_link,74.0,6,0,0,0,0,0,0.0,0.0,0.0,-0.606999993324,0.972999989986,-4.51999998093,0,206.230957031,51.2173957825,-0.0,-0.00242048245855,-0.030759293586,0.995034337044,70,70,70,70,0,51155428.0
1405448446880457764,212,1405448446880457764,ardrone_base_link,74.0,6,0,0,0,0,0,0.0,0.0,0.0,-0.606999993324,0.975000023842,-4.51999998093,0,210.829437256,51.874874115,-0.0,-0.00454067438841,-0.0284895859659,0.995190620422,70,70,70,70,0,51160480.0
1405448446881843621,213,1405448446881843621,ardrone_base_link,74.0,6,0,0,0,0,0,0.0,0.0,0.0,-0.606000006199,0.976000010967,-4.51999998093,0,214.633743286,51.9635925293,-0.0,-0.0016161192907,-0.026196224615,0.995230436325,70,70,70,70,0,51165440.0
1405448446883160754,214,1405448446883160754,ardrone_base_link,74.0,6,0,0,0,0,0,0.0,0.0,0.0,-0.606000006199,0.976999998093,-4.51999998093,1,217.817611694,52.2168731689,-0.0,0.000926195876673,-0.0267267860472,0.995145022869,70,70,70,70,0,51170488.0
1405448446884565414,215,1405448446884565414,ardrone_base_link,74.0,6,0,0,0,0,0,0.0,0.0,0.0,-0.605000019073,0.976999998093,-4.51999998093,1,221.148376465,52.5468177795,-0.0,0.000150678228238,-0.0270459353924,0.995147943497,70,70,70,70,0,51175408.0
1405448446885913471,216,1405448446885913471,ardrone_base_link,74.0,6,0,0,0,0,0,0.0,0.0,0.0,-0.605000019073,0.977999985218,-4.51999998093,1,224.497802734,52.8105049133,-0.0,-0.000222973147174,-0.0268405638635,0.992772459984,70,70,70,70,0,51180488.0
1405448446887288102,217,1405448446887288102,ardrone_base_link,74.0,6,0,0,0,0,0,0.0,0.0,0.0,-0.606000006199,0.978999972343,-4.51900005341,1,227.219787598,53.6338005066,-0.0,0.00212786020711,-0.0291725546122,0.992662131786,70,70,70,70,0,51185644.0
1405448446890247898,218,1405448446890247898,ardrone_base_link,74.0,6,0,0,0,0,0,0.0,0.0,0.0,-0.606000006199,0.977999985218,-4.51900005341,1,229.922775269,55.0178527832,-0.0,0.00203885231167,-0.031499736011,0.9954829216,70,70,70,70,0,51191008.0
1405448446891566376,219,1405448446891566376,ardrone_base_link,74.0,6,0,0,0,0,0,0.0,0.0,0.0,-0.606999993324,0.977999985218,-4.51900005341,1,232.712463379,56.2240142822,-0.0,0.00146071519703,-0.0309346225113,0.995238542557,70,70,70,70,0,51195468.0
1405448446894601603,220,1405448446894601603,ardrone_base_link,74.0,6,0,0,0,0,0,0.0,0.0,0.0,-0.606999993324,0.977999985218,-4.51900005341,1,234.855438232,57.3134078979,-0.0,0.00389754911885,-0.0305481217802,0.994719266891,70,70,70,70,0,51200448.0
1405448446903803751,221,1405448446903803751,ardrone_base_link,74.0,6,0,0,0,0,0,0.0,0.0,0.0,-0.60799998045,0.978999972343,-4.51900005341,1,236.993347168,58.4091033936,-0.0,0.00375736970454,-0.0306914895773,0.99492675066,70,70,70,70,0,51205728.0
1405448446904827102,222,1405448446904827102,ardrone_base_link,74.0,6,0,0,0,0,0,0.0,0.0,0.0,-0.60799998045,0.978999972343,-4.51900005341,0,239.270797729,59.492641449,-0.0,0.00321545358747,-0.0306463781744,0.994886398315,70,70,70,70,0,51210456.0
1405448446906116305,223,1405448446906116305,ardrone_base_link,74.0,6,0,0,0,0,0,0.0,0.0,0.0,-0.60900002718,0.977999985218,-4.51900005341,0,241.458755493,60.5566329956,-0.0,0.0034284661524,-0.0306599624455,0.994909107685,70,70,70,70,0,51215644.0
1405448446907625402,224,1405448446907625402,ardrone_base_link,74.0,6,0,0,0,0,0,0.0,0.0,0.0,-0.60900002718,0.976999998093,-4.51900005341,0,243.623901367,61.5972747803,-0.0,0.00339302048087,-0.0306659881026,0.994878828526,70,70,70,70,0,51220768.0
1405448446908712574,225,1405448446908712574,ardrone_base_link,74.0,6,0,0,0,0,0,0.0,0.0,0.0,-0.60900002718,0.976000010967,-4.51900005341,0,246.282073975,62.6288757324,-0.0,0.00117430475075,-0.0307325255126,0.994947433472,70,70,70,70,0,51226108.0
1405448446910173358,226,1405448446910173358,ardrone_base_link,74.0,6,0,0,0,0,0,0.0,0.0,0.0,-0.610000014305,0.976999998093,-4.51900005341,0,249.440063477,63.6477622986,-0.0,-0.00108345726039,-0.0307764839381,0.995001137257,70,70,70,70,0,51230504.0
1405448446911535123,227,1405448446911535123,ardrone_base_link,74.0,6,0,0,0,0,0,0.0,0.0,0.0,-0.610000014305,0.976999998093,-4.51900005341,0,252.388473511,64.0818862915,-0.0,-0.000454585038824,-0.0284788273275,0.995087563992,70,70,70,70,0,51235348.0
1405448446912794876,228,1405448446912794876,ardrone_base_link,74.0,6,0,0,0,0,0,0.0,0.0,0.0,-0.610000014305,0.977999985218,-4.51900005341,0,255.199401855,63.9589080811,-0.0,-0.000121273995319,-0.0262380689383,0.995189607143,70,70,70,70,0,51240392.0
1405448446914132094,229,1405448446914132094,ardrone_base_link,74.0,6,0,0,0,0,0,0.0,0.0,0.0,-0.60900002718,0.977999985218,-4.51900005341,0,258.011810303,63.9832000732,-0.0,-0.000311844196403,-0.0268053226173,0.995165944099,70,70,70,70,0,51245404.0
1405448446915299170,230,1405448446915299170,ardrone_base_link,74.0,6,0,0,0,0,0,0.0,0.0,0.0,-0.60799998045,0.977999985218,-4.51900005341,0,260.790222168,64.0955200195,-0.0,-0.00024733619648,-0.0270963404328,0.99515080452,70,70,70,70,0,51250416.0
1405448446916616124,231,1405448446916616124,ardrone_base_link,74.0,6,0,0,0,0,0,0.0,0.0,0.0,-0.606999993324,0.978999972343,-4.51900005341,0,263.486724854,64.185295105,-0.0,-0.000119250296848,-0.0270016286522,0.997548282146,70,70,70,70,0,51255424.0
1405448446917968032,232,1405448446917968032,ardrone_base_link,74.0,6,0,0,0,0,0,0.0,0.0,0.0,-0.606999993324,0.978999972343,-4.51900005341,0,266.119720459,64.2830734253,-0.0,-5.55253573111e-05,-0.0270587094128,0.997491657734,70,70,70,70,0,51260736.0
1405448446919280978,233,1405448446919280978,ardrone_base_link,74.0,6,0,0,0,0,0,0.0,0.0,0.0,-0.606000006199,0.978999972343,-4.51900005341,0,268.723175049,64.3620147705,-0.0,-0.000137888579047,-0.0269998740405,0.994567573071,70,70,70,70,0,51265532.0
1405448446920851849,234,1405448446920851849,ardrone_base_link,74.0,6,0,0,0,0,0,0.0,0.0,0.0,-0.605000019073,0.980000019073,-4.51900005341,0,271.27154541,64.4549179077,-0.0,-0.000104268059658,-0.0270589776337,0.994849562645,70,70,70,70,0,51271832.0
1405448446956583927,235,1405448446956583927,ardrone_base_link,74.0,6,0,0,0,0,0,0.0,0.0,0.0,-0.605000019073,0.980000019073,-4.51800012589,0,273.762054443,65.1286010742,-0.0,-4.34740541095e-05,-0.0294434744865,0.997608602047,70,70,70,70,0,51275368.0
1405448446957807853,236,1405448446957807853,ardrone_base_link,74.0,6,0,0,0,0,0,0.0,0.0,0.0,-0.605000019073,0.980000019073,-4.51800012589,0,276.205291748,66.3501663208,-0.0,-2.77345516224e-05,-0.031751409173,0.999625205994,70,70,70,70,0,51280776.0
1405448446959337180,237,1405448446959337180,ardrone_base_link,74.0,6,0,0,0,0,0,0.0,0.0,0.0,-0.605000019073,0.980000019073,-4.51800012589,0,278.608123779,67.3972702026,-0.0,-4.55944755231e-05,-0.0311562903225,0.999115884304,70,70,70,70,0,51285932.0
1405448446967993926,238,1405448446967993926,ardrone_base_link,74.0,6,0,0,0,0,0,0.0,0.0,0.0,-0.605000019073,0.981000006199,-4.51800012589,3,280.991027832,67.7953033447,-0.0,-1.33914763865e-05,-0.0285227335989,0.998901546001,70,70,70,70,0,51290416.0
1405448446969202403,239,1405448446969202403,ardrone_base_link,74.0,6,0,0,0,0,0,0.0,0.0,0.0,-0.605000019073,0.980000019073,-4.51800012589,3,282.779083252,67.6395950317,-0.0,0.00223835301585,-0.0263196192682,0.996758460999,70,70,70,70,0,51295352.0
1405448446974681677,240,1405448446974681677,ardrone_base_link,74.0,6,0,0,0,0,0,0.0,0.0,0.0,-0.603999972343,0.980000019073,-4.51800012589,3,284.011260986,67.5852890015,-0.0,0.00437214784324,-0.0267171766609,0.994287073612,70,70,70,70,0,51300388.0
1405448446975348555,241,1405448446975348555,ardrone_base_link,74.0,6,0,0,0,0,0,0.0,0.0,0.0,-0.603999972343,0.980000019073,-4.51800012589,3,285.35836792,67.6020812988,-0.0,0.00380955589935,-0.0270104855299,0.994884192944,70,70,70,70,0,51305328.0
1405448446997304307,242,1405448446997304307,ardrone_base_link,74.0,6,0,0,0,0,0,0.0,0.0,0.0,-0.603999972343,0.978999972343,-4.51800012589,3,286.750366211,67.5702133179,-0.0,0.00352457934059,-0.0268001332879,0.995195746422,70,70,70,70,0,51310392.0
1405448447020569547,243,1405448447020569547,ardrone_base_link,74.0,6,0,0,0,0,0,0.0,0.0,0.0,-0.602999985218,0.978999972343,-4.51800012589,3,288.078491211,67.5444793701,-0.0,0.00368043780327,-0.026803271845,0.995028734207,70,70,70,70,0,51315312.0
1405448447021705697,244,1405448447021705697,ardrone_base_link,74.0,6,0,0,0,0,0,0.0,0.0,0.0,-0.601999998093,0.978999972343,-4.51800012589,3,289.410522461,67.4866485596,-0.0,0.00355566549115,-0.0266892109066,0.992683768272,70,70,70,70,0,51320360.0
1405448447023025054,245,1405448447023025054,ardrone_base_link,74.0,6,0,0,0,0,0,0.0,0.0,0.0,-0.601000010967,0.977999985218,-4.51800012589,3,290.733551025,67.4159088135,-0.0,0.00348391174339,-0.026628728956,0.990334928036,70,70,70,70,0,51325300.0
1405448447024274638,246,1405448447024274638,ardrone_base_link,74.0,6,0,0,0,0,0,0.0,0.0,0.0,-0.601999998093,0.978999972343,-4.51800012589,0,292.02822876,67.3506240845,-0.0,0.00349387829192,-0.0266664344817,0.990946233273,70,70,70,70,0,51330392.0
1405448447025617671,247,1405448447025617671,ardrone_base_link,74.0,6,0,0,0,0,0,0.0,0.0,0.0,-0.601999998093,0.978999972343,-4.51800012589,0,293.294006348,67.3059463501,-0.0,0.00352423242293,-0.0267379507422,0.99123775959,70,70,70,70,0,51335696.0
1405448447027019256,248,1405448447027019256,ardrone_base_link,74.0,6,0,0,0,0,0,0.0,0.0,0.0,-0.601999998093,0.978999972343,-4.51800012589,0,294.533905029,67.2776794434,-0.0,0.00352818681858,-0.0268020126969,0.991070747375,70,70,70,70,0,51340536.0
1405448447028444841,249,1405448447028444841,ardrone_base_link,74.0,6,0,0,0,0,0,0.0,0.0,0.0,-0.601000010967,0.980000019073,-4.51800012589,0,295.74810791,67.2611999512,-0.0,0.00355251948349,-0.0268378388137,0.991119325161,70,70,70,70,0,51345580.0
1405448447029545671,250,1405448447029545671,ardrone_base_link,74.0,6,0,0,0,0,0,0.0,0.0,0.0,-0.601000010967,0.978999972343,-4.51800012589,0,296.96697998,67.7925872803,-0.0,0.00345137156546,-0.0290686860681,0.988609790802,70,70,70,70,0,51350676.0
1405448447031126869,251,1405448447031126869,ardrone_base_link,74.0,6,0,0,0,0,0,0.0,0.0,0.0,-0.601000010967,0.978999972343,-4.51800012589,0,298.726928711,68.8585128784,-0.0,0.00113457860425,-0.0313184373081,0.988631308079,70,70,70,70,0,51355736.0
1405448447032268027,252,1405448447032268027,ardrone_base_link,74.0,6,0,0,0,0,0,0.0,0.0,0.0,-0.600000023842,0.978999972343,-4.51800012589,0,300.976745605,69.7840194702,-0.0,-0.000981746357866,-0.0308336336166,0.991619348526,70,70,70,70,0,51360356.0
1405448447034225981,253,1405448447034225981,ardrone_base_link,74.0,6,0,0,0,0,0,0.0,0.0,0.0,-0.600000023842,0.980000019073,-4.51700019836,0,303.019256592,70.0642166138,-0.0,-0.000300012034131,-0.028287904337,0.99383610487,70,70,70,70,0,51365288.0
1405448447084327117,254,1405448447084327117,ardrone_base_link,74.0,6,0,0,0,0,0,0.0,0.0,0.0,-0.598999977112,0.981000006199,-4.51700019836,0,304.95501709,69.8291168213,-0.0,-3.10302712023e-05,-0.026209326461,0.993399083614,70,70,70,70,0,51370360.0
1405448447085610427,255,1405448447085610427,ardrone_base_link,74.0,6,0,0,0,0,0,0.0,0.0,0.0,-0.598999977112,0.981000006199,-4.51700019836,0,306.921142578,69.7317123413,-0.0,-0.000285408546915,-0.0267621688545,0.993053376675,70,70,70,70,0,51375236.0
1405448447086774883,256,1405448447086774883,ardrone_base_link,74.0,6,0,0,0,0,0,0.0,0.0,0.0,-0.600000023842,0.98299998045,-4.51700019836,0,308.832946777,69.7341842651,-0.0,-0.000204402123927,-0.0271655954421,0.995602488518,70,70,70,70,0,51380348.0
1405448447088051261,257,1405448447088051261,ardrone_base_link,74.0,6,0,0,0,0,0,0.0,0.0,0.0,-0.601000010967,0.98299998045,-4.51700019836,0,310.716705322,69.6927642822,-0.0,-0.000221096095629,-0.0269864946604,0.995526790619,70,70,70,70,0,51385248.0
1405448447105091064,258,1405448447105091064,ardrone_base_link,74.0,6,0,0,0,0,0,0.0,0.0,0.0,-0.600000023842,0.98299998045,-4.51700019836,0,313.262115479,69.5894851685,-0.0,0.00209688488394,-0.0268825665116,0.995160341263,70,70,70,70,0,51396504.0
1405448447106077153,259,1405448447106077153,ardrone_base_link,74.0,6,0,0,0,0,0,0.0,0.0,0.0,-0.598999977112,0.98299998045,-4.51700019836,0,315.180755615,69.5230255127,-0.0,-0.000680139521137,-0.0268366616219,0.995153725147,70,70,70,70,0,51400348.0
1405448447108518759,260,1405448447108518759,ardrone_base_link,74.0,6,0,0,0,0,0,0.0,0.0,0.0,-0.598999977112,0.98299998045,-4.51700019836,0,316.993438721,69.4359130859,-0.0,-0.000394984614104,-0.026750234887,0.995182335377,70,70,70,70,0,51405276.0
